~Version ---------------------------------------------------
VERS.   2.0 : CWLS log ASCII Standard -VERSION 2.0
WRAP.    NO : One line per depth step
DLM . SPACE : Column Data Section Delimiter
~Well ------------------------------------------------------
STRT .F                  150.0 : START DEPTH
STOP .F                 8293.0 : STOP DEPTH
STEP .F                    0.5 : STEP
NULL .                -9999.25 : NULL VALUE
COMP .                         : COMPANY
WELL .                         : WELL
FLD  .                         : FIELD
LOC  .                         : LOCATION
PROV .                         : PROVINCE
CNTY .                         : COUNTY
STAT .                         : STATE
CTRY .                         : COUNTRY
SRVC .                         : SERVICE COMPANY
DATE .                         : DATE
UWI  .                         : UNIQUE WELL ID
API  .                         : API NUMBER
SLAT .WGS84 3.6806701293464954 : SURFACE LATITUDE
SLON .WGS84  7.095404039225997 : SURFACE LONGITUDE
DATUM.F                3546.97 : DEPTH DATUM ELEV
~Curve Information -----------------------------------------
DEPT.F     : 
HLLD.OHMM  : LATEROLOG DEEP RES.
HLLS.OHMM  : LATEROLOG SHALLOW RES.
RXOZ.OHMM  : FLUSHED ZONE RESISTIVITY
GRR .GAPI  : GAMMA RAY FROM RES.
GRD .GAPI  : GAMMA RAY FROM DENSITY LOG
RHOZ.G/C3  : HILT BULK DENSITY
TNPH.DEC   : THERMAL NEUTRON POROSITY
DPHZ.DEC   : DENSITY POROSITY LIMESTONE
HCAL.IN    : HILT CALIPER
HDRA.G/C3  : DELTA RHO HIP TOOL
PEFZ.B/E   : HILT PHOTOELECTRIC FACTOR
DTCO.US/F  : COMPRESSIONAL-WAVE INTERVAL TRANSIT TIME ACAUSTIC SLOWNESS
DTLF.US/F  : ACOUSTIC TRANSIT TIME, LONG SPACED, FAR ARRAY
DTLN.US/F  : ACOUSTIC TRANSIT TIME, LONG SPACED, NEAR ARRAY
DTSM.US/F  : DTSM
PR  .None  : POISSON SHEAR-COMPRESIONAL RATIO
VPVS.None  : 
~Params ----------------------------------------------------
~Other -----------------------------------------------------
~ASCII -----------------------------------------------------
# ...
 5971.50000   23.90000   23.18280   27.19310   48.42130   -9999.25    2.72370    0.07830   -0.00970    9.17660   -0.00320    3.05890   57.88910   58.86840   58.79950   96.56650    0.23890    1.70470
 5972.00000   25.82250   30.08670   29.30250   45.61500   -9999.25    2.73030    0.07150   -0.00730    9.20730   -0.00210    3.05950   56.17650   57.50960   57.97640   95.34190    0.24570    1.70480
 5972.50000   24.94420   28.79520   28.51010   46.42040   -9999.25    2.74050    0.06580   -0.01030    9.20770   -0.00210    3.05750   54.91430   56.68700   56.77950   94.27710    0.25250    1.71100
 5973.00000   26.07960   28.07850   32.32050   47.95010   -9999.25    2.75540    0.06490   -0.02090    9.20820   -0.00060    3.03060   54.28280   55.68960   55.80340   93.49430    0.25660    1.72050
 5973.50000   30.41280   29.25020   39.51050   49.55960   -9999.25    2.77220    0.06620   -0.03420    9.20860    0.00100    3.03470   53.65130   54.78470   54.98280   92.44580    0.25710    1.75420
 5974.00000   37.13580   37.62550   43.76970   50.52580   -9999.25    2.77370    0.06900   -0.04040    9.23930    0.00250    3.09190   53.38010   54.24830   54.34150   92.43370    0.25820    1.75960
 5974.50000   32.27680   47.58490   32.84850   51.65410   -9999.25    2.77370    0.07280   -0.03780    9.27000    0.00040    3.09700   53.28910   53.98040   53.76270   92.61460    0.25770    1.75380
 5975.00000   25.81130   38.51650   22.13150   52.66100   -9999.25    2.76920    0.07980   -0.03080    9.30060   -0.00200    3.12310   54.18910   53.89470   53.60170   93.21250    0.25430    1.74790
 5975.50000   23.62010   23.28490   18.81620   55.27480   -9999.25    2.75680    0.08910   -0.01690    9.33130   -0.00340    3.08820   55.89990   54.24870   55.32990   95.01670    0.25230    1.74800
 5976.00000   19.73090   20.47550   17.56060   59.13110   -9999.25    2.73270    0.09410   -0.00170    9.36190   -0.00490    3.02830   57.07020   57.06430   57.83260   97.03560    0.25080    1.74820
 5976.50000   17.42090   18.83120   17.96600   63.15150   -9999.25    2.68500    0.09490    0.01100    9.39260   -0.00560    3.00470   57.51980   58.59170   59.06790   98.62290    0.25250    1.74840
 5977.00000   16.71420   17.29850   19.39220   63.71740   -9999.25    2.68170    0.08700    0.01950    9.42330   -0.00780    3.00540   57.87920   58.56750   59.19030   99.59270    0.25750    1.75450
 5977.50000   19.19980   19.41880   21.68150   60.50700   -9999.25    2.67970    0.08230    0.01950    9.45390   -0.00550    2.97590   58.05850   58.39700   59.15640  100.18310    0.25900    1.75470
 5978.00000   22.67440   21.61360   22.91020   62.83720   -9999.25    2.67900    0.08010    0.01660    9.48600   -0.00330    2.97660   58.50810   58.51310   59.09740  100.77110    0.25930    1.75480
 5978.50000   21.16020   23.48110   17.52060   68.86620   -9999.25    2.67800    0.08180    0.02800    9.51730   -0.00560    2.93870   60.21890   59.30960   60.12610  101.61880    0.25780    1.75500
 5979.00000   16.04280   16.55670   13.30380   73.18760   -9999.25    2.67310    0.08610    0.03700    9.57610   -0.00690    2.87860   61.11890   60.68440   62.49160  104.28930    0.25630    1.75510
 5979.50000   10.73750   13.17250    9.87270   74.87700   -9999.25    2.65050    0.08940    0.05450    9.60680   -0.00530    2.69860   62.19910   62.09580   63.67470  107.30450    0.25400    1.74920
 5980.00000    8.14070   10.20740    8.25480   76.28460   -9999.25    2.63280    0.09150    0.06710    9.64150   -0.00310    2.64850   63.36940   63.90980   64.44500  110.60410    0.25410    1.75540
 5980.50000    7.59710    8.65070    7.81100   78.11570   -9999.25    2.61270    0.09400    0.07070    9.66810   -0.00310    2.67930   64.36660   64.86880   65.08720  113.04780    0.25630    1.76760
 5981.00000    7.70410    7.88770    8.98430   80.28820   -9999.25    2.59390    0.09660    0.07550    9.69880   -0.00460    2.67990   65.17540   65.33190   65.40480  114.85130    0.25790    1.77380
 5981.50000    8.03200    7.38620    9.40110   82.93990   -9999.25    2.58990    0.09910    0.08090    9.69920   -0.00760    2.69200   65.54210   65.32990   65.40350  115.44990    0.26240    1.77400
 5982.00000    8.72920    7.52890    9.53580   86.03660   -9999.25    2.57240    0.10190    0.08330    9.69970   -0.01050    2.71110   65.99040   65.35040   65.40210  115.73490    0.26620    1.76810
 5982.50000    9.22780    7.85310    9.67270   87.44530   -9999.25    2.56850    0.10430    0.08210    9.70020   -0.00750    2.71170   66.24780   65.53000   65.45260  115.72290    0.26920    1.76220
 5983.00000    9.62060    8.13540   10.40160   88.57240   -9999.25    2.56570    0.10430    0.08270    9.70060   -0.00600    2.71230   66.21970   65.91470   65.76000  115.71080    0.27160    1.76240
 5983.50000    9.77790    8.48400   10.27940   88.65600   -9999.25    2.56490    0.10190    0.08870    9.67080   -0.00290    2.72640   65.68440   66.22520   66.11960  115.69880    0.27380    1.78060
 5984.00000    8.85580    8.72090    9.12620   87.37410   -9999.25    2.56510    0.10070    0.08880    9.67130   -0.00140    2.74350   65.33220   65.96350   66.20870  115.68680    0.27380    1.81690
 5984.50000    8.26450    8.18930    8.80090   84.84690   -9999.25    2.56650    0.10010    0.08620    9.67180   -0.00140    2.74410   65.35670   65.29920   65.75600  115.67470    0.27530    1.82310
 5985.00000    8.15180    7.53290    8.86150   82.23900   -9999.25    2.57170    0.10070    0.08380    9.67220   -0.00290    2.74470   65.73290   64.74740   65.03290  115.05790    0.27240    1.79310
 5985.50000    8.04080    7.95960    8.92700   79.25090   -9999.25    2.57780    0.10190    0.08200    9.67270   -0.00430    2.77540   65.97220   64.68420   64.85110  113.84110    0.26490    1.79930
 5986.00000    8.26790    8.95420    9.30870   77.24500   -9999.25    2.58440    0.10420    0.08140    9.64280   -0.00430    2.77600   65.88110   64.77260   65.30090  113.22670    0.26490    1.80540
 5986.50000    8.86190    9.87670    9.84160   77.02690   -9999.25    2.59270    0.10420    0.08020    9.64340   -0.00280    2.77660   65.86070   64.68030   65.20930  112.00990    0.26500    1.79960
 5987.00000    9.63120   11.28460   10.48760   78.53660   -9999.25    2.60710    0.10240    0.06690    9.61360    0.00330    2.74710   65.74730   64.27660   64.48620  111.39550    0.26350    1.78160
 5987.50000   10.61310   12.78690   11.33660   78.94060   -9999.25    2.62860    0.10000    0.05010    9.58380    0.00480    2.73020   65.38260   63.54880   63.85320  110.78110    0.25900    1.75170
 5988.00000   11.85830   14.28950   12.18980   78.44160   -9999.25    2.64420    0.09760    0.03860    9.58430    0.00330    2.68840   64.54440   62.64050   62.67900  109.56430    0.25150    1.75180
 5988.50000   13.24960   14.69350   14.58970   76.19410   -9999.25    2.65360    0.09400    0.03080    9.55450    0.00040    2.68900   63.97260   62.25540   62.31670  108.95000    0.25110    1.77000
 5989.00000   14.00710   14.69550   13.06650   71.92290   -9999.25    2.65890    0.08970    0.03140    9.55500    0.00040    2.68960   63.45190   61.98090   61.95450  108.33560    0.26060    1.77020
 5989.50000   14.40890   15.11100   15.21300   67.70830   -9999.25    2.66130    0.08730    0.03380    9.57190   -0.00110    2.69020   62.72640   61.74420   61.68250  107.72120    0.26210    1.77030
 5990.00000   15.02180   15.97530   16.30380   68.91610   -9999.25    2.66020    0.09030    0.03500    9.58610   -0.00260    2.69080   62.21020   61.56090   61.32020  107.70920    0.26370    1.76450
 5990.50000   15.66430   16.20070   16.37850   74.86420   -9999.25    2.65890    0.10410    0.03310    9.58660   -0.00700    2.69140   61.87740   61.41770   61.13840  107.69730    0.26970    1.77670
 5991.00000   15.87450   15.75960   15.43400   84.17960   -9999.25    2.65710    0.10290    0.03130    9.61730   -0.01000    2.69200   61.69490   61.41590   61.04690  109.49250    0.27570    1.79490
 5991.50000   15.84250   13.53130   12.20730   93.68100   -9999.25    2.65230    0.10710    0.03190    9.61780   -0.01000    2.69260   61.93450   61.54100   61.58690  113.09500    0.28180    1.81310
