~Version ---------------------------------------------------
VERS.   2.0 : CWLS log ASCII Standard -VERSION 2.0
WRAP.    NO : One line per depth step
DLM . SPACE : Column Data Section Delimiter
~Well ------------------------------------------------------
STRT .F                  150.0 : START DEPTH
STOP .F                 8293.0 : STOP DEPTH
STEP .F                    0.5 : STEP
NULL .                -9999.25 : NULL VALUE
COMP .                         : COMPANY
WELL .                         : WELL
FLD  .                         : FIELD
LOC  .                         : LOCATION
PROV .                         : PROVINCE
CNTY .                         : COUNTY
STAT .                         : STATE
CTRY .                         : COUNTRY
SRVC .                         : SERVICE COMPANY
DATE .                         : DATE
UWI  .                         : UNIQUE WELL ID
API  .                         : API NUMBER
SLAT .WGS84 3.6806701293464954 : SURFACE LATITUDE
SLON .WGS84  7.095404039225997 : SURFACE LONGITUDE
DATUM.F                3546.97 : DEPTH DATUM ELEV
~Curve Information -----------------------------------------
DEPT.F     : 
HLLD.OHMM  : LATEROLOG DEEP RES.
HLLS.OHMM  : LATEROLOG SHALLOW RES.
RXOZ.OHMM  : FLUSHED ZONE RESISTIVITY
GRR .GAPI  : GAMMA RAY FROM RES.
GRD .GAPI  : GAMMA RAY FROM DENSITY LOG
RHOZ.G/C3  : HILT BULK DENSITY
TNPH.DEC   : THERMAL NEUTRON POROSITY
DPHZ.DEC   : DENSITY POROSITY LIMESTONE
HCAL.IN    : HILT CALIPER
HDRA.G/C3  : DELTA RHO HIP TOOL
PEFZ.B/E   : HILT PHOTOELECTRIC FACTOR
DTCO.US/F  : COMPRESSIONAL-WAVE INTERVAL TRANSIT TIME ACAUSTIC SLOWNESS
DTLF.US/F  : ACOUSTIC TRANSIT TIME, LONG SPACED, FAR ARRAY
DTLN.US/F  : ACOUSTIC TRANSIT TIME, LONG SPACED, NEAR ARRAY
DTSM.US/F  : DTSM
PR  .None  : POISSON SHEAR-COMPRESIONAL RATIO
VPVS.None  : 
~Params ----------------------------------------------------
~Other -----------------------------------------------------
~ASCII -----------------------------------------------------
# ...
 8262.00000 1846.65220 2916.95560  240.09680   45.69410   -9999.25    2.86540    0.02480   -0.09350    7.79100    0.00090    3.27750   62.92400   44.66950   44.95310  110.93980    0.27120    1.81940
 8262.50000  924.04440 1152.33730  676.51940   46.76110   -9999.25    2.87120    0.02330   -0.09110    7.76140   -0.00200    3.27810   62.74030   44.48500   44.86060  111.53640    0.27270    1.81940
 8263.00000  850.47640  885.48570  995.44530   47.27530   -9999.25    2.87270    0.01720   -0.08990    7.76220    0.00160    3.30890   62.56580   44.39070   44.76820  111.53010    0.27270    1.81950
 8263.50000  886.68010 1121.11690  855.98710   46.96680   -9999.25    2.86670    0.01690   -0.08870    7.76290    0.00470    3.36990   62.47390   44.33940   44.67570  110.92170    0.27420    1.81950
 8264.00000 1545.36650 1564.18820 1572.00560   46.24120   -9999.25    2.84320    0.01720   -0.09760    7.76370    0.01080    3.43090   62.47210   44.33800   44.67350  110.91570    0.27350    1.81950
 8264.50000 1849.55910 1822.27450 1934.31950   -9999.25   -9999.25    2.82880    0.01910   -0.09870    7.76440    0.01550    3.49190   62.47030   44.42690   44.67130  110.90960    0.27270    1.81350
 8265.00000 1980.69690 1953.41300 1934.84890   -9999.25   -9999.25    2.85160    0.02070   -0.09110    7.76520    0.01170    3.43210   62.37840   44.47680   44.66910  110.90360    0.27270    1.81360
 8265.50000 1721.62620 1848.23600 1831.37850   -9999.25   -9999.25    2.84710    0.02130   -0.06340    7.76590    0.00190    3.40250   62.36020   44.51440   44.66680  110.73920    0.27280    1.81360
 8266.00000  997.00910 1046.71660 1177.58670   -9999.25   -9999.25    2.83760    0.02190   -0.06400    7.76670    0.00130    3.34270   62.28470   44.60310   44.57440  110.28920    0.27280    1.81360
 8266.50000  847.61680  886.33870  957.54010   -9999.25   -9999.25    2.83590    0.02230   -0.08330    7.76740    0.00190    3.31300   62.30240   44.60170   44.48190  110.28310    0.27130    1.80760
 8267.00000  782.20380  950.12320  811.54350   -9999.25   -9999.25    2.84570    0.02230   -0.08820    7.76820   -0.00110    3.25320   62.48250   44.60040   44.66020  110.27710    0.27130    1.80770
 8267.50000  796.64760 1587.56420  869.79250   -9999.25   -9999.25    2.86330    0.02260   -0.08390    7.76890   -0.00270    3.22360   62.66200   44.14790   44.74820  110.27110    0.27130    1.80770
 8268.00000 1124.67860 1774.12330 1070.26110   -9999.25   -9999.25    2.87120    0.02440   -0.06350    7.76970   -0.00170    3.19400   62.72820   42.25190   44.74590  110.26510    0.27220    1.80170
 8268.50000 1364.04660 1702.04600 1085.43950   -9999.25   -9999.25    2.86340    0.02500   -0.06410    7.77050   -0.00170    3.19460   62.72610   38.93860   44.74360  110.25900    0.27280    1.80170
 8269.00000 1266.12760 1461.38950 1013.30380   -9999.25   -9999.25    2.84990    0.02680   -0.08280    7.77120    0.00580    3.22540   62.69730   40.70690   44.72880  110.25300    0.27430    1.80120
 8269.50000 1577.44590 1679.06180 1576.74890   -9999.25   -9999.25    2.84110    0.02710   -0.09780    7.77200    0.01040    3.25620   62.51360   43.64910   44.55860  110.84940    0.27580    1.80070
 8270.00000 2082.04170 2116.87790 1994.48450   -9999.25   -9999.25    2.84210    0.02700   -0.09780    7.77270    0.01040    3.31730   62.33060   44.68270   44.57430  110.84340    0.27580    1.80020
 8270.50000 2687.59420 2805.99950 1126.06300   -9999.25   -9999.25    2.84710    0.02700   -0.08030    7.77350    0.00740    3.34810   62.26850   44.44990   44.66510  111.43980    0.27280    1.79970
 8271.00000 3312.07030 3455.48340  606.82160   -9999.25   -9999.25    2.85660    0.02740   -0.07550    7.77420    0.00290    3.43930   62.42270   44.13840   44.84610  111.79090    0.27130    1.79920
 8271.50000 3177.70850 2966.90410  482.05690   -9999.25   -9999.25    2.86360   -9999.25   -0.07310    7.77500    0.00140    3.31900   62.87450   43.95660   45.02690  112.63250    0.27130    1.79870
 8272.00000 1247.86510 1048.47010  319.99910   -9999.25   -9999.25    2.86790   -9999.25   -0.07200    7.77580   -0.00010    3.19880   63.36260   44.22590   45.20780  113.22890    0.26980    1.79820
 8272.50000  461.85360  331.60100  265.09920   -9999.25   -9999.25    2.86880   -9999.25   -0.08170    7.77650    0.00000    3.19940   63.81490   44.76600   45.35750  113.82530    0.26990    1.79770
 8273.00000  438.66460  305.16240  280.19990   -9999.25   -9999.25    2.86480   -9999.25   -0.09790    7.74690    0.00150    3.23020   64.22940   45.30600   45.47950  113.81840    0.26840    1.79710
 8273.50000  461.20950  305.20440  376.48360   -9999.25   -9999.25    2.84410   -9999.25   -0.09910    7.74770    0.00300    3.23160   64.41980   45.57530   45.57000  113.81250    0.26690    1.79660
 8274.00000  953.82750  341.06970  524.67290   -9999.25   -9999.25    2.83870   -9999.25   -0.09580    7.74180    0.00150    3.29330   64.50810   45.66420   45.62110  113.80650    0.26690    1.79600
 8274.50000 1189.61360  456.46650  531.12640   -9999.25   -9999.25    2.84680   -9999.25   -0.09140    7.71890   -0.00150    3.30330   64.46270   45.66290   45.61880  113.80060    0.26690    1.79610
 8275.00000 1213.39330 1093.92310  523.97540   -9999.25   -9999.25    2.86150   -9999.25   -0.08510    7.75760   -0.00590    3.33590   64.27930   45.66150   45.61650  113.19230    0.26690    1.79610
 8275.50000 1263.30910 1124.85020  548.83520   -9999.25   -9999.25    2.87290   -9999.25   -0.07640    7.78110   -0.00890    3.48410   64.09590   45.57000   45.61430  112.58390    0.26690    1.79610
 8276.00000 2031.58510 1205.79920  746.33070   -9999.25   -9999.25    2.87580   -9999.25   -0.07180    7.78180   -0.01190    3.56620   63.91250   45.47840   45.61200  112.57800    0.26690    1.79610
 8276.50000 2282.17630 1404.75230 1227.27590   -9999.25   -9999.25    2.87580   -9999.25   -0.07080    7.78260   -0.01190    3.55250   63.77840   45.29660   45.21090  113.17450    0.26840    1.79620
 8277.00000 2012.16670 1310.80800 1497.15780   -9999.25   -9999.25    2.87500   -9999.25   -0.08770    7.78330   -0.01040    3.50690   63.77660   43.94190   43.50660  113.77090    0.26840    1.79620
 8277.50000 1445.34730 1064.72490 1583.67440   -9999.25   -9999.25    2.87120   -9999.25   -0.09760    7.78410   -0.00880    3.50760   63.91750   41.14360   40.44240  114.36740    0.26840    1.79620
 8278.00000 1355.99180  732.22810 1025.39290   -9999.25   -9999.25    2.86090   -9999.25   -0.10520    7.78480   -0.00730    3.52250   64.09720   37.44320   39.91920  114.96390    0.26840    1.79630
 8278.50000 1033.86740  611.49500  411.36000   -9999.25   -9999.25    2.83520   -9999.25   -0.09370    7.78560   -0.00730    3.44830   -9999.25   -9999.25   -9999.25   -9999.25   -9999.25   -9999.25
 8279.00000 1037.04350  722.34020  267.06180   -9999.25   -9999.25    2.82760   -9999.25   -0.09130    7.75590   -0.00730    3.41870   -9999.25   -9999.25   -9999.25   -9999.25   -9999.25   -9999.25
 8279.50000 1066.31900  753.13680  149.80010   -9999.25   -9999.25    2.82540   -9999.25   -0.08530    7.75680   -0.00730    3.40670   -9999.25   -9999.25   -9999.25   -9999.25   -9999.25   -9999.25
 8280.00000 1082.73140  712.58590  139.56880   -9999.25   -9999.25    2.82770   -9999.25   -0.07570    7.75760   -0.00550    3.45030   -9999.25   -9999.25   -9999.25   -9999.25   -9999.25   -9999.25
 8280.50000 1324.02560  702.86660  163.30740   -9999.25   -9999.25    2.83150   -9999.25   -0.07210    7.75830   -0.00250    3.54150   -9999.25   -9999.25   -9999.25   -9999.25   -9999.25   -9999.25
 8281.00000 1836.49650  847.11350  171.50400   -9999.25   -9999.25    2.83670   -9999.25   -0.07150    7.72880    0.00090    3.51190   -9999.25   -9999.25   -9999.25   -9999.25   -9999.25   -9999.25
 8281.50000 3151.07960 1264.86410  254.80620   -9999.25   -9999.25    2.83900   -9999.25   -0.07450    7.69920    0.00520    3.48230   -9999.25   -9999.25   -9999.25   -9999.25   -9999.25   -9999.25
 8282.00000 4465.66260 2975.55520  489.68800   -9999.25   -9999.25    2.83120   -9999.25   -0.07990    7.68610    0.01530    3.45260   -9999.25   -9999.25   -9999.25   -9999.25   -9999.25   -9999.25
