~Version ---------------------------------------------------
VERS.   2.0 : CWLS log ASCII Standard -VERSION 2.0
WRAP.    NO : One line per depth step
DLM . SPACE : Column Data Section Delimiter
~Well ------------------------------------------------------
STRT .F                  150.0 : START DEPTH
STOP .F                 8293.0 : STOP DEPTH
STEP .F                    0.5 : STEP
NULL .                -9999.25 : NULL VALUE
COMP .                         : COMPANY
WELL .                         : WELL
FLD  .                         : FIELD
LOC  .                         : LOCATION
PROV .                         : PROVINCE
CNTY .                         : COUNTY
STAT .                         : STATE
CTRY .                         : COUNTRY
SRVC .                         : SERVICE COMPANY
DATE .                         : DATE
UWI  .                         : UNIQUE WELL ID
API  .                         : API NUMBER
SLAT .WGS84 3.6806701293464954 : SURFACE LATITUDE
SLON .WGS84  7.095404039225997 : SURFACE LONGITUDE
DATUM.F                3546.97 : DEPTH DATUM ELEV
~Curve Information -----------------------------------------
DEPT.F     : 
HLLD.OHMM  : LATEROLOG DEEP RES.
HLLS.OHMM  : LATEROLOG SHALLOW RES.
RXOZ.OHMM  : FLUSHED ZONE RESISTIVITY
GRR .GAPI  : GAMMA RAY FROM RES.
GRD .GAPI  : GAMMA RAY FROM DENSITY LOG
RHOZ.G/C3  : HILT BULK DENSITY
TNPH.DEC   : THERMAL NEUTRON POROSITY
DPHZ.DEC   : DENSITY POROSITY LIMESTONE
HCAL.IN    : HILT CALIPER
HDRA.G/C3  : DELTA RHO HIP TOOL
PEFZ.B/E   : HILT PHOTOELECTRIC FACTOR
DTCO.US/F  : COMPRESSIONAL-WAVE INTERVAL TRANSIT TIME ACAUSTIC SLOWNESS
DTLF.US/F  : ACOUSTIC TRANSIT TIME, LONG SPACED, FAR ARRAY
DTLN.US/F  : ACOUSTIC TRANSIT TIME, LONG SPACED, NEAR ARRAY
DTSM.US/F  : DTSM
PR  .None  : POISSON SHEAR-COMPRESIONAL RATIO
VPVS.None  : 
~Params ----------------------------------------------------
~Other -----------------------------------------------------
~ASCII -----------------------------------------------------
# ...
 7877.00000 4026.80220 2851.18730 2002.31640   37.87990   -9999.25    2.88560    0.01090   -0.10120    8.44760    0.00050    3.32630   63.26400   44.15040   44.19190  113.49400    0.28310    1.82630
 7877.50000 3756.06810 2820.15990 2002.86670   36.98030   -9999.25    2.89410    0.01210   -0.10900    8.44770    0.00170    3.25050   63.26350   44.15040   44.28140  112.89160    0.28310    1.82640
 7878.00000 3502.98140 3042.13940 2003.41770   37.58460   -9999.25    2.90070    0.01270   -0.11660    8.44790   -0.00060    3.22030   63.26300   44.06020   44.19010  112.89160    0.28230    1.82640
 7878.50000 3264.09590 3206.13550 2003.96890   39.37250   -9999.25    2.90340    0.01300   -0.11160    8.44800   -0.00560    3.20660   63.17250   43.96990   44.15490  112.89160    0.28160    1.82640
 7879.00000 3043.65160 3297.09520 1977.03060   42.24470   -9999.25    2.89740    0.01300   -0.10490    8.44820   -0.01920    3.22430   63.08190   43.87970   44.09800  112.89160    0.28170    1.82640
 7879.50000 2886.07890 3415.27120 1722.51430   46.18710   -9999.25    2.87940    0.01360   -0.10090    8.44830   -0.02480    3.19030   62.99140   43.87970   43.97140  112.89160    0.28170    1.82650
 7880.00000 2851.09030 3751.07080 1722.98820   51.38510   -9999.25    2.87940    0.01360   -0.10040    8.44850   -0.02830    3.14800   62.90090   43.87370   43.91580  112.28920    0.28170    1.82650
 7880.50000 3119.08400 3828.10380   -9999.25   58.97770   -9999.25    2.88140    0.01330   -0.10470    8.44870   -0.02520    3.11840   62.81030   43.78950   43.91490  112.28920    0.28170    1.82650
 7881.00000 3321.24320 3454.97580   -9999.25   64.23870   -9999.25    2.88460    0.01300   -0.11120    8.44880   -0.01660    3.14940   62.90000   43.69920   43.87670  112.28920    0.28170    1.82660
 7881.50000 3136.39230 3005.67900   -9999.25   72.52420   -9999.25    2.88780    0.01330   -0.10910    8.44890   -0.00840    3.15000   62.89950   43.68930   43.78500  112.28920    0.28170    1.82660
 7882.00000 2749.81200 2710.44360   -9999.25   81.02790   -9999.25    2.89000    0.01360   -0.10310    8.44910   -0.00410    3.21100   62.80900   43.60900   43.73170  111.68670    0.28020    1.82660
 7882.50000 2662.15500 2795.47270   -9999.25   86.96600   -9999.25    2.89000    0.01360   -0.09460    8.44920   -0.00410    3.27200   62.80850   43.51880   43.73080  111.68670    0.28030    1.82670
 7883.00000 3331.85110 3558.42750   -9999.25   89.72270   -9999.25    2.88680    0.01420   -0.08560    8.44940   -0.00410    3.27260   62.80810   43.51880   43.72990  111.68670    0.27880    1.82670
 7883.50000 4863.27250 4917.00730   -9999.25   92.42020   -9999.25    2.87450    0.01540   -0.08040    8.44950   -0.00620    3.30340   62.71750   43.60900   43.72900  111.68670    0.27880    1.82670
 7884.00000 11462.84470 13345.64840   -9999.25   86.98540   -9999.25    2.85950    0.01720   -0.07930    8.44970   -0.00860    3.30400   62.53690   43.51880   43.72810  111.68670    0.27880    1.82670
 7884.50000 21469.41020 57923.58980   -9999.25   77.35850   -9999.25    2.84720    0.01960   -0.07910    8.44980   -0.00850    3.30460   62.44640   43.51880   43.63700  111.68670    0.27880    1.82680
 7885.00000 22482.60740 60851.25000   -9999.25   68.91750   -9999.25    2.83290    0.02140   -0.07590    8.48030   -0.00470    3.27490   62.35580   43.42860   43.63610  111.68670    0.27880    1.82680
 7885.50000 18570.58590 60545.03910   -9999.25   62.49740   -9999.25    2.82720    0.02260   -0.07330    8.51080   -0.00400    3.27560   62.35540   43.42860   43.54500  111.68670    0.27880    1.82680
 7886.00000 16006.57810 60550.02730   -9999.25   55.95500   -9999.25    2.82450    0.02370   -0.07270    8.51560   -0.00240    3.24590   62.26490   43.33830   43.50070  111.68670    0.27890    1.82690
 7886.50000 14557.43950 59719.26170   -9999.25   55.23140   -9999.25    2.82330    0.02370   -0.07410    8.54140   -0.00390    3.24660   62.26440   43.31470   43.36270  111.68670    0.28040    1.82690
 7887.00000 16267.70410 59389.62890   -9999.25   54.69890   -9999.25    2.82240    0.02310   -0.07660    8.54150   -0.00800    3.24720   62.26400   43.22330   43.22700  111.68670    0.28040    1.82690
 7887.50000 22731.99610 58905.58980   -9999.25   53.95350   -9999.25    2.82240    0.02190   -0.07460    8.54170   -0.00990    3.24780   62.35360   43.15790   43.18050  111.68670    0.28040    1.82700
 7888.00000 35840.51950 58909.67190   -9999.25   52.98820   -9999.25    2.82240    0.01590   -0.07040    8.54180   -0.00840    3.27860   62.53460   43.06770   43.08930  111.68670    0.28040    1.82700
 7888.50000 51041.95310 58913.75780   -9999.25   51.98460   -9999.25    2.82330    0.01290   -0.07090    8.57230   -0.00380    3.27920   62.71540   43.09680   43.08840  111.68670    0.28040    1.82700
 7889.00000 57766.41800 58917.84380   -9999.25   49.96720   -9999.25    2.82330    0.01160   -0.07090    8.58040    0.00820    3.24950   62.89630   43.39910   43.08750  112.28920    0.28050    1.82700
 7889.50000 60261.71090 58921.93360 1075.16760   47.82360   -9999.25    2.82270    0.01220   -0.06950    8.63320    0.02180    3.22000   62.98240   43.76280   43.36720  112.28920    0.28050    1.82100
 7890.00000 59164.07810 58926.01950    3.32670   44.30460   -9999.25    2.82390    0.01580   -0.07940    8.63330    0.06850    3.25080   63.07210   44.12620   44.09020  112.89160    0.28050    1.82110
 7890.50000 35268.25780 59753.22270    3.54820   40.11000   -9999.25    2.82390    0.01640   -0.08010    8.63350    0.07310    3.25140   63.16170   44.58020   44.53550  113.49400    0.28050    1.82110
 7891.00000 37079.32810 59757.36330   20.22310   35.91550   -9999.25    2.82580    0.01700   -0.07700    8.63360    0.04450    3.31260   63.35840   44.87220   44.70800  114.09640    0.28050    1.81890
 7891.50000 61056.61330 59761.50780 1202.94710   31.72100   -9999.25    2.83490    0.01520   -0.07220    8.63380    0.00840    3.61840   63.91030   44.74480   44.51710  114.79700    0.27900    1.81510
 7892.00000 6043.39360 58942.36720 1963.87560   27.52650   -9999.25    2.85170    0.00790   -0.09930    8.63390    0.00840    3.85860   64.54420   44.60150   44.43550  115.90360    0.27750    1.80920
 7892.50000 61073.34380 58946.45700 1991.73210   23.33200   -9999.25    2.87510   -0.00060   -0.09690    8.63410    0.00990    3.89000   65.29140   45.11150   45.30680  116.61610    0.27150    1.80320
 7893.00000 61933.58980 58950.54300 1727.06430   17.94320   -9999.25    2.92770   -0.00960   -0.12580    8.62180    0.03550    3.98180   66.27560   46.65320   46.30290  117.10840    0.26860    1.79720
 7893.50000 61942.07810 58954.63280  290.73580   17.69440   -9999.25    2.94890   -0.01190   -0.14990    8.57380    0.03100    4.11230   66.97180   46.94740   46.56030  117.10840    0.26710    1.78850
 7894.00000 61097.36720 58958.72270   74.16550   24.72800   -9999.25    2.96500   -0.00990   -0.15600    8.54360    0.01450    4.33370   66.88000   46.76940   46.59730  116.37730    0.26710    1.78240
 7894.50000 61106.82420 58962.81250   57.93110   36.79270   -9999.25    2.97260   -0.00500   -0.14270    8.52970    0.00850    4.52500   66.15380   46.40580   46.30870  115.16650    0.26710    1.77920
 7895.00000 61115.20310 58966.90230   74.90010   44.76470   -9999.25    2.97590   -0.00020   -0.12340    8.51360    0.00700    4.34290   65.51790   45.99840   46.05400  114.09640    0.26710    1.77620
 7895.50000 61123.57810 58970.98830  611.75940   50.90260   -9999.25    2.91420    0.00330   -0.11200    8.49860    0.00400    3.86650   64.90160   45.58810   45.69220  113.49400    0.26710    1.77320
 7896.00000 60291.09380 58975.07810  773.90190   55.22090   -9999.25    2.89400    0.00490   -0.10480    8.46790    0.00250    3.51300   64.44690   45.27390   45.33040  112.73890    0.26710    1.77330
 7896.50000 59469.34380 58979.17190  780.58060   58.23570   -9999.25    2.88410    0.00490   -0.10240    8.43720    0.00100    3.40960   64.12570   44.95140   45.05880  111.68670    0.26720    1.77000
