~Version ---------------------------------------------------
VERS.   2.0 : CWLS log ASCII Standard -VERSION 2.0
WRAP.    NO : One line per depth step
DLM . SPACE : Column Data Section Delimiter
~Well ------------------------------------------------------
STRT .F                  150.0 : START DEPTH
STOP .F                 8293.0 : STOP DEPTH
STEP .F                    0.5 : STEP
NULL .                -9999.25 : NULL VALUE
COMP .                         : COMPANY
WELL .                         : WELL
FLD  .                         : FIELD
LOC  .                         : LOCATION
PROV .                         : PROVINCE
CNTY .                         : COUNTY
STAT .                         : STATE
CTRY .                         : COUNTRY
SRVC .                         : SERVICE COMPANY
DATE .                         : DATE
UWI  .                         : UNIQUE WELL ID
API  .                         : API NUMBER
SLAT .WGS84 3.6806701293464954 : SURFACE LATITUDE
SLON .WGS84  7.095404039225997 : SURFACE LONGITUDE
DATUM.F                3546.97 : DEPTH DATUM ELEV
~Curve Information -----------------------------------------
DEPT.F     : 
HLLD.OHMM  : LATEROLOG DEEP RES.
HLLS.OHMM  : LATEROLOG SHALLOW RES.
RXOZ.OHMM  : FLUSHED ZONE RESISTIVITY
GRR .GAPI  : GAMMA RAY FROM RES.
GRD .GAPI  : GAMMA RAY FROM DENSITY LOG
RHOZ.G/C3  : HILT BULK DENSITY
TNPH.DEC   : THERMAL NEUTRON POROSITY
DPHZ.DEC   : DENSITY POROSITY LIMESTONE
HCAL.IN    : HILT CALIPER
HDRA.G/C3  : DELTA RHO HIP TOOL
PEFZ.B/E   : HILT PHOTOELECTRIC FACTOR
DTCO.US/F  : COMPRESSIONAL-WAVE INTERVAL TRANSIT TIME ACAUSTIC SLOWNESS
DTLF.US/F  : ACOUSTIC TRANSIT TIME, LONG SPACED, FAR ARRAY
DTLN.US/F  : ACOUSTIC TRANSIT TIME, LONG SPACED, NEAR ARRAY
DTSM.US/F  : DTSM
PR  .None  : POISSON SHEAR-COMPRESIONAL RATIO
VPVS.None  : 
~Params ----------------------------------------------------
~Other -----------------------------------------------------
~ASCII -----------------------------------------------------
# ...
 7509.00000 56429.91410 61630.60940 1952.78850    7.37140   -9999.25    2.95930    0.00710   -0.09970    9.07160    0.00160    3.51270   62.87470   45.58580   45.48730   80.19930   -9999.25   -9999.25
 7509.50000 59683.88280 60787.76170 1953.19300    6.88870   -9999.25    2.96620    0.00280   -0.10690    9.07220    0.00160    3.81530   64.13550   46.03650   45.84730   80.79270   -9999.25   -9999.25
 7510.00000 59692.14840 60794.18750 1953.59750    6.35560   -9999.25    2.96980   -0.00140   -0.14250    9.07280   -0.00350    4.23870   65.21620   46.21650   46.38780   80.86330   -9999.25   -9999.25
 7510.50000 59700.41410 60800.46480 1954.00220    6.79100   -9999.25    2.96860   -0.00440   -0.16050    9.07340   -0.00890    4.26930   65.39590   46.12580   46.56750   81.37710   -9999.25   -9999.25
 7511.00000 59708.68750 60806.74220 1954.40700    7.27700   -9999.25    2.94620   -0.00930   -0.15740    9.07400   -0.01040    4.26980   65.21530   45.76440   45.93490   81.36750   -9999.25   -9999.25
 7511.50000 59716.95310 60813.05470 1954.81200    7.76300   -9999.25    2.93740   -0.01040   -0.14830    9.07460   -0.02390    4.22960   64.58420   45.31290   45.39260   81.26530   -9999.25   -9999.25
 7512.00000 59725.22660 60819.38670 1955.21690    8.32940   -9999.25    2.93490   -0.00610   -0.13680    9.07520   -0.01760    3.93840   64.04320   44.95150   45.03080   80.65030   -9999.25   -9999.25
 7512.50000 59733.50000 60825.71480 1969.21850    9.37510   -9999.25    2.93400   -0.00180   -0.13390    9.07580   -0.00730    4.00440   63.77250   44.59020   44.66900   80.03510   -9999.25   -9999.25
 7513.00000 59741.77340 60832.03910 1983.22440    9.82320   -9999.25    2.93400    0.00370   -0.13580    9.07640   -0.00720    4.18700   63.50180   44.22880   44.39750   79.42020   -9999.25   -9999.25
 7513.50000 56724.85160 60838.37110 1983.63510   10.47380   -9999.25    2.93280    0.00900   -0.13890    9.07700   -0.00870    4.24180   63.14100   43.95770   44.12590   78.91270   -9999.25   -9999.25
 7514.00000 26309.22070 55909.48050 1938.94480   11.09640   -9999.25    2.92970    0.01340   -0.13550    9.07770   -0.02720    4.21430   62.87020   43.77680   43.94460   78.90360   -9999.25   -9999.25
 7514.50000 2236.31760 2073.53270  261.48620   11.53580   -9999.25    2.90940    0.01740   -0.12380    9.07820   -0.02500    3.49960   62.68960   43.77640   44.03390   79.01060   -9999.25   -9999.25
 7515.00000 1413.94370 1717.38230  136.24830   11.79220   -9999.25    2.87730    0.02050   -0.10370    9.07890   -0.00070    3.26640   62.68920   44.31730   44.30370   79.48890   -9999.25   -9999.25
 7515.50000  980.91140 1361.23190  138.17110   11.79370   -9999.25    2.85140    0.02450   -0.09700    9.07950    0.00790    3.18070   62.77880   44.49730   44.48320   79.47890   -9999.25   -9999.25
 7516.00000  850.64890 1082.76050  166.19490   11.79520   -9999.25    2.86190    0.02800   -0.10040    9.08010   -0.00310    3.12030   62.95860   44.40660   44.49930   79.34110   -9999.25   -9999.25
 7516.50000  783.40110 1075.06970  158.69580   11.57350   -9999.25    2.86700    0.02590   -0.08470    9.08070   -0.00410    3.06630   63.04820   44.13550   44.39120   78.85840   -9999.25   -9999.25
 7517.00000  815.20060 1306.54720  179.73280   11.09060   -9999.25    2.87090    0.02290   -0.09050    9.08130   -0.00250    3.03650   63.04670   43.95460   44.02940   78.84940   -9999.25   -9999.25
 7517.50000  974.20530 1896.95650  221.14220   10.59490   -9999.25    2.87290    0.02200   -0.09920    9.05160   -0.00250    2.99920   62.86410   43.77370   43.84810   78.84040   -9999.25   -9999.25
 7518.00000 1553.17660 2421.54370  334.71150   10.36040   -9999.25    2.87410    0.02290   -0.10460    9.05220   -0.00250    2.94680   62.68650   43.77320   44.56900   78.83130   -9999.25   -9999.25
 7518.50000 1750.78220 2750.00150  348.94000   10.82720   -9999.25    2.87550    0.02560   -0.09670    9.05280   -0.00100    2.91700   62.68600   43.95320   45.56060   78.82230   -9999.25   -9999.25
 7519.00000 1948.38780 2661.13870  283.71660   12.61690   -9999.25    2.87440    0.03050   -0.09480    9.02300    0.00060    2.91750   62.89920   44.31370   46.55210   78.96650   -9999.25   -9999.25
 7519.50000 2145.99340 2306.42920  254.09600   16.70920   -9999.25    2.86850    0.03870   -0.08770    9.02370    0.00140    2.94820   63.65690   44.85460   48.37800   80.16580   -9999.25   -9999.25
 7520.00000 2843.29520 1637.13390  161.13350   24.45780   -9999.25    2.77420    0.04300   -0.08600    9.02430    0.00440    2.95870   64.99660   45.66620   47.90360   80.76390   -9999.25   -9999.25
 7520.50000 2070.94090  545.27870    7.41210   30.02760   -9999.25    2.59390    0.04420   -0.06170    8.99460    0.00900    3.02010   65.90670   46.57590   49.34630   81.96320   -9999.25   -9999.25
 7521.00000  220.12310   80.41520    0.86000   31.20530   -9999.25    2.58230    0.04420    0.01780    8.99520    0.03320    3.05120   66.51450   47.29540   49.61610   83.16200   -9999.25   -9999.25
 7521.50000   64.77930   64.41650    0.89660   30.34270   -9999.25    2.65640    0.04360    0.08680    8.99580    0.09860    3.11270   66.91760   47.65440   49.34450   83.75980   -9999.25   -9999.25
 7522.00000   65.42950   78.23110    1.51550   29.80520   -9999.25    2.72950    0.03840    0.07960    8.99640    0.13020    3.16190   66.91710   47.64330   48.71200   84.95950   -9999.25   -9999.25
 7522.50000  163.37280  229.76190   12.88780   31.80500   -9999.25    2.79540    0.03210   -0.02100    8.99700    0.09710    3.26560   66.71550   47.55120   48.35020   85.55720   -9999.25   -9999.25
 7523.00000  983.69290 1325.51560  280.28520   36.16770   -9999.25    2.84600    0.02340   -0.08130    8.99760    0.03990    3.34010   66.30690   47.46800   47.98840   85.97130   -9999.25   -9999.25
 7523.50000 1125.18440  862.48500  227.89470   38.82470   -9999.25    2.86200    0.02180   -0.09400    8.99820   -0.00830    3.40500   65.90030   47.78010   47.87100   85.96080   -9999.25   -9999.25
 7524.00000   80.69840   88.85270   95.50200   37.09070   -9999.25    2.83430    0.02710   -0.09880    9.00040   -0.02030    3.43560   65.56400   48.57390   48.52800   85.95180   -9999.25   -9999.25
 7524.50000   71.08290   66.95280   54.22810   32.29280   -9999.25    2.83660    0.04040   -0.07870    9.02970   -0.01430    3.43610   66.51030   48.72980   48.70770   85.94280   -9999.25   -9999.25
 7525.00000   60.49780   61.83570   41.15030   28.28820   -9999.25    2.84940    0.04770   -0.07130    9.03030   -0.00520    3.40630   67.48500   48.56360   48.61640   85.73330   -9999.25   -9999.25
 7525.50000   61.22910   73.67620   51.58560   25.98070   -9999.25    2.86140    0.05230   -0.06750    9.03090   -0.00220    3.23920   67.11530   47.67030   48.07420   84.51480   -9999.25   -9999.25
 7526.00000   84.78710  136.59230  101.47860   24.80740   -9999.25    2.86970    0.04540   -0.09490    9.03150   -0.00060    3.16560   66.29460   46.95980   47.17100   83.29740   -9999.25   -9999.25
 7526.50000  389.76470  404.24800  304.36320   25.68060   -9999.25    2.87410    0.03390   -0.09950    9.03210   -0.00360    3.16600   65.15340   46.21370   46.35810   82.07880   -9999.25   -9999.25
 7527.00000  827.11840 1314.84680  414.20270   28.81430   -9999.25    2.87510    0.02520   -0.09870    9.03270   -0.00810    3.16650   63.51370   45.48520   45.36470   81.07830   -9999.25   -9999.25
 7527.50000  920.98260 1637.26050  442.89720   32.97230   -9999.25    2.86460    0.01520   -0.09580    9.03330   -0.00810    3.18450   62.39330   44.89250   44.82250   80.46690   -9999.25   -9999.25
 7528.00000  917.29390 1246.17830  293.69900   38.33760   -9999.25    2.84550    0.01290   -0.08860    9.03920   -0.00810    3.31850   61.90750   44.48610   45.36290   80.45780   -9999.25   -9999.25
 7528.50000  597.53760  303.67860  112.10880   38.33890   -9999.25    2.82880    0.02300   -0.07900    9.06480   -0.00800    3.28870   62.48250   45.18040   48.06880   80.67790   -9999.25   -9999.25
 7529.00000  215.11010   59.24950   52.89990   34.33530   -9999.25    2.82600    0.03440   -0.06210    9.06550   -0.00800    3.31940   63.48490   46.12740   48.51900   82.71240   -9999.25   -9999.25
