~Version ---------------------------------------------------
VERS.   2.0 : CWLS log ASCII Standard -VERSION 2.0
WRAP.    NO : One line per depth step
DLM . SPACE : Column Data Section Delimiter
~Well ------------------------------------------------------
STRT .F                  150.0 : START DEPTH
STOP .F                 8293.0 : STOP DEPTH
STEP .F                    0.5 : STEP
NULL .                -9999.25 : NULL VALUE
COMP .                         : COMPANY
WELL .                         : WELL
FLD  .                         : FIELD
LOC  .                         : LOCATION
PROV .                         : PROVINCE
CNTY .                         : COUNTY
STAT .                         : STATE
CTRY .                         : COUNTRY
SRVC .                         : SERVICE COMPANY
DATE .                         : DATE
UWI  .                         : UNIQUE WELL ID
API  .                         : API NUMBER
SLAT .WGS84 3.6806701293464954 : SURFACE LATITUDE
SLON .WGS84  7.095404039225997 : SURFACE LONGITUDE
DATUM.F                3546.97 : DEPTH DATUM ELEV
~Curve Information -----------------------------------------
DEPT.F     : 
HLLD.OHMM  : LATEROLOG DEEP RES.
HLLS.OHMM  : LATEROLOG SHALLOW RES.
RXOZ.OHMM  : FLUSHED ZONE RESISTIVITY
GRR .GAPI  : GAMMA RAY FROM RES.
GRD .GAPI  : GAMMA RAY FROM DENSITY LOG
RHOZ.G/C3  : HILT BULK DENSITY
TNPH.DEC   : THERMAL NEUTRON POROSITY
DPHZ.DEC   : DENSITY POROSITY LIMESTONE
HCAL.IN    : HILT CALIPER
HDRA.G/C3  : DELTA RHO HIP TOOL
PEFZ.B/E   : HILT PHOTOELECTRIC FACTOR
DTCO.US/F  : COMPRESSIONAL-WAVE INTERVAL TRANSIT TIME ACAUSTIC SLOWNESS
DTLF.US/F  : ACOUSTIC TRANSIT TIME, LONG SPACED, FAR ARRAY
DTLN.US/F  : ACOUSTIC TRANSIT TIME, LONG SPACED, NEAR ARRAY
DTSM.US/F  : DTSM
PR  .None  : POISSON SHEAR-COMPRESIONAL RATIO
VPVS.None  : 
~Params ----------------------------------------------------
~Other -----------------------------------------------------
~ASCII -----------------------------------------------------
# ...
 5582.00000  136.18010  247.84020  210.10640   23.05720   -9999.25    2.88640    0.01050   -0.09320   10.15290    0.01100    4.43660   54.43260   52.31930   53.11500   98.26450    0.29530    1.83640
 5582.50000  178.77240  198.55280  139.84310   20.65140   -9999.25    2.90960    0.00540   -0.11300   10.18360    0.00960    4.55780   53.79720   51.77660   52.66300   97.65020    0.29530    1.85190
 5583.00000  126.82020  125.65230  114.45390   18.48640   -9999.25    2.93500   -0.00090   -0.12150   10.24440   -0.00020    4.67900   53.16700   51.59480   52.30120   97.63820    0.29680    1.86370
 5583.50000  159.23390  134.70400  386.08810   16.86370   -9999.25    2.94420   -0.00590   -0.12510   10.33550   -0.01070    4.84530   52.81160   51.86410   52.11990   97.62620    0.29680    1.86990
 5584.00000  452.70240  664.11210 1213.88420   17.10840   -9999.25    2.95050   -0.00690   -0.14070   10.48700   -0.01740    4.99580   52.84800   52.58460   52.38960   97.61420    0.29680    1.86410
 5584.50000 1278.42430 1184.15080  124.84610   19.70260   -9999.25    2.95470   -0.00480   -0.15150   10.54790   -0.01660    4.96430   53.40780   53.03430   52.93010   97.60220    0.29830    1.86430
 5585.00000  116.91370  219.02470   60.00770   24.28460   -9999.25    2.95760    0.00090   -0.15290   10.60880   -0.01670    4.87390   53.72080   53.12330   53.01950   97.59030    0.29830    1.88260
 5585.50000   61.40040   65.53700   54.31770   25.49320   -9999.25    2.95760    0.00610   -0.11130   10.60920   -0.01990    4.74960   53.69950   52.94140   52.92830   97.57830    0.29840    1.88270
 5586.00000   73.39370   70.25810  146.52230   23.44880   -9999.25    2.90740    0.00570   -0.10240   10.60970   -0.03500    4.56820   53.53870   52.66940   52.74690   97.56630    0.29680    1.86490
 5586.50000  139.55830  136.75490  213.15900   22.12730   -9999.25    2.89530    0.00080   -0.10300   10.64030   -0.02940    4.53050   53.53780   52.39740   52.56560   98.16850    0.29220    1.85900
 5587.00000  207.29220  193.47950  122.04910   24.48040   -9999.25    2.90570   -0.00150   -0.11980   10.67100   -0.01440    4.53070   53.82770   52.48630   52.74510   98.76470    0.28620    1.84110
 5587.50000  232.90790  199.67610   79.02540   32.43600   -9999.25    2.92130   -0.00090   -0.12900   10.67140   -0.00230    4.50080   55.06860   53.11650   53.73670   99.36220    0.28030    1.83530
 5588.00000  177.94630   80.77860   47.32870   44.00600   -9999.25    2.92600    0.00300   -0.12740   10.70210    0.00520    4.38080   56.39930   55.28060   56.35240   99.95970    0.27560    1.81740
 5588.50000   47.88650   42.68520   28.79140   55.57610   -9999.25    2.92610    0.00900   -0.10740   10.70260    0.00220    4.20080   57.11730   56.81310   57.61460  100.55710    0.27130    1.81760
 5589.00000   31.00930   29.75950   36.91800   66.66420   -9999.25    2.92040    0.01500   -0.08720   10.70300    0.00070    3.93070   57.44450   57.62480   58.42580  101.10890    0.26840    1.81170
 5589.50000   28.29010   27.01850   37.46050   74.61970   -9999.25    2.90420    0.02160   -0.03670   10.70350    0.00220    3.69060   57.58650   58.07670   58.51520  101.09640    0.26880    1.79980
 5590.00000   26.49330   27.03680   35.42470   74.62350   -9999.25    2.84350    0.02460    0.00180   10.70390    0.00830    3.60060   57.49550   58.25270   58.33370  101.02400    0.27300    1.79400
 5590.50000   29.70960   28.23500   35.91970   72.45860   -9999.25    2.70050    0.02280    0.00720   10.70680    0.00980    3.57070   57.36000   57.87760   57.79150  100.46990    0.27260    1.79420
 5591.00000   29.82960   30.20810   38.52490   73.36600   -9999.25    2.73360    0.02100   -0.00730   10.73500    0.00980    3.81110   57.17660   57.33060   57.06880   99.85540    0.26830    1.78830
 5591.50000   29.01430   28.98280   53.71790   73.36970   -9999.25    2.73850    0.01620   -0.01040   10.73880   -0.00070    3.84130   56.94390   56.60370   56.79720   99.24100    0.26680    1.78850
 5592.00000   35.25060   45.44750   61.77080   70.72290   -9999.25    2.74190    0.01380   -0.00370   10.80000   -0.00370    3.87150   56.71960   56.05620   56.25500   99.22890    0.26550    1.78870
 5592.50000   56.17520   69.27680   74.69530   65.90740   -9999.25    2.73880    0.01320   -0.01030   10.85730   -0.00520    3.84160   56.58990   55.52930   55.71270   99.21690    0.26550    1.78890
 5593.00000   81.06180   81.22900   52.33330   64.22440   -9999.25    2.72720    0.01440   -0.01990   10.85770   -0.00670    3.78170   56.67910   55.35740   55.80200   99.30780    0.26730    1.78910
 5593.50000   73.49660   68.54400   44.08850   64.71010   -9999.25    2.72020    0.01620   -0.01450   10.85820   -0.00510    3.77600   56.76830   55.76660   56.43270   99.79630    0.27190    1.79530
 5594.00000   52.60700   43.54480   42.41360   63.87050   -9999.25    2.73030    0.01980   -0.00490   10.88880   -0.00210    3.78200   56.94760   56.56900   56.61230  100.38670    0.27490    1.79540
 5594.50000   45.81950   33.80210   43.66900   58.75380   -9999.25    2.75610    0.02100   -0.00610   10.89490   -0.00060    3.84220   57.12690   56.79700   56.43090  101.09900    0.27610    1.79560
 5595.00000   49.04300   40.37780   59.95120   46.95030   -9999.25    2.79420    0.01860   -0.03320   10.91990    0.00090    3.93240   57.30620   56.43460   56.24960  102.29910    0.27610    1.79580
 5595.50000   65.10590   64.01670   89.41950   44.30350   -9999.25    2.83310    0.01670   -0.06270   10.92040    0.00390    4.02270   57.75570   56.61320   56.33890  103.36280    0.27610    1.79600
 5596.00000   95.36870   93.10690   29.45460   48.52410   -9999.25    2.83450    0.01790   -0.07770   10.92080    0.00390    4.05290   58.38550   57.68210   57.24030  103.34940    0.27770    1.80220
 5596.50000   62.57320   59.31570   18.32410   54.79290   -9999.25    2.77780    0.02640   -0.06150   10.95150    0.00240    3.93290   58.56490   57.96450   57.78070  103.33740    0.27770    1.80240
 5597.00000   25.13340   22.60110   17.29330   60.21840   -9999.25    2.74570    0.03120   -0.01520   10.95960    0.00100    3.78290   58.38370   57.38000   57.41890  103.16670    0.27960    1.80860
 5597.50000   23.83790   18.70220   27.90410   63.83660   -9999.25    2.74340    0.03420   -0.00430   10.98260   -0.00200    3.96320   57.57200   55.72360   56.51580  102.54520    0.28310    1.81480
 5598.00000   31.79100   22.42690   97.87520   38.82440   -9999.25    2.76200    0.02330   -0.03020   10.98310   -0.00050    4.29370   56.30990   54.21250   54.62010  100.54670    0.28800    1.82700
 5598.50000   72.99050   99.25900  444.76370   11.73600   -9999.25    2.81800    0.00770   -0.09520   11.01370    0.00250    4.59410   55.31800   52.54310   52.63430   98.89240    0.29670    1.84520
 5599.00000  466.72600  441.04820  897.71720   10.85560   -9999.25    2.93110   -0.00800   -0.10960   11.04440    0.00100    4.74440   53.42520   51.46950   51.55070   97.25300    0.30370    1.86950
 5599.50000  986.74130  910.69520 1239.78780    9.73540   -9999.25    2.98950   -0.01880   -0.16560   11.07510   -0.00350    4.89470   51.80270   50.95130   50.73770   96.63860    0.30680    1.89980
 5600.00000 1198.04640 1146.99630 1918.81910   12.35700   -9999.25    2.98470   -0.02000   -0.17640   11.10580   -0.01100    4.89490   51.08110   50.82730   50.55640   96.62690    0.30930    1.91810
 5600.50000 1840.89580 1815.14420  232.06110   19.59900   -9999.25    2.94040   -0.01690   -0.16200   11.10650   -0.02600    4.77250   52.61500   52.36860   52.37200   96.61750    0.30030    1.90440
 5601.00000  203.53320  117.43600   97.24810   23.50020   -9999.25    2.89620   -0.01150   -0.13130   11.09600   -0.02890    4.59130   53.00390   53.27030   53.27970   96.60840    0.29880    1.87990
 5601.50000  103.71680   86.43640   77.98640   29.99770   -9999.25    2.86310   -0.00420   -0.10600   11.06610   -0.01630    4.41400   53.18450   53.53120   53.62010   97.20220    0.29890    1.87620
 5602.00000   81.24400   77.71850   62.53970   34.71280   -9999.25    2.84490    0.00080   -0.10180   11.00590   -0.00160    4.35670   53.45520   53.53020   53.42870   97.19280    0.29890    1.87630
