~Version ---------------------------------------------------
VERS.   2.0 : CWLS log ASCII Standard -VERSION 2.0
WRAP.    NO : One line per depth step
DLM . SPACE : Column Data Section Delimiter
~Well ------------------------------------------------------
STRT .F                  150.0 : START DEPTH
STOP .F                 8293.0 : STOP DEPTH
STEP .F                    0.5 : STEP
NULL .                -9999.25 : NULL VALUE
COMP .                         : COMPANY
WELL .                         : WELL
FLD  .                         : FIELD
LOC  .                         : LOCATION
PROV .                         : PROVINCE
CNTY .                         : COUNTY
STAT .                         : STATE
CTRY .                         : COUNTRY
SRVC .                         : SERVICE COMPANY
DATE .                         : DATE
UWI  .                         : UNIQUE WELL ID
API  .                         : API NUMBER
SLAT .WGS84 3.6806701293464954 : SURFACE LATITUDE
SLON .WGS84  7.095404039225997 : SURFACE LONGITUDE
DATUM.F                3546.97 : DEPTH DATUM ELEV
~Curve Information -----------------------------------------
DEPT.F     : 
HLLD.OHMM  : LATEROLOG DEEP RES.
HLLS.OHMM  : LATEROLOG SHALLOW RES.
RXOZ.OHMM  : FLUSHED ZONE RESISTIVITY
GRR .GAPI  : GAMMA RAY FROM RES.
GRD .GAPI  : GAMMA RAY FROM DENSITY LOG
RHOZ.G/C3  : HILT BULK DENSITY
TNPH.DEC   : THERMAL NEUTRON POROSITY
DPHZ.DEC   : DENSITY POROSITY LIMESTONE
HCAL.IN    : HILT CALIPER
HDRA.G/C3  : DELTA RHO HIP TOOL
PEFZ.B/E   : HILT PHOTOELECTRIC FACTOR
DTCO.US/F  : COMPRESSIONAL-WAVE INTERVAL TRANSIT TIME ACAUSTIC SLOWNESS
DTLF.US/F  : ACOUSTIC TRANSIT TIME, LONG SPACED, FAR ARRAY
DTLN.US/F  : ACOUSTIC TRANSIT TIME, LONG SPACED, NEAR ARRAY
DTSM.US/F  : DTSM
PR  .None  : POISSON SHEAR-COMPRESIONAL RATIO
VPVS.None  : 
~Params ----------------------------------------------------
~Other -----------------------------------------------------
~ASCII -----------------------------------------------------
# ...
 5398.00000   -9999.25   -9999.25   -9999.25   25.85250   -9999.25   -9999.25    0.12680   -9999.25   -9999.25   -9999.25   -9999.25   -9999.25   -9999.25   -9999.25   -9999.25   -9999.25   -9999.25
 5398.50000   -9999.25   -9999.25   -9999.25   25.27790   -9999.25   -9999.25    0.11780   -9999.25   -9999.25   -9999.25   -9999.25   -9999.25   -9999.25   -9999.25   -9999.25   -9999.25   -9999.25
 5399.00000   -9999.25   -9999.25   -9999.25   29.20930   -9999.25   -9999.25    0.10450   -9999.25   -9999.25   -9999.25   -9999.25   -9999.25   -9999.25   -9999.25   -9999.25   -9999.25   -9999.25
 5399.50000   -9999.25   -9999.25   -9999.25   36.08060   -9999.25   -9999.25    0.09490   -9999.25   -9999.25   -9999.25   -9999.25   -9999.25   -9999.25   -9999.25   -9999.25   -9999.25   -9999.25
 5400.00000   -9999.25   -9999.25   -9999.25   38.25300   -9999.25   -9999.25    0.07440   -9999.25   -9999.25   -9999.25   -9999.25   -9999.25   -9999.25   -9999.25   -9999.25   -9999.25   -9999.25
 5400.50000    9.56900    2.74440    0.20610   38.97970   -9999.25    2.73230    0.05760   -0.17800    8.38720   -0.00040    6.32220   51.73450   52.90110   52.36020   97.21990    0.29940    1.86410
 5401.00000   23.95650   30.94510   10.10260   37.71840   -9999.25    2.71730    0.03950   -0.03500    8.50850   -0.00040    4.47480   50.89800   52.16530   51.74810   95.98590    0.30040    1.87030
 5401.50000   73.26760   95.44780   69.91220   35.55350   -9999.25    2.72520    0.03410   -0.00680    8.50900   -0.00030    4.47490   50.26600   51.65250   51.29120   94.79220    0.30100    1.87050
 5402.00000   83.96340  146.92310  239.49660   33.50900   -9999.25    2.73700    0.03290    0.00040    8.53960   -0.00030    4.44510   50.08450   51.28600   51.05450   94.14040    0.30190    1.87070
 5402.50000   87.48650  131.05360  252.13260   32.54890   -9999.25    2.74870    0.03470   -0.00260    8.57030   -0.00330    4.38520   49.99310   50.96010   51.00300   92.96690    0.30130    1.87090
 5403.00000   75.13380  108.29630  190.77800   32.55270   -9999.25    2.75550    0.03830   -0.01050    8.60100   -0.00620    4.32520   50.08180   50.95180   51.04660   92.95780    0.29920    1.87110
 5403.50000   75.14420  102.96650  172.61970   36.35170   -9999.25    2.75050    0.04190   -0.01830    8.63160   -0.00470    4.29530   50.35080   51.17800   51.36590   93.01880    0.29530    1.86530
 5404.00000   79.43560  101.57630  135.47330   41.53610   -9999.25    2.73770    0.04430   -0.02250    8.63210   -0.00310    4.29550   50.89000   51.58850   51.82090   94.14520    0.29170    1.86550
 5404.50000   72.35650  105.60120  137.36670   45.81700   -9999.25    2.73570    0.04670   -0.01700    8.63250   -0.00010    4.29570   51.33910   52.03680   52.09510   94.13550    0.28790    1.85370
 5405.00000   64.19310  114.12130  136.75500   47.02560   -9999.25    2.74040    0.04790   -0.01350    8.63300    0.00290    4.29580   51.60800   52.07670   52.17140   94.12650    0.28490    1.84730
 5405.50000   56.02970  110.91570  103.53670   45.82450   -9999.25    2.74710    0.04730   -0.01170    8.66360    0.00450    4.29600   51.69680   51.96890   51.80950   94.00720    0.28190    1.83540
 5406.00000   47.76690   77.64140   51.40260   35.76810   -9999.25    2.75200    0.04730   -0.02020    8.69430    0.00300    4.20600   51.42510   51.62260   51.62810   93.38510    0.27890    1.82420
 5406.50000   36.95800   41.19110   39.31190   27.57910   -9999.25    2.75200    0.04790   -0.02680    8.69470    0.00150    3.96590   51.24360   51.44080   51.35650   92.29220    0.27740    1.81760
 5407.00000   26.94650   31.42380   34.96530   25.17320   -9999.25    2.74390    0.04910   -0.02730    8.72540    0.00010    3.81590   51.06210   51.40900   51.26540   91.68070    0.27670    1.80660
 5407.50000   26.57600   30.29730   35.02340   25.65890   -9999.25    2.72990    0.05090   -0.01160    8.75610   -0.00140    3.60590   50.97070   51.52840   51.35480   91.67170    0.27670    1.80590
 5408.00000   24.92290   28.92730   31.57090   29.27710   -9999.25    2.71390    0.05390   -0.00440    8.75650   -0.00280    3.60600   51.05940   51.70750   51.53430   91.66270    0.27680    1.80090
 5408.50000   21.55050   25.39920   29.62120   34.70260   -9999.25    2.70080    0.06050   -0.00030    8.75700   -0.00280    3.60620   51.14820   51.88660   51.98460   91.65360    0.27680    1.80120
 5409.00000   21.04560   26.47290   28.87270   39.28460   -9999.25    2.69480    0.06120    0.00030    8.78760   -0.00280    3.60630   51.32700   52.06570   52.16420   91.64460    0.27830    1.80740
 5409.50000   33.69600   33.41250   33.68490   41.93900   -9999.25    2.69910    0.05270    0.00100    8.81830   -0.00270    3.63650   51.32570   52.06440   52.07300   91.63550    0.28140    1.80760
 5410.00000   55.14920   51.65320   47.07840   43.14760   -9999.25    2.70830    0.04600    0.00570    8.87920   -0.00270    3.84690   51.14410   51.88260   51.98190   91.62650    0.28440    1.80900
 5410.50000   88.95640   90.00580   90.72540   39.77790   -9999.25    2.72280    0.04180    0.00760    8.90980   -0.00270    3.99720   50.86930   51.61060   51.71030   91.61750    0.28740    1.81530
 5411.00000  117.83120  128.50390  114.53060   36.95030   -9999.25    2.74510    0.03880   -0.00370    8.97070   -0.00260    3.99730   50.50780   51.33850   51.43880   91.60840    0.28900    1.82160
 5411.50000  140.44960  138.39740  182.14160   35.26730   -9999.25    2.75670    0.03820   -0.01790    9.00140   -0.00260    4.02750   50.32930   51.06650   51.25740   91.59940    0.29050    1.82790
 5412.00000  101.43910  110.67490  145.61780   34.42770   -9999.25    2.75670    0.03940   -0.02140    9.03280    0.00050    4.05770   50.52620   50.97500   50.98590   92.19460    0.29500    1.83420
 5412.50000   51.83300   48.46530   49.02880   33.22670   -9999.25    2.75250    0.04420   -0.01890    9.06400    0.00200    4.05780   51.17470   50.88340   50.71430   93.03750    0.29660    1.84500
 5413.00000   25.71310   30.28630   34.16790   32.26660   -9999.25    2.73140    0.05020   -0.00740    9.09340    0.00200    4.05800   51.98300   51.15270   51.17840   94.24280    0.29810    1.85130
 5413.50000   17.76890   22.22290   27.46480   31.84860   -9999.25    2.68450    0.05980    0.00380    9.12400    0.00210    4.05810   52.69760   51.87320   52.36070   95.71950    0.29810    1.85750
 5414.00000   16.14670   19.87730   27.25270   32.45480   -9999.25    2.66350    0.06700    0.02330    9.12450    0.00060    4.08830   53.24160   52.68390   52.98180   96.65450    0.29810    1.85940
 5414.50000   16.77020   20.44320   25.53750   33.96460   -9999.25    2.66450    0.06580    0.02970    9.12490    0.00060    4.11850   53.56450   53.40530   53.32730   97.25800    0.29820    1.86390
 5415.00000   19.40490   20.06060   23.81710   35.65510   -9999.25    2.66280    0.06160    0.02960    9.12540   -0.00080    4.11860   53.45800   53.49330   53.41660   97.56020    0.29820    1.86600
 5415.50000   20.50770   19.89380   26.89160   37.82760   -9999.25    2.65830    0.05680    0.02660    9.12180    0.00070    4.17880   53.27490   53.39650   53.40120   97.55120    0.29820    1.87040
 5416.00000   20.74260   21.62000   27.72780   38.37350   -9999.25    2.65300    0.05260    0.03210    9.09600    0.00080    4.29910   53.18190   53.21270   53.21750   97.22080    0.29680    1.86450
 5416.50000   22.86500   24.50280   28.55470   37.17240   -9999.25    2.65300    0.05320    0.03510    9.09650    0.00380    4.35930   53.19880   53.12830   53.12390   96.93070    0.29680    1.86280
 5417.00000   23.89260   29.11450   29.71390   34.58580   -9999.25    2.66680    0.05500    0.03630    9.06150    0.00380    4.35900   53.17620   53.03670   53.03040   96.92170    0.29530    1.85890
 5417.50000   21.37650   27.14900   25.79920   31.45710   -9999.25    2.69090    0.05860    0.03550    9.03120    0.00390    4.23840   52.99320   53.03530   53.05120   96.91260    0.29530    1.85920
 5418.00000   16.79640   21.74990   21.28310   30.25600   -9999.25    2.71010    0.06100    0.01470    8.96460    0.00390    4.08720   52.78630   53.12430   53.14060   96.90180    0.29390    1.85330
