~Version ---------------------------------------------------
VERS.   2.0 : CWLS log ASCII Standard -VERSION 2.0
WRAP.    NO : One line per depth step
DLM . SPACE : Column Data Section Delimiter
~Well ------------------------------------------------------
STRT .F                  150.0 : START DEPTH
STOP .F                 8293.0 : STOP DEPTH
STEP .F                    0.5 : STEP
NULL .                -9999.25 : NULL VALUE
COMP .                         : COMPANY
WELL .                         : WELL
FLD  .                         : FIELD
LOC  .                         : LOCATION
PROV .                         : PROVINCE
CNTY .                         : COUNTY
STAT .                         : STATE
CTRY .                         : COUNTRY
SRVC .                         : SERVICE COMPANY
DATE .                         : DATE
UWI  .                         : UNIQUE WELL ID
API  .                         : API NUMBER
SLAT .WGS84 3.6806701293464954 : SURFACE LATITUDE
SLON .WGS84  7.095404039225997 : SURFACE LONGITUDE
DATUM.F                3546.97 : DEPTH DATUM ELEV
~Curve Information -----------------------------------------
DEPT.F     : 
HLLD.OHMM  : LATEROLOG DEEP RES.
HLLS.OHMM  : LATEROLOG SHALLOW RES.
RXOZ.OHMM  : FLUSHED ZONE RESISTIVITY
GRR .GAPI  : GAMMA RAY FROM RES.
GRD .GAPI  : GAMMA RAY FROM DENSITY LOG
RHOZ.G/C3  : HILT BULK DENSITY
TNPH.DEC   : THERMAL NEUTRON POROSITY
DPHZ.DEC   : DENSITY POROSITY LIMESTONE
HCAL.IN    : HILT CALIPER
HDRA.G/C3  : DELTA RHO HIP TOOL
PEFZ.B/E   : HILT PHOTOELECTRIC FACTOR
DTCO.US/F  : COMPRESSIONAL-WAVE INTERVAL TRANSIT TIME ACAUSTIC SLOWNESS
DTLF.US/F  : ACOUSTIC TRANSIT TIME, LONG SPACED, FAR ARRAY
DTLN.US/F  : ACOUSTIC TRANSIT TIME, LONG SPACED, NEAR ARRAY
DTSM.US/F  : DTSM
PR  .None  : POISSON SHEAR-COMPRESIONAL RATIO
VPVS.None  : 
~Params ----------------------------------------------------
~Other -----------------------------------------------------
~ASCII -----------------------------------------------------
# ...
 6730.00000   92.25330   68.50760   56.88730   30.63220   -9999.25    2.81250    0.05340   -0.05800    8.85510    0.00210    3.16410   46.93690   46.95610   46.95620   83.07210    0.28410    1.82270
 6730.50000   62.15540   59.76000   87.30540   34.73200   -9999.25    2.81460    0.05160   -0.05920    8.79550    0.00240    3.10880   46.57660   46.50370   46.59400   82.45460    0.28560    1.83820
 6731.00000  113.16960   96.97960  105.95420   37.65060   -9999.25    2.82410    0.04200   -0.06710    8.76600    0.00240    3.14450   46.21620   46.14140   46.32200   82.43960    0.28720    1.84160
 6731.50000  201.50130  123.22240  242.69310   38.52310   -9999.25    2.83740    0.03300   -0.07190    8.73640    0.00210    3.20570   45.94590   45.95960   45.95970   81.82220    0.28720    1.84770
 6732.00000  375.86260  257.58860  497.76080   37.42780   -9999.25    2.85000    0.02270   -0.08210    8.67690    0.00050    3.26690   45.76580   45.77790   45.68770   81.20470    0.28570    1.84510
 6732.50000  585.57810  646.00020 1308.97070   33.96340   -9999.25    2.85910    0.01910   -0.09000    8.67760   -0.00250    3.29200   45.76580   45.68630   45.50590   81.79210    0.28570    1.83300
 6733.00000  610.52650  750.22920 1422.43070   29.00250   -9999.25    2.86140    0.01790   -0.09600    8.61800   -0.00350    3.29280   45.76580   45.68500   45.59480   82.37950    0.28430    1.82100
 6733.50000  610.63130  815.72360 1503.62060   25.60240   -9999.25    2.86300    0.01850   -0.09300    8.55830   -0.00340    3.26340   46.03600   45.77380   45.95440   84.17290    0.27980    1.81170
 6734.00000  524.43080  743.27370  953.57840   27.59940   -9999.25    2.86260    0.02210   -0.08330    8.52880   -0.00340    3.22700   46.30630   46.31390   46.49440   85.36500    0.27980    1.81170
 6734.50000  376.18520  487.95710  352.93230   33.01930   -9999.25    2.85590    0.02750   -0.07550    8.49920   -0.00340    3.17480   46.75680   47.21480   47.39530   85.95590    0.28140    1.81170
 6735.00000  196.23190  266.49550  154.16670   39.72010   -9999.25    2.83060    0.03410   -0.07250    8.46980   -0.00340    3.13760   47.20720   47.84500   47.93530   85.93370    0.28140    1.81780
 6735.50000   61.31700  144.94110   75.20830   45.11410   -9999.25    2.82710    0.04610   -0.06830    8.44030   -0.00340    3.07790   47.74770   48.47530   48.47530   85.91870    0.28140    1.81780
 6736.00000   42.19390   65.77750   46.39700   46.41980   -9999.25    2.82520    0.04490   -0.06600    8.44120   -0.00330    3.05690   48.10810   48.74460   48.65570   85.30120    0.28140    1.82390
 6736.50000   38.48290   42.78810   41.98410   47.59040   -9999.25    2.82400    0.03470   -0.06660    8.44190   -0.00760    3.05780   48.19820   48.56280   48.74330   85.28610    0.28000    1.82990
 6737.00000   51.95460   58.33510   68.33510   39.15660   -9999.25    2.82280    0.02690   -0.06840    8.44270   -0.01080    3.07780   48.19820   48.38100   48.37000   85.27110    0.28000    1.82990
 6737.50000   71.45700   78.29960  174.80720   37.50050   -9999.25    2.82160    0.02500   -0.06590    8.44340   -0.00790    3.18950   48.10810   48.10900   48.01880   85.25600    0.28000    1.83000
 6738.00000  241.79220  174.83660  203.53790   36.30400   -9999.25    2.81680    0.02870   -0.05750    8.44420   -0.00320    3.24010   48.10930   48.10770   48.23640   85.24130    0.27860    1.83000
 6738.50000  204.80300  190.52600   98.24690   36.54910   -9999.25    2.80570    0.03600   -0.04700    8.44500   -0.00320    3.15930   48.29080   48.64770   49.15760   86.46140    0.27710    1.82120
 6739.00000   88.00220   69.50740   48.33700   38.85280   -9999.25    2.79360    0.04620   -0.04100    8.44570   -0.00320    3.03910   48.76000   49.83210   50.51330   87.65470    0.27260    1.80360
 6739.50000   48.52010   45.12860   45.84870   44.57830   -9999.25    2.78110    0.05590   -0.03510    8.44650   -0.00320    2.94200   49.75850   51.21440   51.94080   88.84690    0.26960    1.77950
 6740.00000   50.58730   51.87120   68.10760   49.64140   -9999.25    2.76370    0.06050   -0.03030    8.44720   -0.00470    2.94290   50.84690   52.27080   52.57730   90.04010    0.26670    1.76390
 6740.50000   67.67550   68.45160   61.43170   52.86720   -9999.25    2.72750    0.06050   -0.02240    8.44800   -0.00460    2.94370   51.85150   52.82400   53.12380   90.62980    0.26220    1.76390
 6741.00000   47.87740   59.96970   35.03800   54.65030   -9999.25    2.71280    0.06050   -0.00940    8.44870   -0.00310    2.94440   52.80980   53.54300   53.67020   91.17530    0.25920    1.76110
 6741.50000   30.74140   33.08000   31.00310   56.35760   -9999.25    2.70690    0.06610   -0.00010    8.44950   -0.00310    2.94520   53.16290   54.16680   54.19220   91.76270    0.25620    1.75190
 6742.00000   29.90660   31.03150   33.73790   56.62650   -9999.25    2.70870    0.07070    0.00490    8.45020   -0.00310    2.94590   53.33330   54.51670   54.50310   91.74700    0.25630    1.74590
 6742.50000   35.81280   32.17540   44.65890   53.19330   -9999.25    2.72320    0.07030   -0.00440    8.45100   -0.00300    2.97670   53.21910   54.39170   54.32960   91.07410    0.25780    1.74880
 6743.00000   41.73130   38.54130   49.22150   49.17070   -9999.25    2.74050    0.06350   -0.02140    8.45170   -0.00300    3.00750   52.74030   53.02340   52.99160   89.24830    0.26080    1.76090
 6743.50000   47.33300   48.12840   51.56440   46.01750   -9999.25    2.76310    0.05690   -0.02960    8.45250   -0.00300    3.05310   51.89580   51.13300   51.68580   87.96470    0.26540    1.76690
 6744.00000   58.63400   65.31630   75.97060   44.57830   -9999.25    2.79030    0.05070   -0.03760    8.45320   -0.00300    3.12950   50.73220   50.12660   50.30320   86.20130    0.26840    1.77900
 6744.50000   89.82030  101.83150  126.61330   45.78310   -9999.25    2.81380    0.04180   -0.04750    8.45400   -0.00590    3.23680   49.85950   48.91780   49.02510   84.37560    0.27290    1.78820
 6745.00000  168.41580  144.07030  197.59680   51.24190   -9999.25    2.83000    0.03500   -0.05770    8.45470   -0.00740    3.34290   49.11700   48.03750   48.46160   83.22290    0.27600    1.79430
 6745.50000  204.09690  195.52130  252.27180   56.33170   -9999.25    2.83980    0.03000   -0.06710    8.45550   -0.00290    3.38530   48.50110   47.69900   48.09520   82.53230    0.27900    1.80330
 6746.00000  238.88180  240.79380  343.28040   60.02990   -9999.25    2.84700    0.02780   -0.07340    8.45620    0.00310    3.32550   47.99760   47.42500   47.90560   81.98800    0.27900    1.80640
 6746.50000  282.15370  313.46770  921.17910   62.04820   -9999.25    2.85180    0.02530   -0.07910    8.45700    0.00310    3.31310   47.72610   47.24120   47.76860   81.97290    0.27910    1.81240
 6747.00000  337.74060  370.31520  576.30990   60.84340   -9999.25    2.85330    0.02340   -0.08460    8.45770   -0.00130    3.31380   47.54490   47.09080   47.53720   82.04030    0.27910    1.81250
 6747.50000  384.88360  408.15950  620.73400   56.62300   -9999.25    2.85280    0.02170   -0.08150    8.45850   -0.00580    3.40480   47.36330   47.12480   47.45040   83.23360    0.27910    1.81250
 6748.00000  405.03840  431.53500  689.86540   53.81940   -9999.25    2.84730    0.02120   -0.07180    8.45920   -0.00430    3.43560   47.29730   47.30580   47.44900   83.82330    0.27920    1.81250
 6748.50000  382.45930  380.96840  342.20440   52.19510   -9999.25    2.83990    0.02200   -0.07050    8.46000   -0.00130    3.40630   47.44020   47.82430   47.71810   84.41420    0.27470    1.81260
 6749.00000  292.57500  212.79750  112.35350   51.20480   -9999.25    2.81750    0.02360   -0.07030    8.46070    0.00330    3.28690   48.21170   48.99780   47.98740   85.60640    0.26420    1.79160
 6749.50000  135.86200   87.60200   65.18730   52.40960   -9999.25    2.78820    0.02820   -0.05530    8.46150    0.00480    3.19760   49.54170   50.81080   49.51990   86.79970    0.25670    1.75240
 6750.00000   70.30350   52.44600   53.44990   53.99100   -9999.25    2.75790    0.03320   -0.02160    8.46220    0.00330    3.16830   51.02060   52.45110   51.41330   87.99180    0.25230    1.74040
