~Version ---------------------------------------------------
VERS.   2.0 : CWLS log ASCII Standard -VERSION 2.0
WRAP.    NO : One line per depth step
DLM . SPACE : Column Data Section Delimiter
~Well ------------------------------------------------------
STRT .F                  150.0 : START DEPTH
STOP .F                 8293.0 : STOP DEPTH
STEP .F                    0.5 : STEP
NULL .                -9999.25 : NULL VALUE
COMP .                         : COMPANY
WELL .                         : WELL
FLD  .                         : FIELD
LOC  .                         : LOCATION
PROV .                         : PROVINCE
CNTY .                         : COUNTY
STAT .                         : STATE
CTRY .                         : COUNTRY
SRVC .                         : SERVICE COMPANY
DATE .                         : DATE
UWI  .                         : UNIQUE WELL ID
API  .                         : API NUMBER
SLAT .WGS84 3.6806701293464954 : SURFACE LATITUDE
SLON .WGS84  7.095404039225997 : SURFACE LONGITUDE
DATUM.F                3546.97 : DEPTH DATUM ELEV
~Curve Information -----------------------------------------
DEPT.F     : 
HLLD.OHMM  : LATEROLOG DEEP RES.
HLLS.OHMM  : LATEROLOG SHALLOW RES.
RXOZ.OHMM  : FLUSHED ZONE RESISTIVITY
GRR .GAPI  : GAMMA RAY FROM RES.
GRD .GAPI  : GAMMA RAY FROM DENSITY LOG
RHOZ.G/C3  : HILT BULK DENSITY
TNPH.DEC   : THERMAL NEUTRON POROSITY
DPHZ.DEC   : DENSITY POROSITY LIMESTONE
HCAL.IN    : HILT CALIPER
HDRA.G/C3  : DELTA RHO HIP TOOL
PEFZ.B/E   : HILT PHOTOELECTRIC FACTOR
DTCO.US/F  : COMPRESSIONAL-WAVE INTERVAL TRANSIT TIME ACAUSTIC SLOWNESS
DTLF.US/F  : ACOUSTIC TRANSIT TIME, LONG SPACED, FAR ARRAY
DTLN.US/F  : ACOUSTIC TRANSIT TIME, LONG SPACED, NEAR ARRAY
DTSM.US/F  : DTSM
PR  .None  : POISSON SHEAR-COMPRESIONAL RATIO
VPVS.None  : 
~Params ----------------------------------------------------
~Other -----------------------------------------------------
~ASCII -----------------------------------------------------
# ...
 6156.00000 2023.98890 5021.18750   -9999.25   39.30520   -9999.25    2.86150    0.01870   -0.08180    9.11900   -0.00840    3.44760   46.21020   45.94410   46.84750   83.15580    0.28630    1.83250
 6156.50000 1702.96530 3822.51640   -9999.25   41.77080   -9999.25    2.87150    0.01870   -0.08860    9.11960   -0.00690    3.44830   46.29460   45.66610   46.66370   83.13790    0.28780    1.83890
 6157.00000 1387.54150 4288.14700   -9999.25   43.11480   -9999.25    2.88040    0.01870   -0.09660    9.12020   -0.00390    3.50910   46.18730   45.49110   46.48010   83.12000    0.29240    1.85690
 6157.50000 1370.18360 4605.77880   -9999.25   37.07350   -9999.25    2.88850    0.01860   -0.09860    9.09060   -0.00240    3.56990   45.81300   45.58050   46.34060   82.49970    0.29240    1.85740
 6158.00000 1431.90190 4004.50270 1540.54470   32.80720   -9999.25    2.89530    0.01800   -0.09680    9.09120   -0.00080    3.75080   45.36820   45.66980   46.38550   81.87940    0.29240    1.86320
 6158.50000 1570.93460 3641.25810 1860.33330   30.10200   -9999.25    2.90340    0.01730   -0.09900    9.09180   -0.00080    3.75160   45.01680   45.66890   46.51830   81.25900    0.28640    1.85630
 6159.00000 1541.12670 4588.64110 1939.41930   27.68560   -9999.25    2.90770    0.01670   -0.11430    9.09240   -0.00080    3.69230   44.84870   45.57770   46.41640   80.63860    0.28490    1.83950
 6159.50000 1379.67720 4590.00050 1913.15270   25.05750   -9999.25    2.88970    0.01530   -0.11870    9.09310   -0.00380    3.57290   44.97050   45.48660   46.10260   80.62050    0.28500    1.83960
 6160.00000 1675.12590 3332.22800 1940.22270   23.29320   -9999.25    2.88130    0.01350   -0.10590    9.09370   -0.00530    3.42350   45.11720   45.46770   45.97270   80.60240    0.28810    1.83980
 6160.50000 1962.38600 2941.76270 1940.62450   22.00730   -9999.25    2.88860    0.00990   -0.09510    9.12450   -0.00520    3.36420   44.89660   45.48490   46.33220   80.58430    0.29110    1.84590
 6161.00000 2378.98020 2927.09890 1932.10520   21.34940   -9999.25    2.90740    0.00340   -0.09950    9.12510   -0.00520    3.39490   44.64360   45.68570   46.69180   80.56630    0.29250    1.84610
 6161.50000 2894.82030 5055.06640 1787.06120   21.15310   -9999.25    2.92270   -0.00010   -0.10880    9.15590   -0.00370    3.57580   44.89000   45.98030   46.96110   81.30270    0.29200    1.85220
 6162.00000 3327.26590 6672.65330 1691.38070   21.75920   -9999.25    2.92780    0.00020   -0.12280    9.15650   -0.00340    3.87690   45.50730   46.43350   47.23050   82.94110    0.28640    1.83920
 6162.50000 3697.85940 9440.40820 1889.32810   23.79470   -9999.25    2.93170    0.00050   -0.13410    9.15710   -0.00210    4.02780   46.32490   46.77060   47.77050   83.52560    0.28510    1.83450
 6163.00000 3795.60640 48520.33980 1915.99490   25.30930   -9999.25    2.93330    0.00050   -0.13600    9.18790   -0.00250    4.05860   46.99720   47.07000   48.49090   84.11010    0.28660    1.83600
 6163.50000 2541.45170 59755.11330 1764.01510   25.34000   -9999.25    2.93330    0.00110   -0.12700    9.17680   -0.00400    4.02930   47.39270   47.34320   48.85050   84.69460    0.28810    1.84080
 6164.00000 1782.22450 58132.18750  884.59030   23.36140   -9999.25    2.93330    0.00200   -0.12400    9.15890   -0.01050    4.03000   47.57360   47.58500   49.11980   85.27910    0.28820    1.83940
 6164.50000 1057.21080 2494.80490  178.31180   19.06340   -9999.25    2.93120    0.00290   -0.13530    9.11600   -0.01650    3.99110   47.72180   47.88950   49.47940   86.01000    0.28780    1.81980
 6165.00000  248.29150 1664.44930   43.01090   25.76490   -9999.25    2.92370    0.00980   -0.13730    9.09970   -0.02160    3.80540   47.91460   48.37730   50.10960   88.13280    0.28100    1.80340
 6165.50000   38.24770  249.01020   23.11020   37.25020   -9999.25    2.87260    0.03110   -0.11420    9.07010   -0.00380    3.51330   49.72240   49.41090   52.09330   93.05540    0.27470    1.79320
 6166.00000   13.35130   46.39420   11.58890   48.75900   -9999.25    2.75960    0.05160   -0.06810    9.04050    0.00790    3.13980   51.89020   53.14620   53.53550  103.91760    0.27130    1.79530
 6166.50000    7.78030   16.76610    7.65990   60.91110   -9999.25    2.69570    0.07320   -0.01580    9.04110    0.00250    2.90990   54.77970   60.87000   57.23350  111.68210    0.26880    1.80950
 6167.00000    4.92670   10.40360    4.28980   83.23500   -9999.25    2.67780    0.10990    0.02870    9.01150    0.00190    2.86330   61.74420   68.77260   63.72840  115.31290    0.27380    1.81980
 6167.50000    4.05890    6.35130    3.53650   91.02600   -9999.25    2.58910    0.12860    0.11110    9.01220   -0.00190    2.83400   66.44160   70.63590   69.68190  117.08160    0.27630    1.81580
 6168.00000    4.23170    4.76620    4.11740  100.10870   -9999.25    2.51070    0.11770    0.12910    8.98260   -0.00500    2.83480   66.50220   70.51200   71.12420  114.32150    0.26970    1.79550
 6168.50000    5.06720    4.47460   10.53210   94.88390   -9999.25    2.52180    0.09550    0.10270    8.98320   -0.00640    2.83560   64.36830   68.50640   69.13790  110.03620    0.26520    1.78200
 6169.00000    5.90190    4.50880   23.14370   85.27680   -9999.25    2.58750    0.08220    0.02810    8.98380   -0.00640    2.87680   61.12060   64.02280   64.98620  105.75650    0.26800    1.77620
 6169.50000    8.34500    7.01090   26.57620   74.06160   -9999.25    2.69700    0.07020   -0.01880    8.98440   -0.00180    2.95720   56.30900   60.19880   60.44860  101.13660    0.27040    1.77640
 6170.00000   20.53350   18.57480   28.09130   63.53410   -9999.25    2.77200    0.06840   -0.04230    8.98500    0.00120    2.97000   53.82770   53.93870   56.01480   97.18910    0.27260    1.78510
 6170.50000   25.27830   23.22000   34.08940   52.83460   -9999.25    2.80630    0.06830   -0.05500    8.98560   -0.00030    2.98870   52.03460   52.45850   54.12510   92.89020    0.27570    1.79740
 6171.00000   27.09460   25.25710   36.53850   36.79770   -9999.25    2.81830    0.06830   -0.06040    8.98620   -0.00030    2.98950   50.32230   51.33030   53.02930   90.74280    0.27720    1.80970
 6171.50000   28.64200   26.99810   31.39190   30.49920   -9999.25    2.82360    0.06950   -0.06580    8.98680   -0.00170    2.99020   49.60070   50.69790   52.14950   89.50810    0.27950    1.81910
 6172.00000   30.27770   28.16160   25.87910   29.53410   -9999.25    2.82040    0.07190   -0.06590    8.98740   -0.00320    3.00620   49.41970   50.24590   51.89530   88.87570    0.27950    1.82220
 6172.50000   30.29930   29.37440   21.63110   28.74940   -9999.25    2.80400    0.07500   -0.05320    8.98800   -0.00170    3.06780   49.68900   50.69610   51.91960   88.58430    0.28040    1.82240
 6173.00000   26.36880   29.98200   28.91380   28.75320   -9999.25    2.78460    0.07930   -0.04120    8.98860   -0.00020    3.15940   51.12960   52.22900   52.70320   90.47790    0.27960    1.81960
 6173.50000   22.64560   27.42980   34.97310   33.08640   -9999.25    2.77150    0.08410   -0.03450    8.98910    0.00140    3.15580   52.11970   53.40110   53.67190   92.76150    0.27960    1.80720
 6174.00000   29.61370   22.79600   24.17260   36.33730   -9999.25    2.76500    0.08340   -0.03280    8.98970    0.00140    3.08420   52.47920   53.67100   54.25450   92.74360    0.27060    1.79250
 6174.50000   34.79920   25.89340   14.70690   33.53240   -9999.25    2.76280    0.07210   -0.03400    8.99030   -0.00010    3.02490   52.65860   53.48950   54.32480   92.72570    0.26460    1.77440
 6175.00000   30.06980   35.11730   16.65650   25.45280   -9999.25    2.76530    0.06000   -0.03220    8.99090   -0.00160    2.99550   52.56750   52.58640   53.55690   91.50300    0.26310    1.75640
 6175.50000   26.34760   32.45730   25.91660   22.44290   -9999.25    2.77270    0.05430   -0.03480    8.99150   -0.00310    3.05640   52.11610   51.68320   52.37010   90.28030    0.26320    1.75410
 6176.00000   28.08580   25.97330   52.42230   21.28110   -9999.25    2.78580    0.04730   -0.05130    8.99210   -0.00600    3.23730   51.30440   51.05070   51.50830   89.66000    0.26320    1.75420
