~Version ---------------------------------------------------
VERS.   2.0 : CWLS log ASCII Standard -VERSION 2.0
WRAP.    NO : One line per depth step
DLM . SPACE : Column Data Section Delimiter
~Well ------------------------------------------------------
STRT .F                  150.0 : START DEPTH
STOP .F                 8293.0 : STOP DEPTH
STEP .F                    0.5 : STEP
NULL .                -9999.25 : NULL VALUE
COMP .                         : COMPANY
WELL .                         : WELL
FLD  .                         : FIELD
LOC  .                         : LOCATION
PROV .                         : PROVINCE
CNTY .                         : COUNTY
STAT .                         : STATE
CTRY .                         : COUNTRY
SRVC .                         : SERVICE COMPANY
DATE .                         : DATE
UWI  .                         : UNIQUE WELL ID
API  .                         : API NUMBER
SLAT .WGS84 3.6806701293464954 : SURFACE LATITUDE
SLON .WGS84  7.095404039225997 : SURFACE LONGITUDE
DATUM.F                3546.97 : DEPTH DATUM ELEV
~Curve Information -----------------------------------------
DEPT.F     : 
HLLD.OHMM  : LATEROLOG DEEP RES.
HLLS.OHMM  : LATEROLOG SHALLOW RES.
RXOZ.OHMM  : FLUSHED ZONE RESISTIVITY
GRR .GAPI  : GAMMA RAY FROM RES.
GRD .GAPI  : GAMMA RAY FROM DENSITY LOG
RHOZ.G/C3  : HILT BULK DENSITY
TNPH.DEC   : THERMAL NEUTRON POROSITY
DPHZ.DEC   : DENSITY POROSITY LIMESTONE
HCAL.IN    : HILT CALIPER
HDRA.G/C3  : DELTA RHO HIP TOOL
PEFZ.B/E   : HILT PHOTOELECTRIC FACTOR
DTCO.US/F  : COMPRESSIONAL-WAVE INTERVAL TRANSIT TIME ACAUSTIC SLOWNESS
DTLF.US/F  : ACOUSTIC TRANSIT TIME, LONG SPACED, FAR ARRAY
DTLN.US/F  : ACOUSTIC TRANSIT TIME, LONG SPACED, NEAR ARRAY
DTSM.US/F  : DTSM
PR  .None  : POISSON SHEAR-COMPRESIONAL RATIO
VPVS.None  : 
~Params ----------------------------------------------------
~Other -----------------------------------------------------
~ASCII -----------------------------------------------------
# ...
 7693.50000 8826.77730 61431.97270 2020.57140    4.92860   -9999.25    2.89440    0.00790   -0.11730    8.93740   -0.00740    4.14960   63.07160   44.70350   44.70350   81.12050   -9999.25   -9999.25
 7694.00000 9675.23540 60464.12110 2021.12730    5.97470   -9999.25    2.89690    0.00790   -0.10470    8.93760   -0.00280    3.88700   63.43360   44.70260   44.70260   80.50600   -9999.25   -9999.25
 7694.50000 8036.15280 38451.47270 1281.77580    6.46760   -9999.25    2.89810    0.00730   -0.09570    8.93770    0.00100    3.72880   63.60860   44.89720   44.88570   80.45830   -9999.25   -9999.25
 7695.00000 4950.30220 7646.03320  920.45690    7.18390   -9999.25    2.87330    0.00730   -0.08660    8.93790    0.00330    3.71150   63.69820   45.15200   44.97140   79.87950   -9999.25   -9999.25
 7695.50000 3991.52780 5090.20210  883.34820    6.83440   -9999.25    2.85840    0.00730   -0.08660    8.93800    0.00550    3.71190   63.60770   45.15100   45.06080   79.86750   -9999.25   -9999.25
 7696.00000 4022.19430 4643.70510  898.14530    6.46990   -9999.25    2.86030    0.00730   -0.08970    8.93820    0.00550    3.71240   63.60720   45.15010   44.96960   79.25300   -9999.25   -9999.25
 7696.50000 4290.08890 4593.61280  698.91080    6.53220   -9999.25    2.86380    0.00970   -0.10110    8.93830    0.00300    3.71280   63.60680   45.14920   44.96870   79.24100   -9999.25   -9999.25
 7697.00000 4398.81590 5723.35060  449.40430    6.77260   -9999.25    2.83360    0.02110   -0.08790    8.93850   -0.00040    3.65120   63.60630   45.14830   44.96780   79.33960   -9999.25   -9999.25
 7697.50000 4339.20510 10808.03910  408.11040    6.52860   -9999.25    2.81330    0.02410   -0.06800    8.93860   -0.00190    3.59290   63.69590   45.17060   45.14740   79.82050   -9999.25   -9999.25
 7698.00000 4920.54440 27268.24800  327.29930    6.28730   -9999.25    2.80450    0.02410   -0.05900    8.93880   -0.00190    3.54580   63.78550   45.23680   45.14630   79.80720   -9999.25   -9999.25
 7698.50000 5197.52880 32041.08790  365.62880    6.17240   -9999.25    2.80680    0.02410   -0.05960    8.93890   -0.00190    3.47300   63.96520   45.20970   45.05520   79.79520   -9999.25   -9999.25
 7699.00000 4868.81590 19197.45310  327.47930    6.17320   -9999.25    2.81700    0.02650   -0.06930    8.93910   -0.00340    3.38290   64.05500   45.02710   44.87380   79.78310   -9999.25   -9999.25
 7699.50000 4044.91460 6781.58400  381.30310    6.18270   -9999.25    2.83680    0.02770   -0.08310    8.93920   -0.00180    3.29270   63.96430   44.87310   44.87290   79.77110   -9999.25   -9999.25
 7700.00000 3390.00490 3794.56620  202.08200    6.42550   -9999.25    2.83980    0.02950   -0.08430    8.93460   -0.00030    3.25070   63.85530   44.82710   44.89780   79.15860   -9999.25   -9999.25
 7700.50000 2842.89450 3203.85330  175.41740    6.66870   -9999.25    2.83780    0.03010   -0.07710    8.92510   -0.00030    3.21460   63.59920   44.56890   44.96090   79.47490   -9999.25   -9999.25
 7701.00000 2395.16190 2613.14010  148.53750    6.91170   -9999.25    2.82800    0.02680   -0.06390    8.91570   -0.00020    3.17320   63.23060   44.38590   44.92530   79.74110   -9999.25   -9999.25
 7701.50000 2922.07080 2235.64060  163.62620    6.85860   -9999.25    2.81280    0.01810   -0.05970    8.90620   -0.00380    3.23400   62.86980   44.20280   44.83180   79.73190   -9999.25   -9999.25
 7702.00000 5286.22170 3006.65060  242.77610    6.17770   -9999.25    2.82490    0.00780   -0.06870    8.89670   -0.00680    3.38560   62.51310   44.01990   44.73810   79.67420   -9999.25   -9999.25
 7702.50000 9615.53030 35655.59770  601.06690    6.17860   -9999.25    2.85820    0.00470   -0.08680    8.88730   -0.00700    3.68810   62.34010   43.92700   44.51560   79.11140   -9999.25   -9999.25
 7703.00000 9682.32910 61651.13670 1436.71480    6.77430   -9999.25    2.89090    0.00290   -0.10100    8.88520   -0.00480    3.68860   62.24950   43.78140   44.37030   78.50000   -9999.25   -9999.25
 7703.50000 8667.95120 63306.48440 1819.21020    7.36210   -9999.25    2.90820    0.00480   -0.11410    8.88620    0.00060    3.59840   62.36630   43.78000   44.22800   78.49100   -9999.25   -9999.25
 7704.00000 7282.16110 59584.54690 1155.26720    7.76700   -9999.25    2.90030    0.00930   -0.11700    8.88730    0.00070    3.38730   62.65590   43.77860   44.31280   78.48190   -9999.25   -9999.25
 7704.50000 4616.00730 28119.20510  807.59450    7.98870   -9999.25    2.85200    0.01600   -0.10020    8.88830   -0.00080    3.26690   63.00410   44.29370   44.94550   79.07610   -9999.25   -9999.25
 7705.00000 3392.94730 7228.96970  668.45140    7.98960   -9999.25    2.83470    0.01970   -0.07620    8.88940   -0.00150    3.23720   63.25830   45.38790   45.21500   79.66960   -9999.25   -9999.25
 7705.50000 3075.99850 4375.15430  427.37890    7.58120   -9999.25    2.83420    0.01940   -0.06950    8.92080   -0.00230    3.23760   63.46160   45.57910   45.16500   80.26300   -9999.25   -9999.25
 7706.00000 3659.69630 2995.33690  382.66260    7.24300   -9999.25    2.84880    0.01820   -0.07140    8.92180   -0.00450    3.23810   63.73490   45.26260   44.98100   80.25300   -9999.25   -9999.25
 7706.50000 4971.92090 3601.27270  569.18130    7.08810   -9999.25    2.86850    0.01380   -0.08010    8.92290    0.00010    3.29900   64.00890   44.98930   44.84870   80.84750   -9999.25   -9999.25
 7707.00000 7577.60890 5629.10500  888.77120    7.22720   -9999.25    2.87760    0.00430   -0.09120    8.92390    0.00010    3.29940   64.34540   44.99030   45.09680   81.44100   -9999.25   -9999.25
 7707.50000 11319.89450 11110.96880 1523.66350    8.59570   -9999.25    2.88210    0.00340   -0.10460    8.92500    0.00020    3.36030   64.61700   45.35710   45.83720   81.61130   -9999.25   -9999.25
 7708.00000 17392.02540 53738.88280 1657.34830   12.81280   -9999.25    2.88610    0.00340   -0.11230    8.92610   -0.00130    3.39220   64.79880   45.71190   46.10610   82.02550   -9999.25   -9999.25
 7708.50000 16686.48050 62521.58980 1954.67710   18.57070   -9999.25    2.88920    0.00580   -0.11130    8.95740   -0.00430    3.57690   64.94740   45.75140   46.10430   82.21940   -9999.25   -9999.25
 7709.00000 7725.54390 51462.51950 1955.21700   23.19660   -9999.25    2.89120    0.01620   -0.10580    8.95850   -0.00580    3.66370   64.94680   45.75010   46.01230   82.61000   -9999.25   -9999.25
 7709.50000 1453.69890 4123.48240 1237.72330   24.89750   -9999.25    2.88970    0.03660   -0.10460    8.97210   -0.00570    3.41080   64.90930   45.69580   45.92030   82.59940   -9999.25   -9999.25
 7710.00000  690.35920  559.78070  218.68260   25.16570   -9999.25    2.87470    0.03880   -0.09480    8.99090   -0.00270    3.20540   64.85590   45.47640   45.73810   82.59040   -9999.25   -9999.25
 7710.50000  751.48660  701.33780  115.38430   25.16640   -9999.25    2.86590    0.03570   -0.09190    8.99200    0.00180    3.11770   64.85540   45.20440   45.64610   81.97890   -9999.25   -9999.25
 7711.00000  924.97200  980.08500  179.60460   25.32520   -9999.25    2.86210    0.03250   -0.09620    8.99300    0.00220    3.02680   64.85500   45.11280   45.46380   81.96990   -9999.25   -9999.25
 7711.50000  962.97830 1270.37160  110.26760   25.46910   -9999.25    2.85980    0.03190   -0.09560    8.99430    0.00040    3.00130   64.80960   45.02130   45.55230   81.35840   -9999.25   -9999.25
 7712.00000  948.12730 1142.16960   79.09470   25.10820   -9999.25    2.85370    0.03430   -0.09380    8.99540   -0.00410    3.06790   64.49010   44.92970   45.37000   80.45830   -9999.25   -9999.25
 7712.50000  911.32680  922.96270   70.26790   22.75980   -9999.25    2.83940    0.03550   -0.07950    8.96590   -0.00560    3.14210   64.26430   44.74790   44.91710   79.83370   -9999.25   -9999.25
 7713.00000 1232.77610 1751.05630   99.21350   18.96340   -9999.25    2.84640    0.03520   -0.07880    8.96720   -0.00580    3.30230   63.94090   44.56610   44.73490   79.21100   -9999.25   -9999.25
 7713.50000 2217.96290 2371.11230  171.88860   16.48970   -9999.25    2.87600    0.03450   -0.07980    8.96820   -0.00550    3.53200   63.62880   44.38430   44.73310   78.58760   -9999.25   -9999.25
