~Version ---------------------------------------------------
VERS.   2.0 : CWLS log ASCII Standard -VERSION 2.0
WRAP.    NO : One line per depth step
DLM . SPACE : Column Data Section Delimiter
~Well ------------------------------------------------------
STRT .F                  150.0 : START DEPTH
STOP .F                 8293.0 : STOP DEPTH
STEP .F                    0.5 : STEP
NULL .                -9999.25 : NULL VALUE
COMP .                         : COMPANY
WELL .                         : WELL
FLD  .                         : FIELD
LOC  .                         : LOCATION
PROV .                         : PROVINCE
CNTY .                         : COUNTY
STAT .                         : STATE
CTRY .                         : COUNTRY
SRVC .                         : SERVICE COMPANY
DATE .                         : DATE
UWI  .                         : UNIQUE WELL ID
API  .                         : API NUMBER
SLAT .WGS84 3.6806701293464954 : SURFACE LATITUDE
SLON .WGS84  7.095404039225997 : SURFACE LONGITUDE
DATUM.F                3546.97 : DEPTH DATUM ELEV
~Curve Information -----------------------------------------
DEPT.F     : 
HLLD.OHMM  : LATEROLOG DEEP RES.
HLLS.OHMM  : LATEROLOG SHALLOW RES.
RXOZ.OHMM  : FLUSHED ZONE RESISTIVITY
GRR .GAPI  : GAMMA RAY FROM RES.
GRD .GAPI  : GAMMA RAY FROM DENSITY LOG
RHOZ.G/C3  : HILT BULK DENSITY
TNPH.DEC   : THERMAL NEUTRON POROSITY
DPHZ.DEC   : DENSITY POROSITY LIMESTONE
HCAL.IN    : HILT CALIPER
HDRA.G/C3  : DELTA RHO HIP TOOL
PEFZ.B/E   : HILT PHOTOELECTRIC FACTOR
DTCO.US/F  : COMPRESSIONAL-WAVE INTERVAL TRANSIT TIME ACAUSTIC SLOWNESS
DTLF.US/F  : ACOUSTIC TRANSIT TIME, LONG SPACED, FAR ARRAY
DTLN.US/F  : ACOUSTIC TRANSIT TIME, LONG SPACED, NEAR ARRAY
DTSM.US/F  : DTSM
PR  .None  : POISSON SHEAR-COMPRESIONAL RATIO
VPVS.None  : 
~Params ----------------------------------------------------
~Other -----------------------------------------------------
~ASCII -----------------------------------------------------
# ...
 6935.00000  917.04750  700.34110  691.60880   29.02130   -9999.25    2.90460    0.01800   -0.10230    9.67880    0.00030    3.34440   65.58560   46.27060   46.61350   82.40990   -9999.25   -9999.25
 6935.50000 1243.89110 1018.56810  901.79710   30.71600   -9999.25    2.90170    0.01740   -0.09990    9.67940   -0.00270    3.38860   65.22520   45.99550   46.37410   81.91570   -9999.25   -9999.25
 6936.00000 1797.42960 1701.81180 1770.17600   34.48360   -9999.25    2.89540    0.01500   -0.09910    9.68000   -0.00110    3.46590   64.77480   45.59020   45.88600   82.05600   -9999.25   -9999.25
 6936.50000 2200.02640 2509.66670 1770.90980   38.95240   -9999.25    2.88570    0.01190   -0.09800    9.65030    0.00040    3.46620   64.50450   45.21600   45.46140   82.66300   -9999.25   -9999.25
 6937.00000 2093.46480 2513.28810 1796.27690   42.48420   -9999.25    2.87740    0.01020   -0.09540    9.65100   -0.00130    3.46650   64.32430   44.89900   45.13080   83.26890   -9999.25   -9999.25
 6937.50000 2161.66280 2407.70630 1874.47730   44.08900   -9999.25    2.86170    0.01020   -0.08790    9.65150   -0.00560    3.46680   64.14410   44.75940   45.22570   83.87510   -9999.25   -9999.25
 6938.00000 2212.42720 2883.67750 2063.96880   42.13910   -9999.25    2.85010    0.01040   -0.08310    9.62180   -0.00700    3.49730   64.14410   44.99120   46.08470   85.08460   -9999.25   -9999.25
 6938.50000 1646.63780 2653.57860 2064.82420   42.48400   -9999.25    2.85200    0.01500   -0.08940    9.59210   -0.00680    3.53950   64.95640   46.18530   47.21850   86.06250   -9999.25   -9999.25
 6939.00000  902.01430  462.87740 1558.53910   46.04610   -9999.25    2.85860    0.02750   -0.09330    9.59270   -0.00370    3.69360   66.22900   47.41120   48.18180   86.29750   -9999.25   -9999.25
 6939.50000  358.01940  309.13750  723.77750   51.32360   -9999.25    2.86080    0.03120   -0.08910    9.59330   -0.00070    3.96470   67.22360   48.38640   48.68240   86.63850   -9999.25   -9999.25
 6940.00000  355.48240  474.61190  465.29540   41.68690   -9999.25    2.85600    0.03110   -0.07310    9.59390    0.00060    4.04230   67.94000   48.76990   48.81810   86.62650   -9999.25   -9999.25
 6940.50000  715.77730  704.98460  710.82180   35.03340   -9999.25    2.84600    0.02990   -0.07230    9.59460    0.00030    4.02770   68.10810   48.31770   48.61820   86.01200   -9999.25   -9999.25
 6941.00000  788.75620  790.34430  763.89560   31.35340   -9999.25    2.83610    0.02830   -0.07760    9.59000   -0.00270    3.90520   68.08820   47.95590   47.97980   86.00000   -9999.25   -9999.25
 6941.50000  893.58910 1027.47790 1355.19780   29.72890   -9999.25    2.83610    0.02450   -0.07970    9.56540   -0.00420    3.81520   67.72390   47.41370   47.32340   85.98800   -9999.25   -9999.25
 6942.00000 1761.71010 1803.18880 2014.30540   28.65260   -9999.25    2.84300    0.01650   -0.08250    9.56610   -0.00570    3.84930   67.43630   47.05190   47.05190   85.37350   -9999.25   -9999.25
 6942.50000 2525.33640 2883.24930 1987.49820   28.14020   -9999.25    2.85530    0.00990   -0.08640    9.55990   -0.01030    3.89280   66.99540   46.78030   46.96070   85.35910   -9999.25   -9999.25
 6943.00000 3473.68700 4498.02050 1988.43460   27.46120   -9999.25    2.87500    0.00770   -0.09830    9.49930   -0.01130    3.86290   66.72120   46.77940   46.95990   85.34720   -9999.25   -9999.25
 6943.50000 4396.48930 6915.09720 1989.25810   27.23950   -9999.25    2.89690    0.00700   -0.11950    9.46900   -0.00770    3.71210   66.48650   46.86880   47.13940   85.33530   -9999.25   -9999.25
 6944.00000 2526.76120 2655.61740 1766.48030   28.75900   -9999.25    2.90680    0.01140   -0.12420    9.44720   -0.00610    3.53120   66.39640   47.13850   47.49940   85.92580   -9999.25   -9999.25
 6944.50000 1212.93320  851.56830 1154.52060   32.09810   -9999.25    2.90800    0.02140   -0.10900    9.41750   -0.00520    3.50120   66.73720   47.67900   47.85940   85.91390   -9999.25   -9999.25
 6945.00000  435.29510  313.69990  460.15840   35.37660   -9999.25    2.90830    0.02500   -0.10380    9.38780   -0.00150    3.47130   67.46380   48.03900   48.03900   86.50600   -9999.25   -9999.25
 6945.50000  299.52800  241.03850  301.51460   37.46540   -9999.25    2.90460    0.02630   -0.09680    9.35810    0.00010    3.59250   67.86540   48.21860   48.30880   85.89010   -9999.25   -9999.25
 6946.00000  282.30060  258.36690  330.84540   38.78110   -9999.25    2.88830    0.02630   -0.09240    9.35880    0.00100    3.65320   68.10810   48.12740   48.30790   85.87830   -9999.25   -9999.25
 6946.50000  514.21340  425.72990  362.88430   38.27610   -9999.25    2.84760    0.02540   -0.07250    9.32900    0.00100    3.71390   68.10810   47.76570   48.03630   85.26400   -9999.25   -9999.25
 6947.00000  835.08250  691.84270  579.31880   36.04590   -9999.25    2.82570    0.02050   -0.06840    9.32970    0.00100    3.65380   68.10810   47.31360   47.67450   85.25210   -9999.25   -9999.25
 6947.50000 1265.43600 1108.80850  862.48550   33.57680   -9999.25    2.82770    0.01460   -0.06770    9.33030    0.00020    3.53330   67.78690   46.95180   47.49320   84.63780   -9999.25   -9999.25
 6948.00000 1839.52600 2825.08200 1551.89640   31.44580   -9999.25    2.83620    0.00930   -0.07590    9.33090    0.00040    3.47310   67.09530   47.13140   47.31180   84.02350   -9999.25   -9999.25
 6948.50000 2495.09180 4141.90820 1812.25740   30.33600   -9999.25    2.84540    0.01000   -0.10720    9.33150   -0.00040    3.47340   66.41990   47.22070   47.31090   83.40920   -9999.25   -9999.25
 6949.00000 2123.26170 2256.39940 1333.29910   34.23100   -9999.25    2.85730    0.01240   -0.11590    9.33210   -0.00040    3.44350   65.86370   46.85890   47.31010   83.39730   -9999.25   -9999.25
 6949.50000 1837.50830 1561.98900 1224.77120   42.41270   -9999.25    2.88570    0.01360   -0.11720    9.31810   -0.00030    3.44380   65.45240   46.58740   47.21890   83.38540   -9999.25   -9999.25
 6950.00000 1666.61680 1576.23780 1382.30370   48.94580   -9999.25    2.89770    0.01480   -0.11160    9.30300   -0.00030    3.44410   65.40540   46.31580   47.12780   83.37350   -9999.25   -9999.25
 6950.50000 1692.38200 1781.97230 1973.31640   51.85020   -9999.25    2.89950    0.01660   -0.10030    9.30360    0.00120    3.38320   65.49550   46.22290   46.67370   82.75900   -9999.25   -9999.25
 6951.00000 2044.62730 2226.06790 1920.35410   51.83220   -9999.25    2.89010    0.01720   -0.10030    9.30420    0.00130    3.35080   65.34870   46.13000   46.58060   82.14460   -9999.25   -9999.25
 6951.50000 2235.27390 2599.49190 1921.22720   50.74220   -9999.25    2.87770    0.01530   -0.09850    9.30480    0.00130    3.19850   65.03330   46.04240   46.49350   82.13250   -9999.25   -9999.25
 6952.00000 2154.58790 2571.57370 1922.02360   49.40560   -9999.25    2.87220    0.01230   -0.09860    9.30550    0.00430    3.14000   64.95500   46.04880   46.59120   82.12050   -9999.25   -9999.25
 6952.50000 1867.49010 2500.84130 1922.81950   47.72370   -9999.25    2.87010    0.00990   -0.09920    9.30610    0.00740    3.11330   65.22520   46.52740   46.77290   82.18940   -9999.25   -9999.25
 6953.00000 1865.76480 2574.18210 1923.61660   46.51470   -9999.25    2.85620    0.00990   -0.08710    9.30680    0.00890    3.27320   65.40540   46.94200   46.85180   83.39760   -9999.25   -9999.25
 6953.50000 1868.00350 3005.60450 1924.41320   46.24550   -9999.25    2.84310    0.01050   -0.08110    9.30740    0.01050    3.61420   65.31530   46.85080   46.85080   85.20850   -9999.25   -9999.25
 6954.00000 1894.31620 3040.11770 1932.89040   46.88960   -9999.25    2.84860    0.01170   -0.07930    9.30800    0.00750    3.71840   65.22520   46.84990   46.86690   87.14870   -9999.25   -9999.25
 6954.50000 1672.54130 2031.40860 1979.94080   49.69410   -9999.25    2.89620    0.02190   -0.10620    9.27830    0.00450    3.71150   65.22520   47.06880   47.30440   89.43350   -9999.25   -9999.25
 6955.00000  934.98560 1023.83190 1610.17270   56.51480   -9999.25    2.89840    0.03150   -0.11250    9.24860    0.00150    3.55790   66.48650   49.91760   48.49610   91.56650   -9999.25   -9999.25
