~Version ---------------------------------------------------
VERS.   2.0 : CWLS log ASCII Standard -VERSION 2.0
WRAP.    NO : One line per depth step
DLM . SPACE : Column Data Section Delimiter
~Well ------------------------------------------------------
STRT .F                  150.0 : START DEPTH
STOP .F                 8293.0 : STOP DEPTH
STEP .F                    0.5 : STEP
NULL .                -9999.25 : NULL VALUE
COMP .                         : COMPANY
WELL .                         : WELL
FLD  .                         : FIELD
LOC  .                         : LOCATION
PROV .                         : PROVINCE
CNTY .                         : COUNTY
STAT .                         : STATE
CTRY .                         : COUNTRY
SRVC .                         : SERVICE COMPANY
DATE .                         : DATE
UWI  .                         : UNIQUE WELL ID
API  .                         : API NUMBER
SLAT .WGS84 3.6806701293464954 : SURFACE LATITUDE
SLON .WGS84  7.095404039225997 : SURFACE LONGITUDE
DATUM.F                3546.97 : DEPTH DATUM ELEV
~Curve Information -----------------------------------------
DEPT.F     : 
HLLD.OHMM  : LATEROLOG DEEP RES.
HLLS.OHMM  : LATEROLOG SHALLOW RES.
RXOZ.OHMM  : FLUSHED ZONE RESISTIVITY
GRR .GAPI  : GAMMA RAY FROM RES.
GRD .GAPI  : GAMMA RAY FROM DENSITY LOG
RHOZ.G/C3  : HILT BULK DENSITY
TNPH.DEC   : THERMAL NEUTRON POROSITY
DPHZ.DEC   : DENSITY POROSITY LIMESTONE
HCAL.IN    : HILT CALIPER
HDRA.G/C3  : DELTA RHO HIP TOOL
PEFZ.B/E   : HILT PHOTOELECTRIC FACTOR
DTCO.US/F  : COMPRESSIONAL-WAVE INTERVAL TRANSIT TIME ACAUSTIC SLOWNESS
DTLF.US/F  : ACOUSTIC TRANSIT TIME, LONG SPACED, FAR ARRAY
DTLN.US/F  : ACOUSTIC TRANSIT TIME, LONG SPACED, NEAR ARRAY
DTSM.US/F  : DTSM
PR  .None  : POISSON SHEAR-COMPRESIONAL RATIO
VPVS.None  : 
~Params ----------------------------------------------------
~Other -----------------------------------------------------
~ASCII -----------------------------------------------------
# ...
 7304.00000  750.66420  764.49200  828.31080   49.13990   -9999.25    2.83620    0.01570   -0.09530    8.33820    0.00000    3.27250   62.60170   44.33810   44.32380  112.79360    0.27620    1.81590
 7304.50000  705.75100  753.96290  682.89540   42.61750   -9999.25    2.82840    0.01620   -0.08320    8.33880    0.00000    3.29980   62.69040   44.94580   44.32270  113.98640    0.27620    1.81590
 7305.00000  645.16280  723.70050  637.51170   39.50290   -9999.25    2.82400    0.01620   -0.07840    8.33940    0.00010    3.26580   63.68010   45.81630   44.53690  115.78160    0.27620    1.81600
 7305.50000  561.98190  618.12600  490.52840   36.00220   -9999.25    2.82260    0.01720   -0.07970    8.34000    0.00010    3.20570   64.94000   46.75330   44.78720  117.57690    0.27620    1.81600
 7306.00000  436.25710  392.28710  347.42260   36.50720   -9999.25    2.82310    0.02220   -0.06820    8.34060    0.00020    3.18120   66.38010   47.62360   45.79610  118.16870    0.27620    1.81600
 7306.50000  202.25920  186.43820  141.63540   39.70400   -9999.25    2.82570    0.03540   -0.06460    8.34120   -0.00130    3.18200   67.00940   47.56710   47.00610  118.15530    0.27620    1.81610
 7307.00000   98.62290  143.14660   79.32620   43.04720   -9999.25    2.82910    0.03900   -0.06640    8.31150   -0.00130    3.18910   67.09820   47.02510   47.69290  117.54090    0.27620    1.81610
 7307.50000   87.05240   97.52980   66.30860   44.96490   -9999.25    2.83360    0.04030   -0.07010    8.31210   -0.00120    3.24400   66.73640   46.57290   47.21690  116.92650    0.27620    1.81640
 7308.00000  101.86790  145.85650  135.99960   44.59690   -9999.25    2.84060    0.03910   -0.07970    8.31270   -0.00120    3.25200   65.56390   46.03050   46.29520  116.31210    0.27620    1.82220
 7308.50000  283.32730  407.19140  422.09560   42.33220   -9999.25    2.85000    0.03450   -0.08210    8.31330   -0.00270    3.27570   64.66170   45.48860   45.60800  115.09520    0.27610    1.82220
 7309.00000  630.15700 1459.16740 1442.98850   38.49210   -9999.25    2.85880    0.02220   -0.08580    8.34430   -0.00410    3.26830   63.93960   45.03640   45.14060  114.48080    0.27610    1.82220
 7309.50000 1522.96310 2687.01440 1780.97940   35.46090   -9999.25    2.86460    0.01900   -0.08880    8.34490   -0.00430    3.24690   63.30760   44.62040   44.86810  113.26400    0.27610    1.82230
 7310.00000 1724.59460 2880.58180 2011.16940   33.86060   -9999.25    2.86980    0.01630   -0.08400    8.34550   -0.00110    3.27790   62.94590   44.25840   44.50510  112.04720    0.27760    1.82330
 7310.50000 2058.53520 2962.22510 1728.22620   32.89060   -9999.25    2.87410    0.01380   -0.08400    8.34610    0.00050    3.33910   62.67430   44.02380   44.27230  110.83040    0.27610    1.82830
 7311.00000 2501.23900 4133.19630 1752.73620   31.79380   -9999.25    2.87710    0.01270   -0.09420    8.34670    0.00070    3.37010   62.58290   43.87970   44.26080  107.80630    0.27610    1.82840
 7311.50000 3263.10840 9114.84380 1760.02310   31.58330   -9999.25    2.87840    0.01140   -0.09670    8.31700   -0.00090    3.36040   62.58150   43.91660   44.35050  103.57750    0.27610   -9999.25
 7312.00000 2784.25120 7507.60790 1753.63230   33.63060   -9999.25    2.87720    0.01110   -0.10110    8.31550   -0.00090    3.30030   62.76530   44.09750   44.57120   98.74620    0.27610   -9999.25
 7312.50000 1913.09700 2444.87280 1730.12040   37.78140   -9999.25    2.87320    0.01260   -0.10330    8.25760   -0.00090    3.25140   63.22060   44.40600   44.97380   91.50530    0.27610   -9999.25
 7313.00000 1167.60140 1532.18090 1067.33360   43.08590   -9999.25    2.86410    0.01530   -0.10080    8.25820   -0.00080    3.19850   63.94940   44.89560   45.47380   84.86680    0.27610   -9999.25
 7313.50000  586.55040  619.48910  334.71180   48.66500   -9999.25    2.85690    0.01990   -0.09680    8.25880   -0.00080    3.13220   64.66740   45.47590   45.92490   81.24030    0.27610   -9999.25
 7314.00000  281.80220  282.93890  254.00950   52.40430   -9999.25    2.86650    0.02860   -0.08970    8.22910   -0.00080    3.10270   64.91720   46.16060   46.11010   80.02350    0.27610   -9999.25
 7314.50000  237.14810  270.06610  224.38610   56.36910   -9999.25    2.87260    0.02790   -0.08920    8.22970   -0.00070    3.06010   64.82570   46.16040   46.02300   80.01150   -9999.25   -9999.25
 7315.00000  248.71730  301.36070  227.56840   59.84210   -9999.25    2.87670    0.02760   -0.09490    8.23030   -0.00070    3.01360   64.71330   45.65710   45.74740   81.20430   -9999.25   -9999.25
 7315.50000  303.61380  294.64380  295.91970   62.48950   -9999.25    2.86810    0.02760   -0.09810    8.23090   -0.00060    3.02840   64.55280   46.14520   45.79060   82.99950   -9999.25   -9999.25
 7316.00000  437.08780  350.72570  893.41440   64.03020   -9999.25    2.84950    0.03060   -0.10090    8.22550   -0.00210    3.05980   65.53190   47.55710   46.05950   83.59040   -9999.25   -9999.25
 7316.50000 1022.04050 1165.51100 1106.66740   65.17430   -9999.25    2.83280    0.04330   -0.08760    8.20180   -0.00210    3.12150   66.50010   47.96990   47.09700   84.78280   -9999.25   -9999.25
 7317.00000  489.78000  888.37970  187.77150   68.26010   -9999.25    2.81980    0.05230   -0.07030    8.20240   -0.00510    3.15290   67.10310   48.60230   47.86490   84.77080   -9999.25   -9999.25
 7317.50000   66.69390  140.64300   70.46310   67.23240   -9999.25    2.81880    0.05650   -0.06430    8.20300   -0.00650    3.27490   67.34020   48.32780   48.31490   84.75880   -9999.25   -9999.25
 7318.00000   51.66390   60.93440   52.07960   60.49140   -9999.25    2.82170    0.05530   -0.07300    8.20360   -0.00640    3.27370   67.28290   47.37500   48.40230   83.54200   -9999.25   -9999.25
 7318.50000   68.54830   53.01320  140.62080   53.79290   -9999.25    2.82930    0.04810   -0.07390    8.20420   -0.00340    3.13970   66.56680   46.29010   47.80280   82.92760   -9999.25   -9999.25
 7319.00000  118.11950   75.86990  251.21320   53.31890   -9999.25    2.84060    0.02580   -0.07400    8.20480   -0.00190    3.14050   65.29520   45.29630   46.67740   82.31320   -9999.25   -9999.25
 7319.50000  236.61720  154.22340  494.32720   62.67490   -9999.25    2.86040    0.01800   -0.07620    8.20550   -0.00030    3.15890   64.18080   44.91400   45.90950   81.69880   -9999.25   -9999.25
 7320.00000  607.49100  774.46130 1230.08630   73.12940   -9999.25    2.85440    0.01860   -0.09140    8.20610   -0.00030    3.23280   63.70570   45.22690   45.50990   81.08430   -9999.25   -9999.25
 7320.50000  939.62850  903.84620  982.12270   77.98290   -9999.25    2.84790    0.02040   -0.09570    8.23700   -0.00030    3.17310   63.63850   45.63640   45.42520   81.07230   -9999.25   -9999.25
 7321.00000  704.00930  796.54870  589.22500   73.61580   -9999.25    2.85010    0.02100   -0.09120    8.23760   -0.00040    3.14350   64.25780   45.95010   45.69540   81.06020   -9999.25   -9999.25
 7321.50000  453.58030  612.13070  383.74000   69.49110   -9999.25    2.86800    0.02280   -0.08130    8.23820   -0.00170    3.14440   64.71060   46.17840   45.96550   81.66600   -9999.25   -9999.25
 7322.00000  331.98820  438.88990  389.08940   67.24340   -9999.25    2.88600    0.02460   -0.07940    8.25090   -0.00170    3.14510   65.01500   46.31580   46.09560   82.26100   -9999.25   -9999.25
 7322.50000  383.09240  351.60880  484.56740   66.19100   -9999.25    2.88810    0.02520   -0.08960    8.26970   -0.00160    3.11570   65.19520   46.27230   46.09470   83.43400   -9999.25   -9999.25
 7323.00000  512.51780  513.05410  617.73060   67.19420   -9999.25    2.88830    0.02880   -0.10270    8.33090   -0.00010    3.11640   65.25340   46.04740   46.09380   83.39220   -9999.25   -9999.25
 7323.50000  478.32540  540.73710  225.20880   71.90430   -9999.25    2.88710    0.03060   -0.11440    8.33150    0.00000    3.08700   65.09470   45.82040   46.04160   82.77290   -9999.25   -9999.25
 7324.00000  211.31280  222.60430  183.35840   79.70500   -9999.25    2.88580    0.03120   -0.10360    8.33210    0.00000    3.05740   64.82060   45.54950   45.85980   82.15260   -9999.25   -9999.25
