~Version ---------------------------------------------------
VERS.   2.0 : CWLS log ASCII Standard -VERSION 2.0
WRAP.    NO : One line per depth step
DLM . SPACE : Column Data Section Delimiter
~Well ------------------------------------------------------
STRT .F                  150.0 : START DEPTH
STOP .F                 8293.0 : STOP DEPTH
STEP .F                    0.5 : STEP
NULL .                -9999.25 : NULL VALUE
COMP .                         : COMPANY
WELL .                         : WELL
FLD  .                         : FIELD
LOC  .                         : LOCATION
PROV .                         : PROVINCE
CNTY .                         : COUNTY
STAT .                         : STATE
CTRY .                         : COUNTRY
SRVC .                         : SERVICE COMPANY
DATE .                         : DATE
UWI  .                         : UNIQUE WELL ID
API  .                         : API NUMBER
SLAT .WGS84 3.6806701293464954 : SURFACE LATITUDE
SLON .WGS84  7.095404039225997 : SURFACE LONGITUDE
DATUM.F                3546.97 : DEPTH DATUM ELEV
~Curve Information -----------------------------------------
DEPT.F     : 
HLLD.OHMM  : LATEROLOG DEEP RES.
HLLS.OHMM  : LATEROLOG SHALLOW RES.
RXOZ.OHMM  : FLUSHED ZONE RESISTIVITY
GRR .GAPI  : GAMMA RAY FROM RES.
GRD .GAPI  : GAMMA RAY FROM DENSITY LOG
RHOZ.G/C3  : HILT BULK DENSITY
TNPH.DEC   : THERMAL NEUTRON POROSITY
DPHZ.DEC   : DENSITY POROSITY LIMESTONE
HCAL.IN    : HILT CALIPER
HDRA.G/C3  : DELTA RHO HIP TOOL
PEFZ.B/E   : HILT PHOTOELECTRIC FACTOR
DTCO.US/F  : COMPRESSIONAL-WAVE INTERVAL TRANSIT TIME ACAUSTIC SLOWNESS
DTLF.US/F  : ACOUSTIC TRANSIT TIME, LONG SPACED, FAR ARRAY
DTLN.US/F  : ACOUSTIC TRANSIT TIME, LONG SPACED, NEAR ARRAY
DTSM.US/F  : DTSM
PR  .None  : POISSON SHEAR-COMPRESIONAL RATIO
VPVS.None  : 
~Params ----------------------------------------------------
~Other -----------------------------------------------------
~ASCII -----------------------------------------------------
# ...
 8078.50000 11257.12210 62869.44530   -9999.25   14.57610   -9999.25    2.90070    0.00120   -0.11550    8.42200    0.00060    3.30380   62.41980   43.56360   43.80890   79.28610   -9999.25   -9999.25
 8079.00000 15817.60550 62878.16800   -9999.25   15.05720   -9999.25    2.90190    0.00250   -0.11410    8.42270    0.00210    3.30420   62.32770   43.71830   43.80840   79.28310   -9999.25   -9999.25
 8079.50000 20175.07620 62886.88670   -9999.25   15.88150   -9999.25    2.90290    0.00360   -0.11770    8.42350    0.00510    3.24350   62.05570   43.68930   43.71770   79.28010   -9999.25   -9999.25
 8080.00000 20141.99610 63774.12110   -9999.25   16.80690   -9999.25    2.90290    0.00410   -0.11230    8.42420    0.00510    3.15410   61.87370   43.59700   43.61500   79.27710   -9999.25   -9999.25
 8080.50000 17556.64260 62903.14060   -9999.25   17.59120   -9999.25    2.89560    0.00170   -0.10630    8.42500    0.00660    3.17120   61.69170   43.41470   43.52250   79.27410   -9999.25   -9999.25
 8081.00000 15055.45700 62913.06640   -9999.25   17.59190   -9999.25    2.88830   -0.00010   -0.10510    8.41080    0.00670    3.32340   61.59980   43.32240   43.35550   79.27110   -9999.25   -9999.25
 8081.50000 13832.78710 62664.64060   -9999.25   17.24680   -9999.25    2.89190   -0.00020   -0.10690    8.39620    0.00650    3.46320   61.59810   43.26480   43.26490   79.26810   -9999.25   -9999.25
 8082.00000 16147.50590 62062.32030   -9999.25   16.73060   -9999.25    2.90420    0.00000   -0.11350    8.39700    0.00370    3.66960   61.68640   43.30040   43.55480   79.26510   -9999.25   -9999.25
 8082.50000 22534.90620 62072.24610   -9999.25   16.21430   -9999.25    2.91350    0.00120   -0.12380    8.39770    0.00220    3.85130   61.77470   43.48190   43.71510   79.26200   -9999.25   -9999.25
 8083.00000 28449.26170 62080.85550 1075.09420   16.27110   -9999.25    2.91640    0.00380   -0.12620    8.39850    0.00220    3.79130   61.95300   43.53410   43.71460   79.25840   -9999.25   -9999.25
 8083.50000 19433.82810 62089.46880  724.93260   16.51300   -9999.25    2.91340    0.00840   -0.10990    8.39920    0.00190    3.61050   61.95130   43.58330   43.71410   79.25550   -9999.25   -9999.25
 8084.00000 14531.71580 62098.08200  766.25810   16.75500   -9999.25    2.88030    0.00880   -0.09970    8.40000    0.00070    3.42320   62.03960   43.53320   43.59580   79.25250   -9999.25   -9999.25
 8084.50000 13278.14550 62106.69140 1507.70910   16.99710   -9999.25    2.85000    0.00740   -0.08290    8.40080    0.00070    3.24890   62.03780   43.48920   43.41300   79.24950   -9999.25   -9999.25
 8085.00000 12827.98140 62115.30860 1707.57580   17.23900   -9999.25    2.86530    0.00610   -0.09320    8.40170    0.00080    3.24930   62.03600   43.35190   43.23000   79.24650   -9999.25   -9999.25
 8085.50000 12743.85160 62123.92580   -9999.25   17.66430   -9999.25    2.86380    0.00490   -0.09490    8.40240    0.00080    3.24980   61.85400   43.21460   43.08070   79.24350   -9999.25   -9999.25
 8086.00000 12562.30370 62132.54300   -9999.25   18.02410   -9999.25    2.86380    0.00400   -0.09370    8.37290    0.00080    3.25020   61.76210   43.08030   42.99010   79.24060   -9999.25   -9999.25
 8086.50000 8833.04390 62141.16410   -9999.25   18.26610   -9999.25    2.86530    0.00420   -0.09490    8.37360    0.00080    3.25070   61.58020   43.07980   43.02710   79.23760   -9999.25   -9999.25
 8087.00000 5350.58890 62149.78520   -9999.25   18.50450   -9999.25    2.86820    0.00900   -0.09520    8.37440    0.00080    3.22090   61.57840   43.16960   43.07940   79.23460   -9999.25   -9999.25
 8087.50000 4320.37300 62150.69920   -9999.25   18.26060   -9999.25    2.87190    0.00930   -0.09730    8.37510    0.00080    3.19110   61.57660   43.02630   43.03760   79.23160   -9999.25   -9999.25
 8088.00000 4275.70900 62122.25390   -9999.25   18.02000   -9999.25    2.87580    0.00900   -0.09980    8.37590    0.00080    3.16140   61.57480   42.89800   42.98830   79.22860   -9999.25   -9999.25
 8088.50000 4872.61080 62093.80860   -9999.25   17.77960   -9999.25    2.87590    0.00840   -0.09980    8.37660    0.00090    3.13160   61.66310   42.89750   42.89760   79.22570   -9999.25   -9999.25
 8089.00000 6647.17090 62065.36330   -9999.25   17.47440   -9999.25    2.87590    0.00680   -0.10220    8.34710    0.00090    3.13200   61.75490   42.89710   42.89710   79.22270   -9999.25   -9999.25
 8089.50000 8801.00490 62036.91800   -9999.25   17.00220   -9999.25    2.87260    0.00460   -0.09550    8.31740   -0.00060    3.16270   61.84440   42.89660   42.89670   79.21970   -9999.25   -9999.25
 8090.00000 12420.26950 62008.47270   -9999.25   17.00300   -9999.25    2.86480   -0.00040   -0.09500    8.28790   -0.00140    3.22360   62.02400   42.89620   43.03760   79.21670   -9999.25   -9999.25
 8090.50000 18016.62700 61980.02730   -9999.25   17.00380   -9999.25    2.85480   -0.00100   -0.09490    8.28870   -0.00440    3.25420   62.20370   42.98590   43.21950   79.21370   -9999.25   -9999.25
 8091.00000 20756.31250 61951.57810   -9999.25   17.00450   -9999.25    2.85250   -0.00100   -0.09100    8.28950   -0.00600    3.34530   62.29320   43.07570   43.43660   79.21080   -9999.25   -9999.25
 8091.50000 25569.87500 61923.13280   -9999.25   17.07130   -9999.25    2.86430   -0.00100   -0.08540    8.29020   -0.00960    3.46660   62.47260   43.25570   43.61660   79.20780   -9999.25   -9999.25
 8092.00000 30375.26760 61894.68750   -9999.25   17.31340   -9999.25    2.87830   -0.00100   -0.08630    8.29090   -0.00960    3.70960   62.64150   43.43570   43.70650   79.20480   -9999.25   -9999.25
 8092.50000 35390.42580 61866.24220   -9999.25   17.55530   -9999.25    2.88730   -0.00100   -0.10170    8.29170   -0.00810    3.76960   62.63960   43.61570   43.70590   79.20180   -9999.25   -9999.25
 8093.00000 35953.27730 61837.79690   -9999.25   17.79720   -9999.25    2.89100   -0.00100   -0.10290    8.29250   -0.00650    3.70640   62.63780   43.61530   43.61530   79.19880   -9999.25   -9999.25
 8093.50000 24830.57810 61809.35160   -9999.25   17.91190   -9999.25    2.89340   -0.00040   -0.10480    8.29320   -0.00500    3.58270   62.63600   43.52460   43.52460   79.19580   -9999.25   -9999.25
 8094.00000 25180.35550 61780.90620   -9999.25   17.98000   -9999.25    2.89580   -0.00050   -0.10900    8.32420   -0.00050    3.43030   62.61870   43.43390   43.34370   79.19280   -9999.25   -9999.25
 8094.50000 25891.18750 61752.46090   -9999.25   18.22190   -9999.25    2.89830   -0.00050   -0.11210    8.32510    0.00250    3.25780   62.54230   43.25300   43.16280   79.18980   -9999.25   -9999.25
 8095.00000 24840.87300 61724.01560   -9999.25   18.46380   -9999.25    2.90000    0.00130   -0.11510    8.38640    0.00110    3.25830   62.52250   43.07210   43.16240   79.18670   -9999.25   -9999.25
 8095.50000 20750.63090 61695.56640   -9999.25   18.70590   -9999.25    2.90000    0.00310   -0.11620    8.38720    0.00110    3.25880   62.42950   43.16190   43.34240   79.18370   -9999.25   -9999.25
 8096.00000 19887.47070 61667.12110   -9999.25   18.94790   -9999.25    2.90000    0.00430   -0.11390    8.41820   -0.00040    3.26450   62.35680   43.25170   43.52240   79.18070   -9999.25   -9999.25
 8096.50000 21636.97070 61638.67580   -9999.25   19.18980   -9999.25    2.89790    0.00610   -0.10870    8.41900   -0.00190    3.32590   62.35500   43.34150   43.34150   79.17770   -9999.25   -9999.25
 8097.00000 22872.65820 61610.23050   -9999.25   19.43170   -9999.25    2.89410    0.00670   -0.10510    8.45000   -0.00340    3.44780   62.35320   43.25080   43.25080   79.17470   -9999.25   -9999.25
 8097.50000 22561.16600 61581.78520   -9999.25   19.67380   -9999.25    2.88390    0.00730   -0.10210    8.45080   -0.00040    3.47210   62.35130   43.16010   43.25040   79.17170   -9999.25   -9999.25
 8098.00000 19645.86720 61553.33980   -9999.25   19.91570   -9999.25    2.86540    0.00730   -0.10000    8.45150    0.00110    3.44220   62.46480   43.15970   43.34010   79.16870   -9999.25   -9999.25
