~Version ---------------------------------------------------
VERS.   2.0 : CWLS log ASCII Standard -VERSION 2.0
WRAP.    NO : One line per depth step
DLM . SPACE : Column Data Section Delimiter
~Well ------------------------------------------------------
STRT .F                  150.0 : START DEPTH
STOP .F                 8293.0 : STOP DEPTH
STEP .F                    0.5 : STEP
NULL .                -9999.25 : NULL VALUE
COMP .                         : COMPANY
WELL .                         : WELL
FLD  .                         : FIELD
LOC  .                         : LOCATION
PROV .                         : PROVINCE
CNTY .                         : COUNTY
STAT .                         : STATE
CTRY .                         : COUNTRY
SRVC .                         : SERVICE COMPANY
DATE .                         : DATE
UWI  .                         : UNIQUE WELL ID
API  .                         : API NUMBER
SLAT .WGS84 3.6806701293464954 : SURFACE LATITUDE
SLON .WGS84  7.095404039225997 : SURFACE LONGITUDE
DATUM.F                3546.97 : DEPTH DATUM ELEV
~Curve Information -----------------------------------------
DEPT.F     : 
HLLD.OHMM  : LATEROLOG DEEP RES.
HLLS.OHMM  : LATEROLOG SHALLOW RES.
RXOZ.OHMM  : FLUSHED ZONE RESISTIVITY
GRR .GAPI  : GAMMA RAY FROM RES.
GRD .GAPI  : GAMMA RAY FROM DENSITY LOG
RHOZ.G/C3  : HILT BULK DENSITY
TNPH.DEC   : THERMAL NEUTRON POROSITY
DPHZ.DEC   : DENSITY POROSITY LIMESTONE
HCAL.IN    : HILT CALIPER
HDRA.G/C3  : DELTA RHO HIP TOOL
PEFZ.B/E   : HILT PHOTOELECTRIC FACTOR
DTCO.US/F  : COMPRESSIONAL-WAVE INTERVAL TRANSIT TIME ACAUSTIC SLOWNESS
DTLF.US/F  : ACOUSTIC TRANSIT TIME, LONG SPACED, FAR ARRAY
DTLN.US/F  : ACOUSTIC TRANSIT TIME, LONG SPACED, NEAR ARRAY
DTSM.US/F  : DTSM
PR  .None  : POISSON SHEAR-COMPRESIONAL RATIO
VPVS.None  : 
~Params ----------------------------------------------------
~Other -----------------------------------------------------
~ASCII -----------------------------------------------------
# ...
 7119.50000  153.19160  170.25150 2021.65770   26.57090   -9999.25    2.84260    0.05090   -0.04870    8.91490   -0.00520    3.35350   66.97410   48.13870   47.84960   84.11030   -9999.25   -9999.25
 7120.00000  134.67830  161.08460 2022.21620   25.54220   -9999.25    2.86110    0.05080   -0.05220    8.91470   -0.00440    3.35350   66.88270   47.34710   47.21800   83.89520   -9999.25   -9999.25
 7120.50000  181.33000  191.56700 2022.77480   25.38680   -9999.25    2.87020    0.03460   -0.08110    8.91460   -0.00290    3.35350   66.52100   46.86870   46.49620   83.26600   -9999.25   -9999.25
 7121.00000  600.71410  317.78590 2023.35820   26.35600   -9999.25    2.87970    0.01770   -0.09320    8.91450   -0.00130    3.44410   65.97910   46.37840   46.04510   82.63650   -9999.25   -9999.25
 7121.50000 1291.03560  712.79300 2023.89250   27.47460   -9999.25    2.88600    0.00990   -0.09740    8.91430    0.00020    3.59520   65.43720   45.74120   45.86470   81.40490   -9999.25   -9999.25
 7122.00000 2601.58740 22154.92190 2024.45150   27.68070   -9999.25    2.88810    0.00800   -0.09830    8.91420    0.00100    3.59520   64.89540   45.19540   45.77070   80.77540   -9999.25   -9999.25
 7122.50000 4277.81880 58559.35160 2025.01060   28.21520   -9999.25    2.88660    0.01470   -0.09940    8.91410    0.00180    3.56500   64.44360   44.95230   45.86470   79.81930   -9999.25   -9999.25
 7123.00000 5749.15870 58567.46880 2025.56970   29.28780   -9999.25    2.86930    0.01890   -0.10550    8.91390    0.00110    3.50450   64.17200   44.99460   45.95490   79.20480   -9999.25   -9999.25
 7123.50000 4581.16550 54978.32030 2026.12930   31.38490   -9999.25    2.85140    0.01950   -0.10770    8.91380    0.00030    3.59520   64.08050   45.31070   45.95490   78.59040   -9999.25   -9999.25
 7124.00000 2199.18290 9269.76170 2026.68900   36.65100   -9999.25    2.84000    0.01880   -0.09470    8.91370   -0.00360    3.62540   64.16940   45.49290   45.86470   78.57830   -9999.25   -9999.25
 7124.50000  827.07580 1304.77260 2027.24880   37.01050   -9999.25    2.83700    0.01880   -0.07510    8.91350   -0.00480    3.62540   64.07790   45.35510   45.50380   78.56630   -9999.25   -9999.25
 7125.00000  710.24740 1259.73000 2027.80880   32.05230   -9999.25    2.83700    0.01760   -0.07450    8.91340   -0.00540    3.62540   63.89630   45.03390   45.32330   79.15660   -9999.25   -9999.25
 7125.50000  924.11310 1901.99840 2028.36900   29.29370   -9999.25    2.83820    0.01460   -0.08140    8.91330   -0.00480    3.47350   63.71480   44.90050   45.05210   79.74470   -9999.25   -9999.25
 7126.00000 1380.99130 2970.55930 2028.92930   28.13080   -9999.25    2.84110    0.01520   -0.08360    8.91310   -0.00320    3.38210   63.44320   44.86050   44.87090   79.73280   -9999.25   -9999.25
 7126.50000 1018.33320 2658.91800 2029.48970   25.88070   -9999.25    2.84600    0.01760   -0.07860    8.91300   -0.00020    3.35350   63.26170   44.86020   44.78200   80.32530   -9999.25   -9999.25
 7127.00000  850.59760 1856.32800 2030.04980   22.99250   -9999.25    2.85200    0.01820   -0.07640    8.91290    0.00130    3.35350   63.08020   44.95020   44.78200   79.70900   -9999.25   -9999.25
 7127.50000 1091.50210 1570.03110 2030.61060   20.01390   -9999.25    2.85810    0.01690   -0.07670    8.91270    0.00140    3.35350   62.98800   45.04020   44.78200   79.69710   -9999.25   -9999.25
 7128.00000 1564.75130 1843.93810 2031.17160   17.55420   -9999.25    2.86540    0.01450   -0.07880    8.91260    0.00140    3.44290   62.89480   45.04000   44.87590   79.68520   -9999.25   -9999.25
 7128.50000 1700.45570 4033.44170 2031.73270   16.12840   -9999.25    2.86900    0.01180   -0.07890    8.91250    0.00140    3.59520   62.80590   44.94950   45.14290   79.67330   -9999.25   -9999.25
 7129.00000 1873.70100 4445.32860 2032.29390   15.03560   -9999.25    2.87010    0.00730   -0.08330    8.91230    0.00150    3.56500   62.79880   44.85910   45.14290   79.66140   -9999.25   -9999.25
 7129.50000 2060.42820 4445.93800 2032.85550   13.59150   -9999.25    2.87010    0.00730   -0.09180    8.91220    0.00150    3.49720   62.71310   44.76860   45.14290   79.64950   -9999.25   -9999.25
 7130.00000 2254.35180 4571.63040 2033.42630   11.83730   -9999.25    2.87020    0.00730   -0.09670    8.91210    0.00150    3.47430   62.62160   44.67820   45.04660   79.63760   -9999.25   -9999.25
 7130.50000 2448.27540 8417.64940 2034.07410   10.63400   -9999.25    2.87020    0.00800   -0.09830    8.91190    0.00150    3.42640   62.60960   44.67790   44.77520   79.02330   -9999.25   -9999.25
 7131.00000 2839.71920 22855.21290 2034.54020   15.73550   -9999.25    2.86920    0.00970   -0.09940    8.91180    0.00160    3.38370   62.52890   44.67770   44.68450   79.01130   -9999.25   -9999.25
 7131.50000 3643.97880 54772.53520 2035.10190   19.90160   -9999.25    2.86790    0.01120   -0.09880    8.91170    0.00160    3.38370   62.61770   45.21880   44.60150   78.99950   -9999.25   -9999.25
 7132.00000 3594.10330 63809.80470 2035.74220   23.27710   -9999.25    2.86630    0.01440   -0.09820    8.91150    0.00160    3.34220   62.72190   45.94040   44.89710   78.98750   -9999.25   -9999.25
 7132.50000 2438.92940 59542.41410 2036.22660   25.52950   -9999.25    2.86360    0.01760   -0.09660    8.91140    0.00170    3.28100   63.31050   46.93270   45.54890   80.18050   -9999.25   -9999.25
 7133.00000  905.32260 2064.53200 2036.85490   26.00300   -9999.25    2.85810    0.02480   -0.09100    8.91130    0.00170    3.27570   65.27370   48.46630   46.63500   81.97580   -9999.25   -9999.25
 7133.50000  260.20830  662.32400 2037.41150   25.75650   -9999.25    2.85170    0.03660   -0.08250    8.91110    0.00170    3.32330   67.03930   49.45860   47.84130   83.78060   -9999.25   -9999.25
 7134.00000  170.76700  225.08180 2037.96830   25.32730   -9999.25    2.83970    0.06070   -0.07290    8.91100    0.00180    3.32330   67.92490   49.99970   49.43740   85.58650   -9999.25   -9999.25
 7134.50000  146.68170  198.67570 2038.52530   25.23340   -9999.25    2.82460    0.06260   -0.07210    8.91090    0.00180    3.32330   68.51320   49.63860   50.01500   86.19230   -9999.25   -9999.25
 7135.00000  140.68510  182.62960 2039.04030   26.24920   -9999.25    2.81070    0.05920   -0.06720    8.91070   -0.00120    3.33940   68.64430   49.09700   49.75040   86.74750   -9999.25   -9999.25
 7135.50000  182.30910  170.75250 2039.63900   29.18910   -9999.25    2.80550    0.04830   -0.06160    8.91110   -0.00420    3.35350   68.29950   48.10430   48.61070   86.13250   -9999.25   -9999.25
 7136.00000  292.27870  174.76550 2040.19640   33.54250   -9999.25    2.80550    0.03690   -0.05490    8.88120   -0.00570    3.35350   67.44470   47.11160   47.88690   85.43830   -9999.25   -9999.25
 7136.50000  493.47110  258.60450 2040.75390   37.22430   -9999.25    2.81150    0.02290   -0.05570    8.88170   -0.00710    3.36520   66.71680   46.57000   47.26690   84.20480   -9999.25   -9999.25
 7137.00000  731.41470  693.13100 2041.31160   41.68950   -9999.25    2.82290    0.02130   -0.06690    8.88220   -0.00560    3.32330   65.89750   46.20890   46.64770   82.97360   -9999.25   -9999.25
 7137.50000  432.13760 1711.03500 2041.86940   42.27970   -9999.25    2.83550    0.02010   -0.07450    8.88270   -0.00410    3.28300   65.29250   46.11840   46.39100   81.86750   -9999.25   -9999.25
 7138.00000  365.99180  474.87130 2042.42750   34.58840   -9999.25    2.84160    0.01950   -0.07180    8.88310   -0.00400    3.35350   64.85220   46.38890   46.22560   81.25300   -9999.25   -9999.25
 7138.50000  432.19680  390.62080 2042.98620   26.32110   -9999.25    2.85500    0.01920   -0.07240    8.88360   -0.00250    3.56500   64.85090   46.56910   46.33190   81.24100   -9999.25   -9999.25
 7139.00000  482.87150  418.02490 2043.55040   23.73750   -9999.25    2.86000    0.01920   -0.07810    8.85360   -0.00250    3.50450   64.97840   46.56600   46.42280   81.22890   -9999.25   -9999.25
 7139.50000  469.71160  523.37870 2044.11440   21.71000   -9999.25    2.85230    0.02070   -0.09050    8.85420   -0.00090    3.47430   64.98800   46.28460   46.49620   81.21690   -9999.25   -9999.25
