~Version ---------------------------------------------------
VERS.   2.0 : CWLS log ASCII Standard -VERSION 2.0
WRAP.    NO : One line per depth step
DLM . SPACE : Column Data Section Delimiter
~Well ------------------------------------------------------
STRT .F                  150.0 : START DEPTH
STOP .F                 8293.0 : STOP DEPTH
STEP .F                    0.5 : STEP
NULL .                -9999.25 : NULL VALUE
COMP .                         : COMPANY
WELL .                         : WELL
FLD  .                         : FIELD
LOC  .                         : LOCATION
PROV .                         : PROVINCE
CNTY .                         : COUNTY
STAT .                         : STATE
CTRY .                         : COUNTRY
SRVC .                         : SERVICE COMPANY
DATE .                         : DATE
UWI  .                         : UNIQUE WELL ID
API  .                         : API NUMBER
SLAT .WGS84 3.6806701293464954 : SURFACE LATITUDE
SLON .WGS84  7.095404039225997 : SURFACE LONGITUDE
DATUM.F                3546.97 : DEPTH DATUM ELEV
~Curve Information -----------------------------------------
DEPT.F     : 
HLLD.OHMM  : LATEROLOG DEEP RES.
HLLS.OHMM  : LATEROLOG SHALLOW RES.
RXOZ.OHMM  : FLUSHED ZONE RESISTIVITY
GRR .GAPI  : GAMMA RAY FROM RES.
GRD .GAPI  : GAMMA RAY FROM DENSITY LOG
RHOZ.G/C3  : HILT BULK DENSITY
TNPH.DEC   : THERMAL NEUTRON POROSITY
DPHZ.DEC   : DENSITY POROSITY LIMESTONE
HCAL.IN    : HILT CALIPER
HDRA.G/C3  : DELTA RHO HIP TOOL
PEFZ.B/E   : HILT PHOTOELECTRIC FACTOR
DTCO.US/F  : COMPRESSIONAL-WAVE INTERVAL TRANSIT TIME ACAUSTIC SLOWNESS
DTLF.US/F  : ACOUSTIC TRANSIT TIME, LONG SPACED, FAR ARRAY
DTLN.US/F  : ACOUSTIC TRANSIT TIME, LONG SPACED, NEAR ARRAY
DTSM.US/F  : DTSM
PR  .None  : POISSON SHEAR-COMPRESIONAL RATIO
VPVS.None  : 
~Params ----------------------------------------------------
~Other -----------------------------------------------------
~ASCII -----------------------------------------------------
# ...
 6361.00000  233.06660  218.02410  280.73320   58.65640   -9999.25    2.81490    0.03910   -0.07630    8.75080   -0.00130    3.01770   47.50710   48.15540   48.42620   83.34340    0.28020    1.81830
 6361.50000  225.34950  224.18790  251.09570   59.04410   -9999.25    2.82870    0.04170   -0.06830    8.75150   -0.00430    3.07910   47.61620   47.88430   48.42800   83.32830    0.28170    1.81840
 6362.00000  218.81020  224.21870  249.03210   57.01530   -9999.25    2.84710    0.04210   -0.05940    8.75230   -0.00880    3.17050   47.61440   47.16200   47.70350   83.31330    0.28020    1.81860
 6362.50000  248.78530  261.21400  323.33560   45.29340   -9999.25    2.85210    0.03840   -0.05590    8.75300   -0.01020    3.23200   47.61260   46.89090   46.89100   83.02240    0.27720    1.81870
 6363.00000  401.24010  487.68590 1668.88640   38.36330   -9999.25    2.85440    0.03380   -0.05930    8.75380   -0.00560    3.27780   47.47720   46.71000   46.70900   82.39720    0.27720    1.81880
 6363.50000  812.39930  837.79840 1970.06130   32.02330   -9999.25    2.85600    0.02480   -0.07180    8.75450   -0.00390    3.30860   47.29290   46.52910   46.52670   82.06330    0.28020    1.81920
 6364.00000 1054.35020 1090.57850 1970.46470   27.11980   -9999.25    2.85780    0.01690   -0.08330    8.76940    0.00060    3.29250   46.97050   46.43840   46.34460   81.44580    0.28170    1.83110
 6364.50000 1138.04080 1153.11620 1970.86820   22.94940   -9999.25    2.85960    0.01290   -0.09210    8.78630    0.00340    3.28000   46.60390   46.34780   46.25760   81.43070    0.28330    1.83120
 6365.00000 1099.23410 1169.22060 1865.34200   22.39440   -9999.25    2.85940    0.01280   -0.09260    8.81720    0.00350    3.28090   46.37980   46.43750   46.44970   82.01810    0.28180    1.83050
 6365.50000 1039.34440 1134.73840 1814.90300   27.96550   -9999.25    2.85090    0.01850   -0.08780    8.83360    0.00200    3.28170   46.25010   46.97840   46.90960   82.60540    0.27870    1.81340
 6366.00000  854.31860 1022.71080 1559.46390   33.01620   -9999.25    2.83460    0.02640   -0.08730    8.84890    0.00350    3.28240   46.42850   47.60960   47.53610   82.59040    0.27730    1.81350
 6366.50000  547.62130  582.32480  861.37680   39.37550   -9999.25    2.82520    0.03370   -0.08970    8.87990    0.00540    3.25300   46.96730   48.15050   47.89930   83.17770    0.27730    1.81360
 6367.00000  313.68770  262.89260  252.08610   48.91890   -9999.25    2.82320    0.04260   -0.08950    8.88070    0.00690    3.22370   47.41590   48.42070   48.26190   84.10410    0.27880    1.81370
 6367.50000  197.28640  196.21000  222.67160   52.20610   -9999.25    2.82090    0.05000   -0.08480    8.88140    0.00810    3.19440   47.95470   48.69090   48.53460   85.30160    0.27900    1.81390
 6368.00000  165.41490  173.74140  252.18930   53.87540   -9999.25    2.80550    0.05150   -0.07090    8.88230    0.00620    3.07520   48.31330   48.87090   48.78080   85.89490    0.28030    1.82000
 6368.50000  158.52260  161.01540  289.59140   55.35830   -9999.25    2.79720    0.05150   -0.06930    8.88310    0.00470    3.01590   48.49170   48.96070   48.87060   87.33130    0.27880    1.82010
 6369.00000  210.31790  200.62610  319.04620   56.92200   -9999.25    2.78680    0.05090   -0.07110    8.88380    0.00170    3.01660   48.67010   48.87000   48.87010   87.91880    0.27910    1.82020
 6369.50000  220.42250  231.00450  306.16220   59.33160   -9999.25    2.79060    0.04910   -0.06040    8.88460   -0.00080    3.16750   48.66830   48.68910   48.86960   87.90380    0.28180    1.82640
 6370.00000  178.16210  222.27140  274.19810   63.94560   -9999.25    2.81490    0.04600   -0.04670    8.88530   -0.00280    3.31840   48.66650   48.50820   48.77890   88.49400    0.28330    1.82650
 6370.50000  219.33140  209.68320  323.68120   65.21230   -9999.25    2.81760    0.04480   -0.03980    8.85590   -0.00370    3.31910   48.57460   48.41760   48.75920   87.87390    0.28330    1.82660
 6371.00000  266.29990  272.96110  444.77190   64.08170   -9999.25    2.81870    0.04240   -0.04590    8.85660   -0.00370    3.31990   48.48280   48.23670   48.57720   87.25650    0.28330    1.82670
 6371.50000  255.49700  274.25080  426.64320   61.14840   -9999.25    2.81990    0.03940   -0.05740    8.82700   -0.00520    3.32060   48.30080   48.05580   48.41670   86.63910    0.28340    1.82980
 6372.00000  222.48220  234.39850  306.26210   57.63950   -9999.25    2.82650    0.03510   -0.06330    8.82790   -0.00510    3.32140   48.20900   47.96510   48.30330   86.02170    0.28340    1.83300
 6372.50000  252.05210  212.73830  286.08820   52.79350   -9999.25    2.84110    0.03150   -0.06630    8.82860   -0.00510    3.44220   48.02700   47.96460   48.21120   86.00670    0.28340    1.83310
 6373.00000  337.18320  261.97910  363.80370   50.43890   -9999.25    2.86120    0.02670   -0.06440    8.82940   -0.00360    3.59310   47.93510   47.96420   48.11940   86.59640    0.28340    1.82990
 6373.50000  451.06750  370.61980  593.48720   48.39840   -9999.25    2.85890    0.02250   -0.06780    8.83010   -0.00350    3.77400   48.02410   47.87350   48.05410   86.57920    0.28270    1.82730
 6374.00000  595.11660  509.96740  784.41860   46.51830   -9999.25    2.83960    0.02000   -0.08300    8.83090   -0.00350    3.89490   48.20790   48.14380   48.58070   87.16660    0.28040    1.82750
 6374.50000  540.20250  741.74140  377.81340   44.51650   -9999.25    2.82430    0.02300   -0.08950    8.86190   -0.00350    3.92570   48.48060   48.77490   49.67360   87.75600    0.27820    1.82160
 6375.00000  199.31210  370.77230  204.83240   43.44860   -9999.25    2.82070    0.02780   -0.08800    8.86260   -0.00350    3.86640   48.85130   49.40600   50.27810   88.34150    0.27740    1.80970
 6375.50000  166.49380  204.23520  169.25870   46.90800   -9999.25    2.82090    0.03560   -0.07430    8.89360   -0.00340    3.65510   49.28730   49.85670   50.51960   88.32650    0.27970    1.80980
 6376.00000  155.37550  170.55990  162.64680   45.28930   -9999.25    2.83310    0.04340   -0.06700    8.89430   -0.00340    3.47390   49.55790   49.94650   50.57810   88.31160    0.28190    1.80990
 6376.50000  164.24900  163.62940  181.59230   42.15320   -9999.25    2.84430    0.04520   -0.06370    8.89510   -0.00190    3.32810   49.63440   49.85580   50.27320   88.29660    0.28190    1.81600
 6377.00000  178.50590  168.25650  194.70820   41.33460   -9999.25    2.85530    0.04280   -0.06220    8.89580   -0.00030    3.42380   49.61590   49.76030   50.00090   88.28160    0.28340    1.82820
 6377.50000  164.29420  182.88420  161.49840   41.63390   -9999.25    2.86630    0.04030   -0.07520    8.89660   -0.00030    3.54280   49.43170   49.48190   49.81880   88.26660    0.28340    1.83430
 6378.00000  151.21390  188.05450  156.17450   42.28920   -9999.25    2.87700    0.03610   -0.08920    8.89730   -0.00030    3.63790   49.15730   49.12550   49.67400   87.64930    0.28200    1.83450
 6378.50000  173.70090  161.46500  187.70950   43.33010   -9999.25    2.88690    0.03240   -0.09660    8.89810   -0.00170    3.72570   48.88310   48.94320   49.45460   87.03190    0.28200    1.83460
 6379.00000  219.84540  171.48080  248.31350   44.73430   -9999.25    2.88490    0.02940   -0.10250    8.89880   -0.00320    3.78230   48.58320   48.67100   49.05230   87.01690    0.28200    1.83470
 6379.50000  294.09860  271.95490  423.04760   46.14630   -9999.25    2.88100    0.02770   -0.10680    8.89960   -0.00320    3.75290   48.21650   48.39860   48.68850   86.39950    0.28050    1.82280
 6380.00000  357.07820  342.90440  491.71880   44.03600   -9999.25    2.87160    0.02910   -0.10600    8.90030   -0.00470    3.74780   47.94010   48.12630   48.32480   86.38460    0.28050    1.81690
 6380.50000  347.37060  366.21670  300.51130   38.72330   -9999.25    2.85460    0.03260   -0.09790    8.90110   -0.00460    3.71780   47.81830   47.86720   48.09460   85.76720    0.27900    1.81100
 6381.00000  286.18200  348.64770  241.70260   34.70380   -9999.25    2.83580    0.03500   -0.08370    8.90180   -0.00160    3.62080   48.19010   47.77660   48.04720   85.75220    0.27750    1.81110
