~Version ---------------------------------------------------
VERS.   2.0 : CWLS log ASCII Standard -VERSION 2.0
WRAP.    NO : One line per depth step
DLM . SPACE : Column Data Section Delimiter
~Well ------------------------------------------------------
STRT .F                  150.0 : START DEPTH
STOP .F                 8293.0 : STOP DEPTH
STEP .F                    0.5 : STEP
NULL .                -9999.25 : NULL VALUE
COMP .                         : COMPANY
WELL .                         : WELL
FLD  .                         : FIELD
LOC  .                         : LOCATION
PROV .                         : PROVINCE
CNTY .                         : COUNTY
STAT .                         : STATE
CTRY .                         : COUNTRY
SRVC .                         : SERVICE COMPANY
DATE .                         : DATE
UWI  .                         : UNIQUE WELL ID
API  .                         : API NUMBER
SLAT .WGS84 3.6806701293464954 : SURFACE LATITUDE
SLON .WGS84  7.095404039225997 : SURFACE LONGITUDE
DATUM.F                3546.97 : DEPTH DATUM ELEV
~Curve Information -----------------------------------------
DEPT.F     : 
HLLD.OHMM  : LATEROLOG DEEP RES.
HLLS.OHMM  : LATEROLOG SHALLOW RES.
RXOZ.OHMM  : FLUSHED ZONE RESISTIVITY
GRR .GAPI  : GAMMA RAY FROM RES.
GRD .GAPI  : GAMMA RAY FROM DENSITY LOG
RHOZ.G/C3  : HILT BULK DENSITY
TNPH.DEC   : THERMAL NEUTRON POROSITY
DPHZ.DEC   : DENSITY POROSITY LIMESTONE
HCAL.IN    : HILT CALIPER
HDRA.G/C3  : DELTA RHO HIP TOOL
PEFZ.B/E   : HILT PHOTOELECTRIC FACTOR
DTCO.US/F  : COMPRESSIONAL-WAVE INTERVAL TRANSIT TIME ACAUSTIC SLOWNESS
DTLF.US/F  : ACOUSTIC TRANSIT TIME, LONG SPACED, FAR ARRAY
DTLN.US/F  : ACOUSTIC TRANSIT TIME, LONG SPACED, NEAR ARRAY
DTSM.US/F  : DTSM
PR  .None  : POISSON SHEAR-COMPRESIONAL RATIO
VPVS.None  : 
~Params ----------------------------------------------------
~Other -----------------------------------------------------
~ASCII -----------------------------------------------------
# ...
 5787.00000   64.13880   60.03790  112.14310   32.54870   -9999.25    2.87480    0.04110   -0.09110    8.86620   -0.00230    3.50960   48.88350   48.48370   48.07670   88.05830    0.28770    1.84270
 5787.50000  230.88130  124.51380  178.02510   30.94910   -9999.25    2.88140    0.02900   -0.09990    8.86630   -0.00230    3.65990   48.51330   47.57530   47.17260   86.23310    0.28770    1.84630
 5788.00000  560.06070  387.31700  539.30220   29.43370   -9999.25    2.88400    0.01160   -0.10350    8.86650   -0.00380    3.90030   47.82700   47.08360   46.62950   85.01020    0.28920    1.84890
 5788.50000  591.29630  580.09190 1000.26070   36.56740   -9999.25    2.88850    0.00660   -0.11020    8.86660   -0.00530    3.96050   47.43580   46.95770   46.62770   84.38980    0.29000    1.84900
 5789.00000  629.48730  572.17990 1337.98990   46.36230   -9999.25    2.89010    0.00970   -0.11160    8.89700   -0.00530    3.96070   47.12690   46.95730   46.71610   83.76940    0.29310    1.85270
 5789.50000  900.09420  635.84360 1301.63310   53.61380   -9999.25    2.89010    0.01330   -0.11130    8.89710   -0.00530    3.87070   47.09190   47.07890   46.89480   84.95630    0.29380    1.85530
 5790.00000 1432.40590 1340.40160 1414.16560   64.09660   -9999.25    2.88980    0.01750   -0.10720    8.92750   -0.00530    3.72070   47.48640   47.20290   47.43430   87.95030    0.29530    1.86150
 5790.50000  200.34850  778.03140  344.22140   71.93050   -9999.25    2.88860    0.02470   -0.09510    8.92770   -0.00520    3.57070   47.93640   47.91890   48.33480   89.13710    0.29540    1.86760
 5791.00000   78.40330   73.02300   99.55730   68.01850   -9999.25    2.88270    0.03190   -0.07890    8.92780   -0.00520    3.48080   48.47650   48.95730   49.14500   89.72150    0.29460    1.86770
 5791.50000   60.07750   66.25310   68.72070   62.51650   -9999.25    2.84640    0.04160   -0.06690    8.92800   -0.00440    3.45090   48.74630   49.30090   49.14330   89.70350    0.29390    1.86790
 5792.00000   75.79140   87.36520   84.67060   57.72120   -9999.25    2.82300    0.04820   -0.06330    8.92810   -0.00290    3.36100   48.83600   48.95270   48.78060   89.68550    0.29160    1.86800
 5792.50000  113.32310  132.25030  133.40370   53.75170   -9999.25    2.82520    0.04510   -0.06990    8.95850   -0.00220    3.27100   49.01570   48.66840   48.68850   89.66750    0.28950    1.86200
 5793.00000  137.35990  164.84700  133.41290   49.60420   -9999.25    2.83000    0.04210   -0.07530    8.95860   -0.00220    3.24110   49.37560   48.61890   49.13790   89.64960    0.28860    1.86220
 5793.50000  131.01470  141.92000  148.40520   49.05760   -9999.25    2.82750    0.04150   -0.07710    8.98900   -0.00210    3.24130   49.91570   49.27850   49.85790   90.23400    0.28800    1.85630
 5794.00000   80.83650  151.03060  102.01640   51.98620   -9999.25    2.79750    0.04690   -0.06030    8.98910   -0.00210    3.27150   50.54590   50.78120   50.66810   90.81840    0.28650    1.85640
 5794.50000   51.61380   93.24890   64.89120   50.13480   -9999.25    2.78170    0.06070   -0.04700    8.98930   -0.00210    3.36170   50.81570   51.37360   51.20770   91.40360    0.28650    1.84450
 5795.00000   48.15940   47.04580   51.82500   43.88390   -9999.25    2.78600    0.07340   -0.04100    8.98940   -0.00360    3.45200   50.90540   51.22960   50.84500   91.38480    0.28660    1.84460
 5795.50000   71.72680   59.12860   69.54770   36.03850   -9999.25    2.79500    0.06310   -0.04520    8.98960   -0.00510    3.45210   50.63470   49.67700   49.76050   90.76440    0.28810    1.84470
 5796.00000  135.58410  102.90510  125.22910   30.09670   -9999.25    2.81200    0.05230   -0.06510    8.98970   -0.00510    3.48230   50.00360   48.73840   48.94670   89.54160    0.28960    1.85690
 5796.50000  400.24500  206.91390  292.10780   25.18210   -9999.25    2.85660    0.03900   -0.08550    8.98990   -0.00210    3.66260   48.92200   48.15210   48.22310   88.31870    0.28960    1.86300
 5797.00000  948.25170  432.94890  600.84540   21.32070   -9999.25    2.89270    0.02460   -0.10540    8.95980   -0.00050    3.87300   48.20090   47.80030   47.95060   87.69840    0.28970    1.85710
 5797.50000 1414.16330  712.00960 1309.92600   21.65940   -9999.25    2.91130    0.01980   -0.12220    8.96000    0.00250    4.08330   48.38060   48.06500   47.85860   87.07790    0.28820    1.85730
 5798.00000  806.56770 1164.72960 1089.05030   27.78310   -9999.25    2.91880    0.02220   -0.12650    8.96010    0.00400    4.17360   49.28110   50.73860   48.93950   87.66260    0.28520    1.84530
 5798.50000  265.07460  844.09540  408.59270   39.44910   -9999.25    2.91880    0.02940   -0.11320    8.99050    0.00550    4.17370   49.91120   51.45990   50.74220   88.84920    0.28370    1.84540
 5799.00000  185.92540  210.66780  188.57680   46.45200   -9999.25    2.87780    0.04320   -0.08410    8.99060    0.00550    4.08380   50.36130   51.54980   51.46220   90.03600    0.28370    1.84560
 5799.50000  212.53340  185.30300  314.34530   46.22080   -9999.25    2.84740    0.05640   -0.06480    9.02100    0.00400    3.90380   50.63110   50.46650   51.46040   90.62050    0.28530    1.84570
 5800.00000  610.41160  280.65660  654.14580   40.97230   -9999.25    2.83910    0.05700   -0.04790    9.05140    0.00380    3.78380   50.00000   48.93170   49.92480   90.60240    0.28680    1.84580
 5800.50000  994.02330  590.17280 1026.43580   34.46420   -9999.25    2.85010    0.04660   -0.05690    9.04350    0.00290    3.78390   49.48180   48.23660   48.44480   88.18370    0.28800    1.84100
 5801.00000 1214.90820 1056.94140 1402.02810   27.41590   -9999.25    2.85360    0.03030   -0.07690    9.03570   -0.00110    3.72490   48.60630   47.81570   47.83950   88.14490    0.28940    1.84000
 5801.50000 1035.61760 1434.30240 1892.91770   28.74340   -9999.25    2.85420    0.01950   -0.09130    9.02780   -0.00640    3.75910   48.12930   47.57890   47.63230   87.51790    0.28990    1.84660
 5802.00000  769.58230 1516.34070 1645.50940   33.24420   -9999.25    2.85420    0.01780   -0.08980    9.02300   -0.00480    3.81620   47.92790   47.70700   47.57550   86.95180    0.28990    1.84630
 5802.50000  594.18630 1357.26220 1375.87380   39.97740   -9999.25    2.85420    0.01980   -0.09160    9.05370   -0.00330    3.72370   48.47590   48.30970   48.21030   86.94280    0.28840    1.83960
 5803.00000  463.43630 1042.95500  979.75670   47.52940   -9999.25    2.85420    0.02430   -0.09310    9.05410   -0.00170    3.66720   49.34520   49.23800   49.07970   87.62660    0.28700    1.83440
 5803.50000  322.67670  607.27510  478.45500   54.84060   -9999.25    2.84620    0.03450   -0.09380    9.05460   -0.00320    3.66790   50.03170   49.91950   49.76660   88.83670    0.28850    1.84060
 5804.00000  233.01390  271.67370  320.86340   57.05240   -9999.25    2.82490    0.03880   -0.08050    9.05500   -0.00690    3.66850   50.53450   50.51290   50.31110   90.04820    0.29000    1.84180
 5804.50000  156.09090  147.58670  194.56310   59.96740   -9999.25    2.80700    0.03740   -0.06290    9.05550   -0.00760    3.70450   50.85430   51.10290   50.85550   91.25920    0.29240    1.84940
 5805.00000  104.79370  113.40940  120.16910   56.95900   -9999.25    2.81040    0.03360   -0.05860    9.05590   -0.00530    3.80180   51.03600   51.27820   51.35660   92.32040    0.29460    1.86040
 5805.50000   89.37700   94.70990   92.98910   45.89450   -9999.25    2.82120    0.02860   -0.06750    9.05640   -0.00370    3.92370   51.08110   51.22660   51.53890   92.31020    0.29460    1.86670
 5806.00000  100.36630   88.37540   81.29890   31.43760   -9999.25    2.84290    0.02030   -0.08180    9.05680   -0.00150    3.97120   50.84680   50.90050   51.35510   92.12020    0.29620    1.87130
 5806.50000  150.79440  111.89330  120.82950   21.18590   -9999.25    2.86890    0.01610   -0.09500    9.05730   -0.00150    4.00180   50.44160   50.46620   50.99070   91.68980    0.29620    1.87140
 5807.00000  250.13440  158.29460  202.65460   13.59690   -9999.25    2.89870    0.00780   -0.09960    9.05770   -0.00140    4.07090   50.12910   50.01500   50.39670   91.07830    0.29620    1.86550
