~Version ---------------------------------------------------
VERS.   2.0 : CWLS log ASCII Standard -VERSION 2.0
WRAP.    NO : One line per depth step
DLM . SPACE : Column Data Section Delimiter
~Well ------------------------------------------------------
STRT .F                  150.0 : START DEPTH
STOP .F                 8293.0 : STOP DEPTH
STEP .F                    0.5 : STEP
NULL .                -9999.25 : NULL VALUE
COMP .                         : COMPANY
WELL .                         : WELL
FLD  .                         : FIELD
LOC  .                         : LOCATION
PROV .                         : PROVINCE
CNTY .                         : COUNTY
STAT .                         : STATE
CTRY .                         : COUNTRY
SRVC .                         : SERVICE COMPANY
DATE .                         : DATE
UWI  .                         : UNIQUE WELL ID
API  .                         : API NUMBER
SLAT .WGS84 3.6806701293464954 : SURFACE LATITUDE
SLON .WGS84  7.095404039225997 : SURFACE LONGITUDE
DATUM.F                3546.97 : DEPTH DATUM ELEV
~Curve Information -----------------------------------------
DEPT.F     : 
HLLD.OHMM  : LATEROLOG DEEP RES.
HLLS.OHMM  : LATEROLOG SHALLOW RES.
RXOZ.OHMM  : FLUSHED ZONE RESISTIVITY
GRR .GAPI  : GAMMA RAY FROM RES.
GRD .GAPI  : GAMMA RAY FROM DENSITY LOG
RHOZ.G/C3  : HILT BULK DENSITY
TNPH.DEC   : THERMAL NEUTRON POROSITY
DPHZ.DEC   : DENSITY POROSITY LIMESTONE
HCAL.IN    : HILT CALIPER
HDRA.G/C3  : DELTA RHO HIP TOOL
PEFZ.B/E   : HILT PHOTOELECTRIC FACTOR
DTCO.US/F  : COMPRESSIONAL-WAVE INTERVAL TRANSIT TIME ACAUSTIC SLOWNESS
DTLF.US/F  : ACOUSTIC TRANSIT TIME, LONG SPACED, FAR ARRAY
DTLN.US/F  : ACOUSTIC TRANSIT TIME, LONG SPACED, NEAR ARRAY
DTSM.US/F  : DTSM
PR  .None  : POISSON SHEAR-COMPRESIONAL RATIO
VPVS.None  : 
~Params ----------------------------------------------------
~Other -----------------------------------------------------
~ASCII -----------------------------------------------------
# ...
 6545.50000 1066.61320 2184.55220 2012.60530   25.94530   -9999.25    2.85530    0.02100   -0.09270    9.01310    0.00150    3.29520   46.21660   46.41400   46.98840   81.62050    0.28050    1.81020
 6546.00000 1093.05660 1901.96580 1560.99580   25.44370   -9999.25    2.84950    0.02460   -0.08590    9.01400    0.00000    3.32620   46.67230   47.22510   47.71060   82.81860    0.28050    1.79990
 6546.50000  802.59530 1237.56870  555.22520   24.25760   -9999.25    2.84730    0.02640   -0.08120    9.01490    0.00000    3.38720   47.28810   47.94600   48.25270   83.41570    0.27910    1.80770
 6547.00000  408.87240  396.90200  282.75890   24.50500   -9999.25    2.84730    0.02760   -0.08550    9.01580    0.00010    3.47820   47.76330   48.57670   48.66180   84.61380    0.28060    1.81990
 6547.50000  265.52380  195.67900  209.11070   26.65490   -9999.25    2.84730    0.02820   -0.09150    9.01670    0.00000    3.56920   48.17340   49.02700   48.97970   85.21080    0.28210    1.83030
 6548.00000  186.26930  156.76480  163.10230   28.66290   -9999.25    2.84070    0.03480   -0.08910    9.01760   -0.00140    3.66020   48.33150   49.02610   49.15970   85.80720    0.28220    1.83640
 6548.50000  138.32120  136.91030  125.47200   29.52470   -9999.25    2.82280    0.03540   -0.07290    9.01850   -0.00130    3.69110   48.42200   48.93490   49.16200   85.80060    0.28220    1.83650
 6549.00000  114.76160  116.66030  112.80240   28.97380   -9999.25    2.80820    0.03180   -0.06210    9.01940   -0.00130    3.75200   48.30550   48.66340   48.93590   86.39700    0.28220    1.83660
 6549.50000   91.83820   96.41020  127.23410   27.26030   -9999.25    2.80530    0.02690   -0.05790    8.99010   -0.00870    3.81300   48.15260   48.48200   48.70810   86.39100    0.28230    1.83670
 6550.00000   73.52390  106.40170  236.86360   32.08020   -9999.25    2.80530    0.02270   -0.06510    8.96080   -0.00550    3.93400   48.06300   48.12020   48.57140   86.38500    0.28230    1.83670
 6550.50000  275.28230  721.71190  705.16560   38.90510   -9999.25    2.80870    0.02150   -0.06570    8.96170   -0.00420    3.96490   48.15360   47.84870   48.61620   86.37900    0.28080    1.83680
 6551.00000  752.15890  952.65490 1426.15920   44.83340   -9999.25    2.81750    0.02210   -0.06390    8.93230   -0.00560    3.93580   48.36730   47.75750   48.65990   86.37300    0.27930    1.83480
 6551.50000 1080.47610 1021.28280  283.49710   47.43540   -9999.25    2.82780    0.02330   -0.06030    8.90310   -0.00710    3.81660   48.58390   48.02730   48.52230   86.36710    0.27790    1.81680
 6552.00000  673.90720  432.25690  832.41430   46.22870   -9999.25    2.83700    0.02810   -0.05670    8.90400   -0.00520    3.57720   48.69550   48.47750   48.29360   85.75860    0.27940    1.81300
 6552.50000  162.08190  163.73640   12.33910   42.01050   -9999.25    2.84440    0.03050   -0.05490    8.90490   -0.00400    3.48470   48.53070   48.11570   47.93090   85.75260    0.27940    1.81310
 6553.00000  210.90520  231.65270   48.45290   37.91250   -9999.25    2.84800    0.02310   -0.06520    8.87550   -0.00730    3.63910   48.16790   47.66370   47.56810   85.14420    0.27950    1.81320
 6553.50000  413.83880  417.55810  499.50500   35.39900   -9999.25    2.84800    0.02200   -0.07300    8.81610   -0.00850    3.73010   47.80500   47.03120   47.20550   85.13820    0.27950    1.81930
 6554.00000  465.84700  547.66030  395.02140   36.43670   -9999.25    2.84440    0.02270   -0.07960    8.78680   -0.00800    3.88110   47.43600   46.84570   47.31550   85.73460    0.27950    1.81940
 6554.50000  417.98810  563.18290  381.21060   48.63090   -9999.25    2.83810    0.02400   -0.08330    8.78770   -0.00690    3.91390   47.83740   48.38280   48.36610   88.13830    0.27950    1.81950
 6555.00000  369.71870  571.16730  229.40910   53.43300   -9999.25    2.83080    0.02760   -0.08690    8.75830   -0.00490    3.85290   48.47300   49.64510   49.43310   88.13230    0.27960    1.81960
 6555.50000  230.91820  135.00420  116.80110   57.23860   -9999.25    2.82720    0.03410   -0.08210    8.72900   -0.00140    3.70360   48.83530   49.91490   49.92500   87.52390    0.27960    1.81970
 6556.00000   44.48330   32.80800   65.02940   56.65010   -9999.25    2.82360    0.04620   -0.06950    8.69970    0.00620    3.55440   49.01740   50.00420   49.95370   86.91550    0.27960    1.81980
 6556.50000   25.77370   24.18460   23.27230   50.08620   -9999.25    2.82130    0.06740   -0.06820    8.70060    0.00930    3.37510   49.01030   49.45450   49.29740   85.70470    0.27970    1.81980
 6557.00000   21.08230   24.52750   20.29760   40.31690   -9999.25    2.82010    0.07010   -0.07310    8.67130    0.00980    3.16580   48.63710   48.90410   48.39160   85.09620    0.27970    1.81390
 6557.50000   20.34220   25.22270   28.75870   32.88860   -9999.25    2.81890    0.06540   -0.06770    8.67220    0.00340    3.07660   48.09220   48.16610   47.59040   83.88540    0.27970    1.81400
 6558.00000   25.43540   34.70850   54.41680   28.99350   -9999.25    2.81890    0.05810   -0.06290    8.67310    0.00190    3.07810   47.52980   46.99680   47.24150   83.27700    0.27980    1.81410
 6558.50000   64.62790  111.31390  107.85680   26.84820   -9999.25    2.81890    0.04420   -0.06110    8.67400   -0.00110    3.10840   47.07980   46.46490   47.11250   83.27100    0.27980    1.81420
 6559.00000  134.55710  202.15080  208.31670   25.12320   -9999.25    2.81960    0.03440   -0.06770    8.67490   -0.00350    3.13930   46.90000   46.38980   47.16480   83.86740    0.27970    1.81430
 6559.50000  216.13500  266.83780  230.70940   23.72970   -9999.25    2.82120    0.03330   -0.07020    8.67580   -0.00350    3.20030   46.99060   46.69150   47.39870   84.46380    0.27830    1.81160
 6560.00000  174.98060  144.96960  146.19880   22.02760   -9999.25    2.82350    0.03390   -0.06600    8.67670   -0.00500    3.20120   47.35140   47.23620   47.70520   85.66270    0.27690    1.80840
 6560.50000  109.95500   96.97690   96.46360   20.57290   -9999.25    2.82350    0.03380   -0.06240    8.67760   -0.00340    3.19970   47.71220   47.79370   48.01090   85.65670    0.27690    1.80850
 6561.00000   94.53330   98.35170   91.48620   19.69580   -9999.25    2.82350    0.03330   -0.06230    8.67850   -0.00210    3.14290   47.98300   48.31030   48.19050   86.25310    0.27690    1.80860
 6561.50000  101.05380  126.27160  134.67940   19.69410   -9999.25    2.81690    0.03390   -0.06360    8.67950    0.00100    3.14380   48.25370   48.55080   48.37020   85.62920    0.27700    1.80870
 6562.00000  134.98350  153.36740   85.41000   20.52830   -9999.25    2.80780    0.03380   -0.06960    8.68040    0.00200    3.14470   48.43430   48.64010   48.54960   85.03610    0.27700    1.80880
 6562.50000  138.64300  143.12070   53.91320   23.90810   -9999.25    2.80240    0.03470   -0.06780    8.68130   -0.00100    3.14560   48.43470   48.62030   48.54870   84.42770    0.27690    1.80890
 6563.00000  140.16650  137.31560   72.41590   29.41160   -9999.25    2.80400    0.03810   -0.05640    8.68220   -0.00170    3.14650   48.34510   48.43750   48.54780   83.81930    0.27560    1.80900
 6563.50000  189.63560  155.60620  201.48260   36.00600   -9999.25    2.80710    0.04140   -0.05400    8.68310    0.00350    3.14740   48.25550   48.34510   48.45670   83.81330    0.27550    1.80910
 6564.00000  257.24120  343.15490  334.02280   43.48180   -9999.25    2.81230    0.04220   -0.05520    8.68400    0.00590    3.15310   48.16580   48.18530   48.27530   83.84740    0.27410    1.80920
 6564.50000  209.02820  194.35340  210.23410   45.23120   -9999.25    2.81840    0.03950   -0.05520    8.68490    0.00590    3.18440   48.16630   48.09410   48.09400   84.44850    0.27260    1.80920
 6565.00000  172.22020  178.86940  163.48120   46.00900   -9999.25    2.82430    0.03720   -0.05520    8.68580    0.00370    3.21570   48.25680   48.06770   48.00280   85.04970    0.27250    1.80930
 6565.50000  221.02660  202.69560  244.70310   41.63410   -9999.25    2.82960    0.03540   -0.05830    8.68670    0.00140    3.27700   48.34730   47.97510   47.91170   85.59670    0.27120    1.80940
