~Version ---------------------------------------------------
VERS.   2.0 : CWLS log ASCII Standard -VERSION 2.0
WRAP.    NO : One line per depth step
DLM . SPACE : Column Data Section Delimiter
~Well ------------------------------------------------------
STRT .F                  935.0 : START DEPTH
STOP .F                 8154.0 : STOP DEPTH
STEP .F                    0.5 : STEP
NULL .                -9999.25 : NULL VALUE
COMP .                         : COMPANY
WELL .                         : WELL
FLD  .                         : FIELD
LOC  .                         : LOCATION
PROV .                         : PROVINCE
CNTY .                         : COUNTY
STAT .                         : STATE
CTRY .                         : COUNTRY
SRVC .                         : SERVICE COMPANY
DATE .                         : DATE
UWI  .                         : UNIQUE WELL ID
API  .                         : API NUMBER
SLAT .WGS84  6.169118870436797 : SURFACE LATITUDE
SLON .WGS84 3.6801019744815022 : SURFACE LONGITUDE
DATUM.F                1774.67 : DEPTH DATUM ELEV
~Curve Information -----------------------------------------
DEPT.F     : 
SPR .MV    : SPONTANEOUS POTENTIAL FROM RESISTIVITY
GRR .GAPI  : GAMMA RAY FROM RESISTIVITY
SFLU.OHMM  : SFL RESISTIVITY (UNAVERAGED)
ILD .OHMM  : INDUCTION DEEP RESISTIVITY
ILM .OHMM  : INDUCTION MEDIUM RESISTIVITY
CILD.MMHO  : INDUCTION DEEP CONDUCTIVITY
ILD1.OHMM  : INDUCTION LOG DEEP
SFLA.OHMM  : SFL RESISTIVITY (AVERAGED)
CALD.IN    : CALIPER FROM DENSITY LOG
PEF .B/E   : PHOTO ELECTRIC FACTOR
RHOB.G/C3  : BULK DENSITY
DRHO.G/C3  : BULK DENSITY CORRECTION
NPHI.DEC   : NEUTRON POROSITY
DPHI.DEC   : DENSITY POROSITY
DTCO.US/F  : DELTA-T COMPRESSIONAL
DTSM.US/F  : DELTA-T SHEAR
~Params ----------------------------------------------------
~Other -----------------------------------------------------
~ASCII -----------------------------------------------------
# ...
 7686.00000   -5.63460  111.89890    9.55490    7.25360    6.83820   -9999.25   -9999.25   -9999.25    9.71350    3.26560    2.66560    0.00490    0.25010    0.02220   81.14170  153.27260
 7686.50000   -5.63450  112.88160    9.54600    7.25360    6.88810   -9999.25   -9999.25   -9999.25    9.71590    3.25930    2.65470    0.00490    0.23500    0.03080   81.14170  153.30160
 7687.00000   -5.63470  113.45940    9.54290    7.25370    6.94300   -9999.25   -9999.25   -9999.25    9.71830    3.24940    2.65210    0.00490    0.23420    0.03320   81.14170  153.33070
 7687.50000   -5.63450  114.29490    9.54690    7.25360    6.99500   -9999.25   -9999.25   -9999.25    9.72070    3.24910    2.65100    0.00490    0.23350    0.03480   81.14170  153.35980
 7688.00000   -5.63400  115.48540    9.55410    7.25360    7.04960   -9999.25   -9999.25   -9999.25    9.72310    3.24370    2.66230    0.00490    0.23310    0.03250   81.14170  153.38880
 7688.50000   -5.63400  117.06260    9.56020    7.25370    7.10340   -9999.25   -9999.25   -9999.25    9.72560    3.24000    2.67040    0.00490    0.23280    0.02770   81.14170  153.41790
 7689.00000   -5.63480  118.75240    9.56500    7.25390    7.15820   -9999.25   -9999.25   -9999.25    9.72790    3.23820    2.66960    0.00490    0.23970    0.02410   81.14170  153.44700
 7689.50000   -5.63450  119.77240    9.57040    7.25360    7.21300   -9999.25   -9999.25   -9999.25    9.73050    3.25790    2.67040    0.00490    0.24560    0.02300   81.14170  153.47600
 7690.00000   -5.63270  119.71880    9.57630    7.25340    7.26880   -9999.25   -9999.25   -9999.25    9.73270    3.27980    2.67020    0.00490    0.25170    0.02400   81.14170  153.50510
 7690.50000   -5.63320  118.89230    9.58190    7.25390    7.32390   -9999.25   -9999.25   -9999.25    9.73480    3.30590    2.66830    0.00490    0.25090    0.02490   81.14170  153.53420
 7691.00000   -5.63610  117.59530    9.58730    7.25440    7.38150   -9999.25   -9999.25   -9999.25    9.72960    3.33330    2.66640    0.00490    0.24540    0.02580   81.14170  153.56320
 7691.50000   -5.63420  116.27880    9.59280    7.25220    7.43630   -9999.25   -9999.25   -9999.25    9.72430    3.33080    2.66640    0.00490    0.23910    0.02670   81.14170  153.67600
 7692.00000   -5.62790  115.87340    9.59850    7.24650    7.49590   -9999.25   -9999.25   -9999.25    9.71870    3.32690    2.66630    0.00540    0.23800    0.02690   81.14170  153.95840
 7692.50000   -5.63850  116.30960    9.60410    7.23940    7.55040   -9999.25   -9999.25   -9999.25    9.71320    3.31950    2.66630    0.00620    0.23880    0.02690   81.14170  154.24070
 7693.00000   -5.68920  115.67500    9.60960    7.23320    7.61180   -9999.25   -9999.25   -9999.25    9.70770    3.31810    2.66640    0.00710    0.24150    0.02690   81.14170  154.37010
 7693.50000   -5.77670  113.00540    9.61520    7.22760    7.66160   -9999.25   -9999.25   -9999.25    9.70220    3.42000    2.66510    0.00780    0.25090    0.02690   81.14170  154.37010
 7694.00000   -5.87550  110.78980    9.62080    7.22180    7.64160   -9999.25   -9999.25   -9999.25    9.69680    3.62130    2.66530    0.00880    0.25720    0.02740   81.14170  154.37010
 7694.50000   -5.96910  112.08230    9.62630    7.21570    7.61650   -9999.25   -9999.25   -9999.25    9.69130    3.81370    2.65910    0.00870    0.25310    0.02800   81.14170  154.37010
 7695.00000   -6.05980  116.08450    9.63190    7.20970    7.59800   -9999.25   -9999.25   -9999.25    9.68580    3.81770    2.65610    0.00860    0.24620    0.02920   81.14170  154.62780
 7695.50000   -6.15250  119.22990    9.63750    7.20390    7.57380   -9999.25   -9999.25   -9999.25    9.68030    3.62070    2.65340    0.00840    0.24850    0.03180   81.14170  154.89730
 7696.00000   -6.24630  119.89670    9.64300    7.19800    7.55430   -9999.25   -9999.25   -9999.25    9.67480    3.46460    2.65260    0.00830    0.24700    0.03470   81.14170  155.16680
 7696.50000   -6.34080  119.54420    9.64860    7.19200    7.53160   -9999.25   -9999.25   -9999.25    9.66930    3.53670    2.65250    0.00820    0.24850    0.03500   81.16880  155.43630
 7697.00000   -6.43480  119.64330    9.65420    7.18600    7.51070   -9999.25   -9999.25   -9999.25    9.66390    3.57120    2.65260    0.00800    0.24850    0.03520   81.20420  155.55120
 7697.50000   -6.52470  119.88040    9.65970    7.18020    7.48950   -9999.25   -9999.25   -9999.25    9.65810    3.55270    2.65260    0.00790    0.24850    0.03550   81.23960  155.55120
 7698.00000   -6.61510  119.59270    9.66530    7.17440    7.46760   -9999.25   -9999.25   -9999.25    9.65650    3.62970    2.65620    0.00770    0.25380    0.03460   81.27490  155.55120
 7698.50000   -6.71480  119.04610    9.67090    7.16840    7.44740   -9999.25   -9999.25   -9999.25    9.65790    3.69970    2.65640    0.00760    0.25870    0.03300   81.31020  155.00460
 7699.00000   -6.81270  118.53140    9.67650    7.16250    7.42530   -9999.25   -9999.25   -9999.25    9.65900    3.73720    2.65660    0.00740    0.25870    0.03190   81.34560  154.60910
 7699.50000   -6.89330  117.58660    9.68210    7.15640    7.40430   -9999.25   -9999.25   -9999.25    9.66000    3.68280    2.65630    0.00730    0.25870    0.03100   81.38090  154.21360
 7700.00000   -6.97880  116.23410    9.68750    7.15050    7.38740   -9999.25   -9999.25   -9999.25    9.66120    3.54300    2.65860    0.00710    0.25650    0.03010   81.41630  153.81810
 7700.50000   -7.09810  115.84330    9.69320    7.14520    7.34440   -9999.25   -9999.25   -9999.25    9.66220    3.46130    2.66290    0.00700    0.24540    0.02930   81.45160  153.65570
 7701.00000   -7.19870  117.17590    9.69810    7.13890    7.30870   -9999.25   -9999.25   -9999.25    9.66330    3.44710    2.66460    0.00700    0.25100    0.02850   81.48690  153.83610
 7701.50000   -7.16940  118.50960    9.70220    7.13220    7.27320   -9999.25   -9999.25   -9999.25    9.66440    3.43470    2.66420    0.00780    0.25660    0.02770   81.52220  154.01650
 7702.00000   -6.98110  117.68850    9.70850    7.12850    7.23780   -9999.25   -9999.25   -9999.25    9.66550    3.43380    2.66570    0.00850    0.26110    0.02690   82.08840  154.19690
 7702.50000   -6.73260  115.36510    9.71820    7.12200    7.20260   -9999.25   -9999.25   -9999.25    9.66660    3.43500    2.66830    0.00930    0.26110    0.02610   82.97030  154.37010
 7703.00000   -6.52220  114.19720    9.72740    7.10550    7.16750   -9999.25   -9999.25   -9999.25    9.66770    3.44200    2.67000    0.01000    0.26110    0.02530   83.85210  152.79530
 7703.50000   -6.34570  115.38840    9.73970    7.08940    7.13270   -9999.25   -9999.25   -9999.25    9.66880    3.37860    2.66760    0.01080    0.25670    0.02460   84.68500  155.04200
 7704.00000   -6.15330  117.80200    9.76460    7.07970    7.09800   -9999.25   -9999.25   -9999.25    9.66990    3.24510    2.66570    0.01030    0.25300    0.02690   81.92910  155.16060
 7704.50000   -5.94070  119.90400    9.78960    7.06140    7.06340   -9999.25   -9999.25   -9999.25    9.67100    3.32300    2.66300    0.00980    0.24930    0.02910   81.72720  153.97010
 7705.00000   -5.73950  121.04210    9.79230    7.04220    7.02910   -9999.25   -9999.25   -9999.25    9.67210    3.39200    2.66520    0.00920    0.24560    0.02880   81.49380  152.78610
 7705.50000   -5.55520  121.29310    9.79670    7.04000    6.99330   -9999.25   -9999.25   -9999.25    9.67320    3.45480    2.67150    0.00870    0.24190    0.02670   81.26030  151.57390
 7706.00000   -5.35920  121.04170    9.84190    7.02190    7.07440   -9999.25   -9999.25   -9999.25    9.67430    3.49430    2.67610    0.00810    0.23750    0.02470   81.02690  151.91100
 7706.50000   -5.14170  120.42100    9.84980    7.00420    7.16190   -9999.25   -9999.25   -9999.25    9.67540    3.54160    2.67580    0.00760    0.25400    0.02260   80.79340  150.33310
 7707.00000   -4.95190  119.08190    9.86700    6.99330    7.24470   -9999.25   -9999.25   -9999.25    9.67650    3.58360    2.67860    0.00700    0.25480    0.02050   80.56000  148.76340
