~Version ---------------------------------------------------
VERS.   2.0 : CWLS log ASCII Standard -VERSION 2.0
WRAP.    NO : One line per depth step
DLM . SPACE : Column Data Section Delimiter
~Well ------------------------------------------------------
STRT .F                  935.0 : START DEPTH
STOP .F                 8154.0 : STOP DEPTH
STEP .F                    0.5 : STEP
NULL .                -9999.25 : NULL VALUE
COMP .                         : COMPANY
WELL .                         : WELL
FLD  .                         : FIELD
LOC  .                         : LOCATION
PROV .                         : PROVINCE
CNTY .                         : COUNTY
STAT .                         : STATE
CTRY .                         : COUNTRY
SRVC .                         : SERVICE COMPANY
DATE .                         : DATE
UWI  .                         : UNIQUE WELL ID
API  .                         : API NUMBER
SLAT .WGS84  6.169118870436797 : SURFACE LATITUDE
SLON .WGS84 3.6801019744815022 : SURFACE LONGITUDE
DATUM.F                1774.67 : DEPTH DATUM ELEV
~Curve Information -----------------------------------------
DEPT.F     : 
SPR .MV    : SPONTANEOUS POTENTIAL FROM RESISTIVITY
GRR .GAPI  : GAMMA RAY FROM RESISTIVITY
SFLU.OHMM  : SFL RESISTIVITY (UNAVERAGED)
ILD .OHMM  : INDUCTION DEEP RESISTIVITY
ILM .OHMM  : INDUCTION MEDIUM RESISTIVITY
CILD.MMHO  : INDUCTION DEEP CONDUCTIVITY
ILD1.OHMM  : INDUCTION LOG DEEP
SFLA.OHMM  : SFL RESISTIVITY (AVERAGED)
CALD.IN    : CALIPER FROM DENSITY LOG
PEF .B/E   : PHOTO ELECTRIC FACTOR
RHOB.G/C3  : BULK DENSITY
DRHO.G/C3  : BULK DENSITY CORRECTION
NPHI.DEC   : NEUTRON POROSITY
DPHI.DEC   : DENSITY POROSITY
DTCO.US/F  : DELTA-T COMPRESSIONAL
DTSM.US/F  : DELTA-T SHEAR
~Params ----------------------------------------------------
~Other -----------------------------------------------------
~ASCII -----------------------------------------------------
# ...
 7127.00000  -16.43810   99.53140   10.15670    7.98660    8.52650   -9999.25   -9999.25   -9999.25   10.40660    3.03110    2.61150    0.00680    0.20290    0.06000   76.48850  136.66050
 7127.50000  -16.60660  101.18010   10.18650    8.04430    8.51360   -9999.25   -9999.25   -9999.25   10.42010    3.02860    2.61800    0.00830    0.20290    0.05840   76.55820  135.88580
 7128.00000  -16.71880  103.13500   10.21630    8.10240    8.50080   -9999.25   -9999.25   -9999.25   10.43360    3.02580    2.62440    0.01580    0.20430    0.05530   76.62720  137.33070
 7128.50000  -16.73420  104.66730   10.24620    8.16090    8.48790   -9999.25   -9999.25   -9999.25   10.44710    3.02360    2.63130    0.01520    0.20740    0.04890   76.69630  138.31600
 7129.00000  -16.68790  105.16380   10.26470    8.21990    8.47510   -9999.25   -9999.25   -9999.25   10.46060    3.00900    2.63130    0.01610    0.21050    0.04920   76.76540  137.86330
 7129.50000  -16.64260  104.26060   10.26470    8.27920    8.46240   -9999.25   -9999.25   -9999.25   10.47400    2.96480    2.62920    0.01660    0.21030    0.04950   76.75850  137.41050
 7130.00000  -16.61590  102.26710   10.26470    8.33900    8.44960   -9999.25   -9999.25   -9999.25   10.48750    2.93320    2.62730    0.01630    0.20840    0.04910   76.57770  136.95780
 7130.50000  -16.58770  100.56270   10.26470    8.39930    8.43690   -9999.25   -9999.25   -9999.25   10.50100    2.90040    2.63340    0.01590    0.18930    0.04770   76.39690  136.65350
 7131.00000  -16.55020  100.77790   10.26470    8.45990    8.42410   -9999.25   -9999.25   -9999.25   10.51450    2.90430    2.63620    0.01530    0.18940    0.04630   76.21590  136.65350
 7131.50000  -16.51400  102.86570   10.26470    8.55030    8.41140   -9999.25   -9999.25   -9999.25   10.52800    2.90310    2.63340    0.01480    0.19070    0.04670   76.02360  136.66060
 7132.00000  -16.48280  104.58500   10.37590    8.55030    8.39550   -9999.25   -9999.25   -9999.25   10.54150    2.90890    2.63100    0.01430    0.19190    0.04810   76.24020  136.26170
 7132.50000  -16.45060  103.85360   10.46190    8.55030    8.37220   -9999.25   -9999.25   -9999.25   10.55500    2.96560    2.62840    0.01370    0.20130    0.04940   76.46650  135.84530
 7133.00000  -16.41590  101.17810   10.54860    8.55030    8.34120   -9999.25   -9999.25   -9999.25   10.56850    2.98230    2.62740    0.01320    0.20350    0.05080   76.69290  135.50620
 7133.50000  -16.38180   98.78680   10.63610    8.55030    8.30990   -9999.25   -9999.25   -9999.25   10.58200    2.98260    2.62960    0.01280    0.20610    0.05000   76.91930  137.58290
 7134.00000  -16.34880   97.83320   10.72430    8.55030    8.27900   -9999.25   -9999.25   -9999.25   10.59550    2.98570    2.63360    0.01330    0.20270    0.04800   77.14570  138.26180
 7134.50000  -16.31560   97.58640   10.84320    8.55030    8.24790   -9999.25   -9999.25   -9999.25   10.60900    3.08000    2.63710    0.01360    0.20020    0.04600   77.37200  138.25400
 7135.00000  -16.28180   97.02870   10.69450    8.55030    8.21720   -9999.25   -9999.25   -9999.25   10.62250    3.15380    2.63700    0.01400    0.20150    0.04610   77.59840  138.24130
 7135.50000  -16.24820   96.12440   10.47440    8.55030    8.18640   -9999.25   -9999.25   -9999.25   10.63600    3.18050    2.63340    0.01440    0.20290    0.04830   77.82480  138.14750
 7136.00000  -16.21490   95.60040   10.25890    8.55030    8.15590   -9999.25   -9999.25   -9999.25   10.64950    3.19370    2.62550    0.01480    0.20590    0.05050   77.86220  137.96640
 7136.50000  -16.18160   96.10490   10.07880    8.55030    8.12530   -9999.25   -9999.25   -9999.25   10.66290    3.16950    2.62540    0.01520    0.20930    0.05140   77.36420  137.78520
 7137.00000  -16.14820   97.31950   10.30700    8.55030    8.09500   -9999.25   -9999.25   -9999.25   10.67640    3.14690    2.63040    0.01560    0.21240    0.04920   76.86610  137.60420
 7137.50000  -16.11490   97.78220   10.50990    8.55030    8.06480   -9999.25   -9999.25   -9999.25   10.68990    3.12600    2.63530    0.01600    0.20890    0.04690   76.41730  137.44090
 7138.00000  -16.08170   96.39520   10.71680    8.55030    8.03450   -9999.25   -9999.25   -9999.25   10.70340    3.10170    2.63700    0.01640    0.20610    0.04530   76.72380  136.12760
 7138.50000  -16.04830   94.14240   10.92770    8.55030    8.00480   -9999.25   -9999.25   -9999.25   10.71690    3.10300    2.63570    0.01660    0.20020    0.04570   77.00270  135.07870
 7139.00000  -16.01470   93.21770   11.04320    8.55030    7.97440   -9999.25   -9999.25   -9999.25   10.73060    3.10880    2.63310    0.01420    0.20060    0.04670   77.28160  140.67680
 7139.50000  -15.98190   94.43390   10.47150    8.41960    7.94530   -9999.25   -9999.25   -9999.25   10.74370    3.11300    2.63070    0.01210    0.20250    0.04770   77.56050  141.54740
 7140.00000  -15.95210   96.73070   10.09730    8.29930    7.91470   -9999.25   -9999.25   -9999.25   10.75770    3.11840    2.62810    0.00970    0.20420    0.04860   77.83940  142.40250
 7140.50000  -15.92590   99.07060    9.71710    8.18070    7.88630   -9999.25   -9999.25   -9999.25   10.77130    3.05680    2.62740    0.00750    0.20600    0.04960   78.11830  143.25600
 7141.00000  -15.90200  101.30680    9.67430    8.06370    7.85540   -9999.25   -9999.25   -9999.25   10.78280    2.99030    2.62880    0.00510    0.20770    0.05050   78.39720  143.77880
 7141.50000  -15.87860  103.24050    9.69130    7.94760    7.82770   -9999.25   -9999.25   -9999.25   10.80200    2.93140    2.63010    0.00490    0.20940    0.04940   78.67610  143.75890
 7142.00000  -15.85490  104.37870    9.63760    7.87910    7.80300   -9999.25   -9999.25   -9999.25   10.77030    3.02220    2.62940    0.00490    0.19900    0.04840   78.95500  143.75020
 7142.50000  -15.83110  104.79270    9.63950    7.76650    7.76150   -9999.25   -9999.25   -9999.25   10.75090    3.10600    2.62400    0.00460    0.20290    0.05100   79.17320  143.74570
 7143.00000  -15.80750  105.07600    9.60080    7.65550    7.72460   -9999.25   -9999.25   -9999.25   10.73570    3.13990    2.61890    0.00420    0.19900    0.05500   79.13570  143.74020
 7143.50000  -15.78390  105.34050    9.59000    7.54610    7.69080   -9999.25   -9999.25   -9999.25   10.72330    3.03650    2.61280    0.00380    0.20480    0.05780   79.04490  143.74020
 7144.00000  -15.76020  105.07460    9.56210    7.38740    7.65450   -9999.25   -9999.25   -9999.25   10.70830    2.90420    2.61250    0.00340    0.22160    0.05830   78.95400  143.74020
 7144.50000  -15.73660  104.05720    9.54310    7.41760    7.62060   -9999.25   -9999.25   -9999.25   10.69440    2.86310    2.61540    0.00300    0.22430    0.05890   78.86320  143.74020
 7145.00000  -15.71290  102.96060    9.52030    7.47570    7.58510   -9999.25   -9999.25   -9999.25   10.68050    2.93130    2.61800    0.00260    0.22260    0.05820   78.77250  143.74020
 7145.50000  -15.68930  102.90510    9.49760    7.53420    7.55090   -9999.25   -9999.25   -9999.25   10.66640    2.98900    2.62050    0.00220    0.21390    0.05650   78.68170  143.74020
 7146.00000  -15.66560  104.31290    9.47670    7.59310    7.51640   -9999.25   -9999.25   -9999.25   10.65140    3.04600    2.62310    0.00180    0.20770    0.05480   78.59070  143.74020
 7146.50000  -15.64200  106.18410    9.45360    7.66240    7.48190   -9999.25   -9999.25   -9999.25   10.64430    3.10570    2.62570    0.00150    0.21410    0.05310   78.49980  143.74020
 7147.00000  -15.61830  106.94100    9.43330    7.51400    7.44830   -9999.25   -9999.25   -9999.25   10.64720    3.16970    2.62830    0.00100    0.22100    0.05130   78.41020  143.73680
 7147.50000  -15.59470  106.07020    9.41170    7.38740    7.41340   -9999.25   -9999.25   -9999.25   10.64890    3.17390    2.63090    0.00170    0.21870    0.04960   78.51820  143.73540
 7148.00000  -15.57100  104.35100    9.39040    7.37440    7.38090   -9999.25   -9999.25   -9999.25   10.65080    3.09930    2.63240    0.00250    0.21240    0.04890   78.69940  143.73360
