~Version ---------------------------------------------------
VERS.   2.0 : CWLS log ASCII Standard -VERSION 2.0
WRAP.    NO : One line per depth step
DLM . SPACE : Column Data Section Delimiter
~Well ------------------------------------------------------
STRT .F                  935.0 : START DEPTH
STOP .F                 8154.0 : STOP DEPTH
STEP .F                    0.5 : STEP
NULL .                -9999.25 : NULL VALUE
COMP .                         : COMPANY
WELL .                         : WELL
FLD  .                         : FIELD
LOC  .                         : LOCATION
PROV .                         : PROVINCE
CNTY .                         : COUNTY
STAT .                         : STATE
CTRY .                         : COUNTRY
SRVC .                         : SERVICE COMPANY
DATE .                         : DATE
UWI  .                         : UNIQUE WELL ID
API  .                         : API NUMBER
SLAT .WGS84  6.169118870436797 : SURFACE LATITUDE
SLON .WGS84 3.6801019744815022 : SURFACE LONGITUDE
DATUM.F                1774.67 : DEPTH DATUM ELEV
~Curve Information -----------------------------------------
DEPT.F     : 
SPR .MV    : SPONTANEOUS POTENTIAL FROM RESISTIVITY
GRR .GAPI  : GAMMA RAY FROM RESISTIVITY
SFLU.OHMM  : SFL RESISTIVITY (UNAVERAGED)
ILD .OHMM  : INDUCTION DEEP RESISTIVITY
ILM .OHMM  : INDUCTION MEDIUM RESISTIVITY
CILD.MMHO  : INDUCTION DEEP CONDUCTIVITY
ILD1.OHMM  : INDUCTION LOG DEEP
SFLA.OHMM  : SFL RESISTIVITY (AVERAGED)
CALD.IN    : CALIPER FROM DENSITY LOG
PEF .B/E   : PHOTO ELECTRIC FACTOR
RHOB.G/C3  : BULK DENSITY
DRHO.G/C3  : BULK DENSITY CORRECTION
NPHI.DEC   : NEUTRON POROSITY
DPHI.DEC   : DENSITY POROSITY
DTCO.US/F  : DELTA-T COMPRESSIONAL
DTSM.US/F  : DELTA-T SHEAR
~Params ----------------------------------------------------
~Other -----------------------------------------------------
~ASCII -----------------------------------------------------
# ...
 8008.50000    2.70880   65.22340   24.51110   40.07230   37.83630   -9999.25   -9999.25   -9999.25    8.24970    2.50630    2.31910   -0.00190    0.12490    0.21730   66.25510  110.05310
 8009.00000    2.88720   62.82970   24.32590   40.43900   38.30090   -9999.25   -9999.25   -9999.25    8.25260    2.54710    2.34350    0.00640    0.12100    0.21240   65.90300  108.64760
 8009.50000    3.10050   62.05810   25.36640   41.33150   38.96840   -9999.25   -9999.25   -9999.25    8.25550    2.52120    2.35020   -0.00120    0.11710    0.20840   66.05970  107.24210
 8010.00000    3.01560   62.38670   27.45410   43.47350   39.47010   -9999.25   -9999.25   -9999.25    8.25840    2.50260    2.35750    0.16120    0.11320    0.20690   66.21630  106.30310
 8010.50000    2.58570   63.29630   29.10290   46.87530   39.10390   -9999.25   -9999.25   -9999.25    8.26130    2.48350    2.40040    0.15460    0.10750    0.17390   66.37300  106.20390
 8011.00000    2.44750   64.58130   31.46560   49.16450   38.74120   -9999.25   -9999.25   -9999.25    8.26430    2.46320    2.44820    0.16350    0.10080    0.14750   66.52960  106.10470
 8011.50000    3.27240   65.81980   34.16430   51.70430   38.26270   -9999.25   -9999.25   -9999.25    8.26720    2.44060    2.47190    0.14850    0.09290    0.13930   66.68630  106.00550
 8012.00000    4.80130   66.68980   33.45740   56.75600   64.21610   -9999.25   -9999.25   -9999.25    8.27010    2.45530    2.46030    0.10100    0.09720    0.15030   66.84290  105.94490
 8012.50000    6.03860   67.62570   31.86730   55.49380   94.32810   -9999.25   -9999.25   -9999.25    8.27300    2.53460    2.44980    0.06640    0.10240    0.15150   66.96850  105.55120
 8013.00000    6.41740   69.12170   30.65680   52.90230   91.98740   -9999.25   -9999.25   -9999.25    8.27590    2.62090    2.44700    0.06290    0.10770    0.15270   66.19920  105.07660
 8013.50000    6.28730   70.42050   29.31150   51.69940   75.23620   -9999.25   -9999.25   -9999.25    8.27890    2.62600    2.43430    0.06130    0.11290    0.17030   65.55720  103.90410
 8014.00000    6.20840   69.76070   28.04650   51.89780   64.35310   -9999.25   -9999.25   -9999.25    8.28180    2.58460    2.39620    0.07180    0.12040    0.18810   64.91520  102.73160
 8014.50000    6.27660   66.08560   28.35380   53.98560   54.14640   -9999.25   -9999.25   -9999.25    8.28470    2.54730    2.34910    0.07680    0.11330    0.20590   64.27330  101.55910
 8015.00000    6.30900   60.18440   28.59600   54.67670   54.64340   -9999.25   -9999.25   -9999.25    8.28760    2.52840    2.36260    0.07700    0.10070    0.19340   63.63130  100.43310
 8015.50000    6.26970   54.32220   28.95470   56.72880   55.28370   -9999.25   -9999.25   -9999.25    8.29050    2.52980    2.41260    0.08010    0.08820    0.17170   62.98930  102.88290
 8016.00000    6.25320   50.94040   33.05040   56.97830   56.16200   -9999.25   -9999.25   -9999.25    8.29340    2.52970    2.45950    0.05970    0.08620    0.14870   63.98420  105.23920
 8016.50000    6.27380   51.40390   33.05860   51.37810   68.66640   -9999.25   -9999.25   -9999.25    8.29620    2.52910    2.45120    0.02450    0.08740    0.15770   67.36220  107.91340
 8017.00000    6.28070   55.65320   30.04800   47.66740   61.53540   -9999.25   -9999.25   -9999.25    8.29950    2.53040    2.42400    0.02240    0.10210    0.16710   67.59630  108.48560
 8017.50000    6.27140   62.52350   26.89990   44.22460   54.17940   -9999.25   -9999.25   -9999.25    8.30190    2.52050    2.41020    0.01540    0.11500    0.17540   67.86690  109.14700
 8018.00000    6.27020   69.61310   23.36090   41.03050   48.14650   -9999.25   -9999.25   -9999.25    8.30490    2.50430    2.42550    0.00900    0.12910    0.16320   68.13740  109.88190
 8018.50000    6.27080   73.56540   22.85550   38.06720   42.78530   -9999.25   -9999.25   -9999.25    8.30970    2.48970    2.45680    0.00520    0.12790    0.15220   68.40800  112.24410
 8019.00000    6.26690   72.47860   22.17660   35.31780   38.02110   -9999.25   -9999.25   -9999.25    8.30650    2.47490    2.47170    0.00320    0.12660    0.14010   68.41220  112.84330
 8019.50000    6.27250   68.33440   21.51790   32.76700   33.78740   -9999.25   -9999.25   -9999.25    8.36080    2.46940    2.47200    0.00110    0.12670    0.14010   68.14470  112.58000
 8020.00000    6.27890   65.29940   20.87870   30.40040   29.62540   -9999.25   -9999.25   -9999.25    8.47240    2.47940    2.47240   -0.00060    0.12670    0.14010   67.87320  111.09140
 8020.50000    6.26030   65.34810   20.25860   29.08900   28.56220   -9999.25   -9999.25   -9999.25    8.49050    2.50070    2.47250   -0.00100    0.12420    0.14180   67.60070  109.49300
 8021.00000    6.24470   66.97710   19.65680   28.87710   29.08900   -9999.25   -9999.25   -9999.25    8.43670    2.52160    2.48330   -0.00100    0.12140    0.14550   67.36560  108.77080
 8021.50000    6.31570   68.02510   19.10680   28.72800   28.24430   -9999.25   -9999.25   -9999.25    8.39280    2.53600    2.50480    0.00020    0.11870    0.14920   67.56950  107.99210
 8022.00000    6.51120   67.88760   20.70190   28.56220   39.68710   -9999.25   -9999.25   -9999.25    8.34810    2.59920    2.52650    0.00180    0.11010    0.15340   67.74880  107.21410
 8022.50000    6.76450   66.75870   22.33040   28.71920   39.68710   -9999.25   -9999.25   -9999.25    8.29790    2.70540    2.53930    0.00500    0.09920    0.14790   67.92840  107.10970
 8023.00000    6.98110   64.50380   24.23060   28.89820   39.68710   -9999.25   -9999.25   -9999.25    8.27020    2.78300    2.53750    0.00700    0.10240    0.14280   68.10820  108.54150
 8023.50000    7.15190   61.58480   25.29380   29.07830   39.68710   -9999.25   -9999.25   -9999.25    8.28590    2.77810    2.52830    0.00690    0.10750    0.13860   68.85900  110.03440
 8024.00000    7.35170   60.18040   26.50040   29.25960   34.89530   -9999.25   -9999.25   -9999.25    8.31160    2.69090    2.51980    0.00690    0.11000    0.13690   69.78050  111.52660
 8024.50000    7.60210   62.08550   27.76450   29.44190   29.36070   -9999.25   -9999.25   -9999.25    8.34360    2.59280    2.51480    0.00660    0.11100    0.14430   70.70210  114.62020
 8025.00000    7.80650   65.08860   28.56220   29.62540   24.70400   -9999.25   -9999.25   -9999.25    8.27790    2.60560    2.51630    0.00970    0.11240    0.14790   71.62350  118.14860
 8025.50000    7.93660   64.01880   21.03630   25.46190   20.78580   -9999.25   -9999.25   -9999.25    8.07470    2.60690    2.51320    0.01470    0.11550    0.14790   72.54460  121.67660
 8026.00000    8.15510   56.72690   15.62740   23.36090   17.48910   -9999.25   -9999.25   -9999.25    7.86860    2.60890    2.50040    0.02020    0.11810    0.15050   73.16150  123.81260
 8026.50000    8.50210   46.75810   15.53350   18.42110   14.71520   -9999.25   -9999.25   -9999.25    7.82680    2.57800    2.48080    0.01770    0.13220    0.15480   72.66540  122.75920
 8027.00000    8.63850   39.16050   15.34440   18.42110   12.55020   -9999.25   -9999.25   -9999.25    7.89910    2.53350    2.46110    0.01430    0.14410    0.15910   72.16930  120.69230
 8027.50000    8.33010   36.27490   14.86150   19.12870   12.32290   -9999.25   -9999.25   -9999.25    7.96100    2.46600    2.44060    0.01060    0.16130    0.16370   71.67320  118.62530
 8028.00000    8.00250   38.33520   14.18480   18.80990   12.32290   -9999.25   -9999.25   -9999.25    8.02080    2.39730    2.43700    0.00720    0.15670    0.15770   71.17720  116.55840
 8028.50000    8.23140   45.04030   13.50190   17.59850   13.93720   -9999.25   -9999.25   -9999.25    8.08470    2.33220    2.44540    0.00350    0.14860    0.15160   70.84570  114.60630
 8029.00000    8.81520   54.83980   15.41470   16.20910   15.56010   -9999.25   -9999.25   -9999.25    8.14680    2.25920    2.45520    0.00080    0.13510    0.14810   70.71340  113.90810
 8029.50000    9.01270   64.80810   18.42110   19.02840   17.37190   -9999.25   -9999.25   -9999.25    8.19310    2.25430    2.45850    0.00020    0.11570    0.14690   70.58110  113.24670
