~Version ---------------------------------------------------
VERS.   2.0 : CWLS log ASCII Standard -VERSION 2.0
WRAP.    NO : One line per depth step
DLM . SPACE : Column Data Section Delimiter
~Well ------------------------------------------------------
STRT .F                  935.0 : START DEPTH
STOP .F                 8154.0 : STOP DEPTH
STEP .F                    0.5 : STEP
NULL .                -9999.25 : NULL VALUE
COMP .                         : COMPANY
WELL .                         : WELL
FLD  .                         : FIELD
LOC  .                         : LOCATION
PROV .                         : PROVINCE
CNTY .                         : COUNTY
STAT .                         : STATE
CTRY .                         : COUNTRY
SRVC .                         : SERVICE COMPANY
DATE .                         : DATE
UWI  .                         : UNIQUE WELL ID
API  .                         : API NUMBER
SLAT .WGS84  6.169118870436797 : SURFACE LATITUDE
SLON .WGS84 3.6801019744815022 : SURFACE LONGITUDE
DATUM.F                1774.67 : DEPTH DATUM ELEV
~Curve Information -----------------------------------------
DEPT.F     : 
SPR .MV    : SPONTANEOUS POTENTIAL FROM RESISTIVITY
GRR .GAPI  : GAMMA RAY FROM RESISTIVITY
SFLU.OHMM  : SFL RESISTIVITY (UNAVERAGED)
ILD .OHMM  : INDUCTION DEEP RESISTIVITY
ILM .OHMM  : INDUCTION MEDIUM RESISTIVITY
CILD.MMHO  : INDUCTION DEEP CONDUCTIVITY
ILD1.OHMM  : INDUCTION LOG DEEP
SFLA.OHMM  : SFL RESISTIVITY (AVERAGED)
CALD.IN    : CALIPER FROM DENSITY LOG
PEF .B/E   : PHOTO ELECTRIC FACTOR
RHOB.G/C3  : BULK DENSITY
DRHO.G/C3  : BULK DENSITY CORRECTION
NPHI.DEC   : NEUTRON POROSITY
DPHI.DEC   : DENSITY POROSITY
DTCO.US/F  : DELTA-T COMPRESSIONAL
DTSM.US/F  : DELTA-T SHEAR
~Params ----------------------------------------------------
~Other -----------------------------------------------------
~ASCII -----------------------------------------------------
# ...
 7363.50000  -11.02910   99.62550   14.16350    9.03220    9.19870   -9999.25   -9999.25   -9999.25   10.13130    3.19350    2.46000    0.14770    0.22540    0.15800   77.61920  146.20870
 7364.00000  -10.94440   99.41150   14.52580   10.04940   14.32030   -9999.25   -9999.25   -9999.25   10.25450    3.04490    2.37390    0.13420    0.22420    0.21750   77.20470  142.39140
 7364.50000  -10.85960   97.16150   14.77290   11.24680   17.43840   -9999.25   -9999.25   -9999.25   10.46500    3.00400    2.27740    0.11690    0.22310    0.25220   77.20470  136.60350
 7365.00000  -10.77330   93.88660   15.09160   12.45870  114.96190   -9999.25   -9999.25   -9999.25   10.25470    3.02310    2.32130    0.11380    0.19780    0.25010   77.20470  130.35430
 7365.50000  -10.68620   91.71860   15.41720   13.40290  441.83770   -9999.25   -9999.25   -9999.25    9.98730    3.04450    2.42610    0.12270    0.15660    0.15500   75.85090  125.50390
 7366.00000  -10.60190   90.05090   15.74990   14.55710 1945.92110   -9999.25   -9999.25   -9999.25    9.80780    2.93700    2.53570    0.12780    0.15170    0.05990   73.25690  120.23360
 7366.50000  -10.51960   86.20780   18.31130   17.05940 1945.92110   -9999.25   -9999.25   -9999.25    9.74760    2.76400    2.61580    0.11280    0.14680    0.05600   70.66290  114.96320
 7367.00000  -10.43300   80.37980   24.10940   20.53240  762.08790   -9999.25   -9999.25   -9999.25    9.67260    2.77000    2.61600    0.09060    0.14090    0.05600   68.66140  111.45670
 7367.50000  -10.34350   76.98100   33.66820   24.44640  211.57440   -9999.25   -9999.25   -9999.25    9.58430    2.79630    2.60850    0.06830    0.14090    0.05600   67.83790  111.45670
 7368.00000  -10.26340   78.96200   33.29740   29.46230   59.32700   -9999.25   -9999.25   -9999.25    9.46580    2.82000    2.60160    0.04680    0.14240    0.07450   66.92130  112.61760
 7368.50000  -10.18750   83.43740   32.83160   33.63790   52.08640   -9999.25   -9999.25   -9999.25    9.37970    2.77000    2.55220    0.01990    0.14240    0.09360   66.76270  116.00560
 7369.00000  -10.09530   85.96590   32.37220   32.73490   45.77550   -9999.25   -9999.25   -9999.25    9.38030    2.72820    2.55130    0.02540    0.14320    0.09510   66.59610  119.39370
 7369.50000   -9.99680   86.57640   31.87210   31.33340   39.68710   -9999.25   -9999.25   -9999.25    9.37860    2.67430    2.55800    0.04120    0.14320    0.09030   68.71510  120.98970
 7370.00000   -9.92590   88.07680   30.13510   30.21960   39.68710   -9999.25   -9999.25   -9999.25    9.37920    2.82840    2.58250    0.07040    0.14410    0.07600   69.38150  121.14170
 7370.50000   -9.86420   91.05010   27.53710   29.01290   39.68710   -9999.25   -9999.25   -9999.25    9.37880    3.01330    2.60620    0.09420    0.14490    0.06170   68.99160  121.29380
 7371.00000   -9.74550   94.57480   27.62790   27.88490   39.68710   -9999.25   -9999.25   -9999.25    9.37980    3.19050    2.61670    0.10690    0.14560    0.05600   69.50810  121.44580
 7371.50000   -9.61570   99.50100   27.79050   26.84810   36.88950   -9999.25   -9999.25   -9999.25    9.37820    3.19830    2.59680    0.12310    0.15600    0.06480   70.33230  121.59780
 7372.00000   -9.74230  106.15140   27.95420   25.58150   30.12000   -9999.25   -9999.25   -9999.25    9.37880    3.20080    2.56650    0.14460    0.16290    0.11430   68.72970  123.70190
 7372.50000  -10.40250  110.80390   28.04500   22.10160   24.61210   -9999.25   -9999.25   -9999.25    9.38340    3.17310    2.43590    0.17030    0.19410    0.19190   68.18410  129.06640
 7373.00000  -11.46940  109.81120   20.59000   18.45410   20.11140   -9999.25   -9999.25   -9999.25    9.36630    3.00320    2.31180    0.17230    0.21000    0.20500   68.92520  134.43080
 7373.50000  -12.34710  106.33830   16.58920   15.47400   16.81250   -9999.25   -9999.25   -9999.25    9.51820    2.88970    2.16040    0.16820    0.22330    0.21810   69.66630  139.48940
 7374.00000  -12.51340  106.81830   13.42300   13.75090   12.19550   -9999.25   -9999.25   -9999.25    9.79990    2.77270    2.08140    0.14820    0.24270    0.23520   71.05050  144.33150
 7374.50000  -12.07170  113.88560   11.25560   11.59960    9.13910   -9999.25   -9999.25   -9999.25    9.90870    2.66040    2.00300    0.12890    0.26210    0.25480   73.43870  149.17360
 7375.00000  -11.56450  120.63290   12.03360    9.71710    7.52360   -9999.25   -9999.25   -9999.25    9.91000    2.54880    2.00170    0.10920    0.27760    0.27840   75.82680  154.01570
 7375.50000  -11.30130  120.52800   12.07570    9.65300    7.52360   -9999.25   -9999.25   -9999.25    9.92870    2.43320    2.00220    0.09760    0.27760    0.27860   78.23290  160.99490
 7376.00000  -11.13880  117.80360   11.75940    9.54890    7.66240   -9999.25   -9999.25   -9999.25    9.90780    2.35230    2.00190    0.10270    0.27760    0.27890   80.62810  158.72200
 7376.50000  -10.88920  118.13600   11.84270    9.44600    7.88230   -9999.25   -9999.25   -9999.25    9.82710    2.29600    2.00160    0.10920    0.27780    0.27920   81.36210  156.44920
 7377.00000  -10.60210  119.00750   11.75480    9.34420    8.09670   -9999.25   -9999.25   -9999.25    9.75800    2.28160    2.00130    0.11130    0.27830    0.27950   81.03350  154.17640
 7377.50000  -10.36650  118.15810   12.54600    9.19870    8.24350   -9999.25   -9999.25   -9999.25    9.70750    2.36070    2.00100    0.11160    0.27880    0.27980   80.34310  149.84650
 7378.00000  -10.13160  116.86640   12.74590   10.47320   12.66820   -9999.25   -9999.25   -9999.25    9.88420    2.53960    2.20160    0.10580    0.27920    0.24040   78.36570  138.18580
 7378.50000   -9.85840  110.02380   13.40690   13.24530   17.49620   -9999.25   -9999.25   -9999.25    9.87860    2.70650    2.37150    0.08970    0.19590    0.17430   76.38600  128.00130
 7379.00000   -9.64070   91.07120   18.45060   16.75120   22.52250   -9999.25   -9999.25   -9999.25    9.76000    2.71050    2.47090    0.07490    0.12730    0.10940   74.40370  122.84080
 7379.50000   -9.56120   68.01190   24.16910   21.18510   45.10880   -9999.25   -9999.25   -9999.25    9.65530    2.67370    2.53770    0.06350    0.10490    0.12950   72.01820  117.61410
 7380.00000   -9.56710   55.78480   30.40680   26.79260   79.78790   -9999.25   -9999.25   -9999.25    9.54600    2.64100    2.49830    0.07890    0.08250    0.17980   69.42420  112.42050
 7380.50000   -9.56430   56.48750   38.49930   30.52400   84.90760   -9999.25   -9999.25   -9999.25    9.44700    2.60460    2.39450    0.09160    0.10970    0.21870   66.83020  110.53650
 7381.00000   -9.53410   64.58180   42.69680   31.24920   53.71280   -9999.25   -9999.25   -9999.25    9.37780    2.55230    2.25390    0.10580    0.14340    0.24460   65.32020  111.03700
 7381.50000   -9.50940   78.21140   37.85930   31.87210   33.97880   -9999.25   -9999.25   -9999.25    9.46020    2.26450    2.26010    0.12690    0.17700    0.28130   65.15550  112.20690
 7382.00000   -9.49860   98.53820   30.40800   26.95500   25.59600   -9999.25   -9999.25   -9999.25    9.62610    1.94080    2.07160    0.11810    0.21050    0.29950   65.00000  122.58480
 7382.50000   -9.48530  112.34300   24.42320   23.32810   21.95730   -9999.25   -9999.25   -9999.25    9.87220    1.89040    1.99630    0.08110    0.24410    0.29940   68.33860  138.66560
 7383.00000   -9.46520  115.65400   19.81810   20.18930   19.65020   -9999.25   -9999.25   -9999.25    9.93650    1.85750    2.00050    0.04730    0.27290    0.29930   71.29920  139.42670
 7383.50000   -9.44630  115.78100   17.81580   17.47270   17.58560   -9999.25   -9999.25   -9999.25    9.92580    1.83090    2.00020    0.01720    0.27450    0.29920   71.29850  140.29630
 7384.00000   -9.43100  109.54350   15.62740   15.34440   15.91560   -9999.25   -9999.25   -9999.25    9.83390    1.96590    1.99980    0.01730    0.23790    0.29900   71.29580  140.98430
 7384.50000   -9.41480   96.90000   17.49460   16.43980   16.73440   -9999.25   -9999.25   -9999.25    9.75290    2.17600    1.99950    0.01960    0.20140    0.29890   71.29560  134.62990
