~Version ---------------------------------------------------
VERS.   2.0 : CWLS log ASCII Standard -VERSION 2.0
WRAP.    NO : One line per depth step
DLM . SPACE : Column Data Section Delimiter
~Well ------------------------------------------------------
STRT .F                  935.0 : START DEPTH
STOP .F                 8154.0 : STOP DEPTH
STEP .F                    0.5 : STEP
NULL .                -9999.25 : NULL VALUE
COMP .                         : COMPANY
WELL .                         : WELL
FLD  .                         : FIELD
LOC  .                         : LOCATION
PROV .                         : PROVINCE
CNTY .                         : COUNTY
STAT .                         : STATE
CTRY .                         : COUNTRY
SRVC .                         : SERVICE COMPANY
DATE .                         : DATE
UWI  .                         : UNIQUE WELL ID
API  .                         : API NUMBER
SLAT .WGS84  6.169118870436797 : SURFACE LATITUDE
SLON .WGS84 3.6801019744815022 : SURFACE LONGITUDE
DATUM.F                1774.67 : DEPTH DATUM ELEV
~Curve Information -----------------------------------------
DEPT.F     : 
SPR .MV    : SPONTANEOUS POTENTIAL FROM RESISTIVITY
GRR .GAPI  : GAMMA RAY FROM RESISTIVITY
SFLU.OHMM  : SFL RESISTIVITY (UNAVERAGED)
ILD .OHMM  : INDUCTION DEEP RESISTIVITY
ILM .OHMM  : INDUCTION MEDIUM RESISTIVITY
CILD.MMHO  : INDUCTION DEEP CONDUCTIVITY
ILD1.OHMM  : INDUCTION LOG DEEP
SFLA.OHMM  : SFL RESISTIVITY (AVERAGED)
CALD.IN    : CALIPER FROM DENSITY LOG
PEF .B/E   : PHOTO ELECTRIC FACTOR
RHOB.G/C3  : BULK DENSITY
DRHO.G/C3  : BULK DENSITY CORRECTION
NPHI.DEC   : NEUTRON POROSITY
DPHI.DEC   : DENSITY POROSITY
DTCO.US/F  : DELTA-T COMPRESSIONAL
DTSM.US/F  : DELTA-T SHEAR
~Params ----------------------------------------------------
~Other -----------------------------------------------------
~ASCII -----------------------------------------------------
# ...
 6589.50000  -11.45340  122.78220    9.74840    7.96820    7.52360   -9999.25   -9999.25   -9999.25   10.79470    3.72960    2.68310    0.00010    0.22660    0.01830   79.13630  146.64810
 6590.00000  -11.51270  124.17160    9.77300    7.95150    7.52360   -9999.25   -9999.25   -9999.25   10.78870    3.59860    2.67810   -0.00020    0.22660    0.02090   79.22690  147.17820
 6590.50000  -11.57990  124.21190    9.79670    7.93480    7.52360   -9999.25   -9999.25   -9999.25   10.78270    3.46550    2.67390   -0.00040    0.22650    0.02530   79.31640  146.93390
 6591.00000  -11.65020  123.32210    9.82100    7.91820    7.52360   -9999.25   -9999.25   -9999.25   10.77680    3.50870    2.66950   -0.00050    0.23350    0.02610   79.40590  146.49620
 6591.50000  -11.70950  122.97850    9.84540    7.90170    7.52360   -9999.25   -9999.25   -9999.25   10.77080    3.56740    2.66820   -0.00140    0.23500    0.02690   79.49540  146.05790
 6592.00000  -11.76260  123.39340    9.86990    7.88510    7.52360   -9999.25   -9999.25   -9999.25   10.76490    3.57200    2.66830    0.00350    0.22810    0.02530   80.00000  145.61880
 6592.50000  -11.83590  123.39200    9.89630    7.86860    7.75820   -9999.25   -9999.25   -9999.25   10.75890    3.51410    2.67010    0.01300    0.22420    0.02360   82.16540  145.17900
 6593.00000  -11.92300  122.37680   10.09390    7.85210    7.94760   -9999.25   -9999.25   -9999.25   10.75300    3.47680    2.67250    0.02020    0.22600    0.02200   83.51690  144.73890
 6593.50000  -11.95680  121.41780   10.31260    7.83570    7.66240   -9999.25   -9999.25   -9999.25   10.74690    3.47840    2.67520    0.01730    0.23050    0.02040   81.68080  144.29940
 6594.00000  -11.87820  121.89940   10.53600    7.81930    7.86250   -9999.25   -9999.25   -9999.25   10.74130    3.56760    2.67740    0.01490    0.23020    0.01910   79.84830  144.35100
 6594.50000  -11.70730  123.42840   10.84320    7.80370    8.07120   -9999.25   -9999.25   -9999.25   10.73510    3.60800    2.67980    0.01210    0.23000    0.02120   78.70830  144.73070
 6595.00000  -11.50990  124.06920   10.73840    7.83120    8.28540   -9999.25   -9999.25   -9999.25   10.72850    3.62510    2.67610    0.01070    0.22980    0.02290   78.60450  145.11110
 6595.50000  -11.32710  123.16310   10.58140    7.85770    8.39550   -9999.25   -9999.25   -9999.25   10.72620    3.66110    2.67210    0.01360    0.23080    0.02470   78.50270  145.49180
 6596.00000  -11.16260  122.62100   10.42660    7.88420    8.39550   -9999.25   -9999.25   -9999.25   10.69730    3.74460    2.67030    0.01200    0.23440    0.02610   78.40020  145.87230
 6596.50000  -10.99710  124.07740   10.27410    7.91080    8.39550   -9999.25   -9999.25   -9999.25   10.64790    3.82430    2.67400    0.02610    0.23800    0.02280   78.81530  146.43820
 6597.00000  -10.80280  126.03260   10.12380    7.94760    8.22350   -9999.25   -9999.25   -9999.25   10.60210    3.83920    2.67790    0.02510    0.24250    0.02000   79.35220  147.28200
 6597.50000  -10.59110  125.80610    9.97580    7.64370    8.07940   -9999.25   -9999.25   -9999.25   10.55660    3.86290    2.68180    0.02280    0.24700    0.01950   79.88910  148.12670
 6598.00000  -10.44300  123.33040    9.89630    7.66240    7.94760   -9999.25   -9999.25   -9999.25   10.51070    3.83030    2.68180    0.02020    0.25250    0.02260   80.42590  148.97160
 6598.50000  -10.43010  120.92080    9.48030    7.59050    7.90230   -9999.25   -9999.25   -9999.25   10.46360    3.75220    2.67390    0.01010    0.25090    0.02570   80.68240  149.81420
 6599.00000  -10.51840  120.11470    9.20500    7.48630    7.87840   -9999.25   -9999.25   -9999.25   10.44520    3.71950    2.66280   -0.00060    0.24070    0.02880   80.51840  150.65450
 6599.50000  -10.61500  120.75760    9.03220    7.38360    7.82810   -9999.25   -9999.25   -9999.25   10.44670    3.68930    2.66000   -0.00040    0.24070    0.03200   80.35430  150.92980
 6600.00000  -10.68680  122.44710    8.99780    7.28220    7.80630   -9999.25   -9999.25   -9999.25   10.44660    3.65510    2.65830   -0.00010    0.24930    0.03320   81.34320  151.06520
 6600.50000  -10.75990  124.89530    8.97260    7.18230    7.75420   -9999.25   -9999.25   -9999.25   10.44640    3.65180    2.66120    0.00040    0.25800    0.03080   82.34830  151.22050
 6601.00000  -10.84080  127.24060    8.94740    7.08370    7.73470   -9999.25   -9999.25   -9999.25   10.44660    3.64960    2.66250    0.00080    0.26480    0.02930   82.56170  153.97640
 6601.50000  -10.91560  128.50550    8.92230    6.99330    7.68080   -9999.25   -9999.25   -9999.25   10.44660    3.65740    2.66220    0.00120    0.26300    0.02930   81.76770  151.94880
 6602.00000  -10.99620  128.66130    8.89730    6.99330    7.67030   -9999.25   -9999.25   -9999.25   10.44660    3.58800    2.66430    0.00170    0.25940    0.02930   81.15960  150.55310
 6602.50000  -11.09340  128.46730    8.87240    7.05850    7.65530   -9999.25   -9999.25   -9999.25   10.44660    3.46320    2.66810    0.00210    0.25560    0.02610   81.78630  152.78540
 6603.00000  -11.16680  128.49440    8.84750    7.10940    7.66620   -9999.25   -9999.25   -9999.25   10.44690    3.34210    2.66770    0.00260    0.25620    0.02690   82.53640  155.01770
 6603.50000  -11.16440  128.65390    8.82270    7.16080    7.94710   -9999.25   -9999.25   -9999.25   10.44360    3.32080    2.66710    0.00300    0.25390    0.02770   83.28160  157.12600
 6604.00000  -11.09520  128.46070    8.79790    7.21250    7.94420   -9999.25   -9999.25   -9999.25   10.43550    3.31650    2.66650    0.00340    0.25070    0.02850   82.09140  153.46060
 6604.50000  -11.01380  127.49260    8.77320    8.55030    8.18510   -9999.25   -9999.25   -9999.25   10.42830    3.51720    2.66710    0.00380    0.24960    0.02720   79.88350  149.98820
 6605.00000  -10.94990  125.75020    8.74860    8.27360    8.53440   -9999.25   -9999.25   -9999.25   10.42030    3.57200    2.66810    0.00430    0.25240    0.02610   79.61940  146.10240
 6605.50000  -10.89030  123.72700    8.72410    7.94840    8.08530   -9999.25   -9999.25   -9999.25   10.41220    3.62670    2.66810    0.00450    0.25240    0.02510   80.28080  146.22720
 6606.00000  -10.81960  122.10240    8.69960    7.66240    7.61780   -9999.25   -9999.25   -9999.25   10.41870    3.53440    2.66770    0.00680    0.24760    0.02510   80.16540  146.36900
 6606.50000  -10.74580  121.24610    8.67520    7.32410    7.19840   -9999.25   -9999.25   -9999.25   10.46350    3.43630    2.66720    0.01160    0.23810    0.02630   78.18110  146.49610
 6607.00000  -10.68150  120.78610    8.65090    7.02570    6.80210   -9999.25   -9999.25   -9999.25   10.50980    3.37260    2.66610    0.01490    0.23480    0.02760   77.05960  148.52870
 6607.50000  -10.62070  119.98420    8.62660    6.62020    6.42760   -9999.25   -9999.25   -9999.25   10.55180    3.30860    2.66780    0.03810    0.23480    0.02870   77.86280  150.37120
 6608.00000  -10.54710  119.19160    8.60240    6.62020    6.07370   -9999.25   -9999.25   -9999.25   10.59920    3.23730    2.65070    0.07160    0.23830    0.02610   78.66590  152.17910
 6608.50000  -10.46620  120.15210    8.57830    6.62020    5.61620   -9999.25   -9999.25   -9999.25   10.53410    3.20840    2.61260    0.10390    0.24540    0.04750   79.46910  153.91530
 6609.00000  -10.41360  123.33480    8.55030    6.62020    6.02420   -9999.25   -9999.25   -9999.25   10.45390    3.29930    2.59970    0.13550    0.25590    0.06110   80.27220  155.65160
 6609.50000  -10.41660  125.84080    8.65120    6.62020    6.74900   -9999.25   -9999.25   -9999.25   10.37020    3.31080    2.63370    0.18070    0.26580    0.06040   81.07540  157.12600
 6610.00000  -10.45950  124.51300    8.77350    6.62020    7.66240   -9999.25   -9999.25   -9999.25   10.28920    3.33340    2.73830    0.17170    0.26080    0.05990   81.87850  154.08140
 6610.50000  -10.50540  120.68120    8.89750    6.62020    7.50580   -9999.25   -9999.25   -9999.25   10.20810    3.27620    2.72930    0.13820    0.24950    0.01480   82.68170  151.43570
