~Version ---------------------------------------------------
VERS.   2.0 : CWLS log ASCII Standard -VERSION 2.0
WRAP.    NO : One line per depth step
DLM . SPACE : Column Data Section Delimiter
~Well ------------------------------------------------------
STRT .F                  935.0 : START DEPTH
STOP .F                 8154.0 : STOP DEPTH
STEP .F                    0.5 : STEP
NULL .                -9999.25 : NULL VALUE
COMP .                         : COMPANY
WELL .                         : WELL
FLD  .                         : FIELD
LOC  .                         : LOCATION
PROV .                         : PROVINCE
CNTY .                         : COUNTY
STAT .                         : STATE
CTRY .                         : COUNTRY
SRVC .                         : SERVICE COMPANY
DATE .                         : DATE
UWI  .                         : UNIQUE WELL ID
API  .                         : API NUMBER
SLAT .WGS84  6.169118870436797 : SURFACE LATITUDE
SLON .WGS84 3.6801019744815022 : SURFACE LONGITUDE
DATUM.F                1774.67 : DEPTH DATUM ELEV
~Curve Information -----------------------------------------
DEPT.F     : 
SPR .MV    : SPONTANEOUS POTENTIAL FROM RESISTIVITY
GRR .GAPI  : GAMMA RAY FROM RESISTIVITY
SFLU.OHMM  : SFL RESISTIVITY (UNAVERAGED)
ILD .OHMM  : INDUCTION DEEP RESISTIVITY
ILM .OHMM  : INDUCTION MEDIUM RESISTIVITY
CILD.MMHO  : INDUCTION DEEP CONDUCTIVITY
ILD1.OHMM  : INDUCTION LOG DEEP
SFLA.OHMM  : SFL RESISTIVITY (AVERAGED)
CALD.IN    : CALIPER FROM DENSITY LOG
PEF .B/E   : PHOTO ELECTRIC FACTOR
RHOB.G/C3  : BULK DENSITY
DRHO.G/C3  : BULK DENSITY CORRECTION
NPHI.DEC   : NEUTRON POROSITY
DPHI.DEC   : DENSITY POROSITY
DTCO.US/F  : DELTA-T COMPRESSIONAL
DTSM.US/F  : DELTA-T SHEAR
~Params ----------------------------------------------------
~Other -----------------------------------------------------
~ASCII -----------------------------------------------------
# ...
 6482.00000   -9.24060  124.01460   -9999.25   -9999.25   -9999.25  100.66270    9.19870   12.29730   -9999.25   -9999.25   -9999.25   -9999.25   -9999.25   -9999.25   -9999.25   -9999.25
 6482.50000   -9.23150  126.94380   -9999.25   -9999.25   -9999.25  104.37380    9.31720   12.51760   -9999.25   -9999.25   -9999.25   -9999.25   -9999.25   -9999.25   -9999.25   -9999.25
 6483.00000   -9.29960  134.27880   -9999.25   -9999.25   -9999.25  100.49700    9.53910   12.76480   -9999.25   -9999.25   -9999.25   -9999.25   -9999.25   -9999.25   -9999.25   -9999.25
 6483.50000   -9.42080  147.43600   -9999.25   -9999.25   -9999.25   92.44530    9.71280   12.91140   -9999.25   -9999.25   -9999.25   -9999.25   -9999.25   -9999.25   -9999.25   -9999.25
 6484.00000   -9.54560  158.08740   -9999.25   -9999.25   -9999.25   93.83700    9.88760   12.95900   -9999.25   -9999.25   -9999.25   -9999.25   -9999.25   -9999.25   -9999.25   -9999.25
 6484.50000   -9.65620  162.57720   -9999.25   -9999.25   -9999.25   96.42150   10.10850   13.20280   -9999.25   -9999.25   -9999.25   -9999.25   -9999.25   -9999.25   -9999.25   -9999.25
 6485.00000   -9.76670  166.76720   -9999.25   -9999.25   -9999.25   98.65810   10.23100   13.19740   -9999.25   -9999.25   -9999.25   -9999.25   -9999.25   -9999.25   -9999.25   -9999.25
 6485.50000   -9.88430  179.35380   -9999.25   -9999.25   -9999.25  101.71470   10.37130   13.29700   -9999.25   -9999.25   -9999.25   -9999.25   -9999.25   -9999.25   -9999.25   -9999.25
 6486.00000  -10.00190  190.10680   -9999.25   -9999.25   -9999.25  104.77140   10.36750   13.41840   -9999.25   -9999.25   -9999.25   -9999.25   -9999.25   -9999.25   -9999.25   -9999.25
 6486.50000  -10.11570  182.16240   -9999.25   -9999.25   -9999.25  107.75070   10.36300   13.48500   -9999.25   -9999.25   -9999.25   -9999.25   -9999.25   -9999.25   -9999.25   -9999.25
 6487.00000  -10.22930  165.96660   -9999.25   -9999.25   -9999.25  110.87610   10.23610   13.35850   -9999.25   -9999.25   -9999.25   -9999.25   -9999.25   -9999.25   -9999.25   -9999.25
 6487.50000  -10.34490  151.48280   -9999.25   -9999.25   -9999.25  114.21990   10.01510   12.84400   -9999.25   -9999.25   -9999.25   -9999.25   -9999.25   -9999.25   -9999.25   -9999.25
 6488.00000  -10.46140  132.69270   -9999.25   -9999.25   -9999.25  115.87170    9.85550   12.11950   -9999.25   -9999.25   -9999.25   -9999.25    0.22890    0.03160   -9999.25   -9999.25
 6488.50000  -10.57710  116.60770   -9999.25   -9999.25   -9999.25  117.39980    9.44090   11.57640   -9999.25   -9999.25   -9999.25   -9999.25    0.23120    0.03320   -9999.25   -9999.25
 6489.00000  -10.69030  110.71930   -9999.25   -9999.25   -9999.25  119.31230    9.20180   11.10950   -9999.25   -9999.25   -9999.25   -9999.25    0.23260    0.03530   -9999.25   -9999.25
 6489.50000  -10.80390  109.60280   -9999.25   -9999.25   -9999.25  120.80480    8.75540   10.84610   -9999.25   -9999.25   -9999.25   -9999.25    0.23400    0.03500   -9999.25   -9999.25
 6490.00000  -10.92260  109.87780   -9999.25   -9999.25   -9999.25  122.68220    8.31310   10.85580   -9999.25   -9999.25   -9999.25   -9999.25    0.23380    0.03210   -9999.25   -9999.25
 6490.50000  -11.04040  110.45850   -9999.25   -9999.25   -9999.25  124.20160    7.92750   11.20740   -9999.25   -9999.25   -9999.25   -9999.25    0.22800    0.02920   -9999.25   -9999.25
 6491.00000  -11.14860  110.74860   -9999.25   -9999.25   -9999.25  122.90160    7.61140   11.34190   -9999.25   -9999.25   -9999.25   -9999.25    0.22220    0.02640   -9999.25   -9999.25
 6491.50000  -11.25920  110.29710   -9999.25   -9999.25   -9999.25  121.51900    7.60690   11.33780   -9999.25   -9999.25   -9999.25   -9999.25    0.21950    0.02500   -9999.25   -9999.25
 6492.00000  -11.38850  108.30190   -9999.25   -9999.25   -9999.25  120.11610    7.75220   11.33330   10.20950    3.69090    2.68010    0.01080    0.21790    0.02200   -9999.25   -9999.25
 6492.50000  -11.50710  105.72410   -9999.25   -9999.25   -9999.25  118.85290    7.85130   11.32880   10.20950    3.69090    2.68010    0.01080    0.22780    0.01970   -9999.25   -9999.25
 6493.00000  -11.54950  103.24780   -9999.25   -9999.25   -9999.25  117.33800    8.05310   11.28480   10.24900    3.71060    2.67840    0.01080    0.23720    0.01910   -9999.25   -9999.25
 6493.50000  -11.49400  102.12750   -9999.25   -9999.25   -9999.25  116.40010    8.19130   11.15440   10.26920    3.70320    2.67620    0.01080    0.24130    0.02220   -9999.25   -9999.25
 6494.00000  -11.39330  103.57670   -9999.25   -9999.25   -9999.25  119.93220    8.18670   11.01470   10.29170    3.69500    2.66540    0.01080    0.24220    0.02850   -9999.25   -9999.25
 6494.50000  -11.30460  106.52680   -9999.25   -9999.25   -9999.25  123.37000    8.18220   11.01050   10.31410    3.71060    2.65650    0.01210    0.24300    0.03190   -9999.25   -9999.25
 6495.00000  -11.23160  109.16530   -9999.25   -9999.25   -9999.25  126.34440    8.17720   10.91340   10.33660    3.60240    2.66140    0.01450    0.25220    0.03240   -9999.25   -9999.25
 6495.50000  -11.15450  111.28540   -9999.25   -9999.25   -9999.25  129.76490    7.94920   10.78310   10.36300    3.55610    2.66920    0.01580    0.25870    0.02760   -9999.25   -9999.25
 6496.00000  -11.07130  113.32060   -9999.25   -9999.25   -9999.25  132.78060    7.69070   10.69670   10.37010    3.45500    2.67220    0.01380    0.25320    0.02220   78.38580  145.31500
 6496.50000  -10.98830  115.12630   -9999.25   -9999.25   -9999.25  136.14830    7.43220   10.67240   10.39280    3.37310    2.67690    0.00010    0.24830    0.02140   78.38580  145.31500
 6497.00000  -10.90530  116.45740   -9999.25   -9999.25   -9999.25  138.12780    7.25600   10.53740   10.41530    3.43070    2.67780    0.00480    0.24580    0.02140   78.38580  145.31500
 6497.50000  -10.83200  117.19650   -9999.25   -9999.25   -9999.25  138.22950    7.25150   10.41170   10.43700    3.58430    2.67560    0.00600    0.24410    0.02460   78.38580  145.70870
 6498.00000  -10.78970  113.82350    8.86860    6.86660    6.86660  138.14910    7.24700   10.28120   10.46070    3.73360    2.66860    0.00850    0.24240    0.02940   78.38580  145.70870
 6498.50000  -11.93320  109.70590    8.55030    6.86660    6.68960   -9999.25   -9999.25   -9999.25   10.48610    3.81480    2.66180    0.00670    0.24130    0.03430   78.50070  145.70870
 6499.00000  -11.89250  109.70590    8.09420    6.86660    6.60270   -9999.25   -9999.25   -9999.25   10.51140    3.79180    2.65500    0.00380    0.24090    0.03910   78.79590  145.70870
 6499.50000  -11.85180  114.09670    8.26370    6.72630    6.50030   -9999.25   -9999.25   -9999.25   10.53480    3.56180    2.64810    0.00110    0.24060    0.04200   79.07880  145.93860
 6500.00000  -11.81110  116.76470    8.43670    6.58880    6.50030   -9999.25   -9999.25   -9999.25   10.56310    3.48670    2.64270    0.00100    0.24020    0.04250   79.12120  145.96400
 6500.50000  -11.77040  114.99500    8.61340    6.45410    6.67230   -9999.25   -9999.25   -9999.25   10.56840    3.44480    2.64130    0.00080    0.23990    0.04300   78.87570  146.34710
 6501.00000  -11.72970  112.19830    8.79370    6.38260    6.84480   -9999.25   -9999.25   -9999.25   10.57340    3.42770    2.64000    0.00060    0.23960    0.04340   78.62990  145.31500
 6501.50000  -11.68900  109.11760    8.97790    6.69540    7.02170   -9999.25   -9999.25   -9999.25   10.57700    3.31370    2.63880    0.00040    0.23930    0.04390   78.38900  145.41630
 6502.00000  -11.64830  110.47060    9.16580    6.91830    7.25360   -9999.25   -9999.25   -9999.25   10.58160    3.22600    2.63750    0.00010    0.25340    0.04430   78.69210  145.54030
 6502.50000  -11.60760  111.97650    9.36840    7.25360    7.25360   -9999.25   -9999.25   -9999.25   10.58580    3.13180    2.63710   -0.00010    0.26750    0.04480   78.98740  145.66440
 6503.00000  -11.56690  113.48240    9.36840    7.27450    7.25360   -9999.25   -9999.25   -9999.25   10.59010    3.26290    2.63860   -0.00030    0.27310    0.04480   79.28300  146.50590
