~Version ---------------------------------------------------
VERS.   2.0 : CWLS log ASCII Standard -VERSION 2.0
WRAP.    NO : One line per depth step
DLM . SPACE : Column Data Section Delimiter
~Well ------------------------------------------------------
STRT .F                  935.0 : START DEPTH
STOP .F                 8154.0 : STOP DEPTH
STEP .F                    0.5 : STEP
NULL .                -9999.25 : NULL VALUE
COMP .                         : COMPANY
WELL .                         : WELL
FLD  .                         : FIELD
LOC  .                         : LOCATION
PROV .                         : PROVINCE
CNTY .                         : COUNTY
STAT .                         : STATE
CTRY .                         : COUNTRY
SRVC .                         : SERVICE COMPANY
DATE .                         : DATE
UWI  .                         : UNIQUE WELL ID
API  .                         : API NUMBER
SLAT .WGS84  6.169118870436797 : SURFACE LATITUDE
SLON .WGS84 3.6801019744815022 : SURFACE LONGITUDE
DATUM.F                1774.67 : DEPTH DATUM ELEV
~Curve Information -----------------------------------------
DEPT.F     : 
SPR .MV    : SPONTANEOUS POTENTIAL FROM RESISTIVITY
GRR .GAPI  : GAMMA RAY FROM RESISTIVITY
SFLU.OHMM  : SFL RESISTIVITY (UNAVERAGED)
ILD .OHMM  : INDUCTION DEEP RESISTIVITY
ILM .OHMM  : INDUCTION MEDIUM RESISTIVITY
CILD.MMHO  : INDUCTION DEEP CONDUCTIVITY
ILD1.OHMM  : INDUCTION LOG DEEP
SFLA.OHMM  : SFL RESISTIVITY (AVERAGED)
CALD.IN    : CALIPER FROM DENSITY LOG
PEF .B/E   : PHOTO ELECTRIC FACTOR
RHOB.G/C3  : BULK DENSITY
DRHO.G/C3  : BULK DENSITY CORRECTION
NPHI.DEC   : NEUTRON POROSITY
DPHI.DEC   : DENSITY POROSITY
DTCO.US/F  : DELTA-T COMPRESSIONAL
DTSM.US/F  : DELTA-T SHEAR
~Params ----------------------------------------------------
~Other -----------------------------------------------------
~ASCII -----------------------------------------------------
# ...
 6804.50000   -7.37210   96.53160   15.00760    8.55030    7.94760   -9999.25   -9999.25   -9999.25    9.29100    3.28380    2.62590   -0.00690    0.20520    0.04970   74.87800  153.15450
 6805.00000   -7.24220   98.50410   14.56490    9.04870    8.78150   -9999.25   -9999.25   -9999.25    9.27450    3.35790    2.62640   -0.00320    0.20700    0.04830   75.37400  157.49510
 6805.50000   -7.11540   98.28710   13.74670    9.48210   10.07880   -9999.25   -9999.25   -9999.25    9.25630    3.41100    2.62870    0.00050    0.21160    0.04890   75.24570  161.45670
 6806.00000   -6.99590   97.65290   12.56670    9.93620   10.07880   -9999.25   -9999.25   -9999.25    9.19740    3.34700    2.62140    0.00410    0.21870    0.05390   74.45200  164.04570
 6806.50000   -6.87570   99.58160   11.85220    8.24350    9.04210   -9999.25   -9999.25   -9999.25    9.13930    3.29710    2.61770    0.00780    0.23330    0.05890   75.04720  166.18110
 6807.00000   -6.74900  104.73630   12.30000    8.02610    8.24350   -9999.25   -9999.25   -9999.25    9.07470    3.01790    2.59440    0.00780    0.23770    0.07070   77.20470  165.81630
 6807.50000   -6.62020  112.69170   13.16990    7.87060    8.63410   -9999.25   -9999.25   -9999.25    9.03360    2.63480    2.53760    0.00700    0.24110    0.08940   77.56690  165.48560
 6808.00000   -6.50650  116.47670   13.75090    7.50440    9.18980   -9999.25   -9999.25   -9999.25    9.08200    2.26600    2.55290    0.00440    0.24400    0.14610   77.99210  165.15490
 6808.50000   -6.42760  123.47210   12.31390    7.41420    9.54120   -9999.25   -9999.25   -9999.25    9.66250    1.92790    2.15860   -0.00340    0.26380    0.24480   82.22990  167.63780
 6809.00000   -6.38470  130.19090   11.21400    7.08980    9.54120   -9999.25   -9999.25   -9999.25   10.34980    1.69990    2.20220   -0.01170    0.29960    0.29920   87.04720  172.59840
 6809.50000   -6.35800  137.14290    9.89630    6.91250    9.54120   -9999.25   -9999.25   -9999.25   11.06170    1.76600    2.21520   -0.01280    0.29720    0.29100   90.79530  177.55910
 6810.00000   -6.33010  143.93900   10.32820    7.15890    9.54120   -9999.25   -9999.25   -9999.25   11.30340    2.53350    2.25310   -0.00760    0.35470    0.25050   94.92130  182.71650
 6810.50000   -6.29930  152.37000   11.01440    7.78420   12.29030   -9999.25   -9999.25   -9999.25   11.45100    3.21100    2.28690   -0.00310    0.36030    0.21910   96.48030  182.24020
 6811.00000   -6.27010  158.02680   12.09970    8.27260   14.99380   -9999.25   -9999.25   -9999.25   10.92210    3.40450    2.33080    0.00140    0.36590    0.21790   98.10380  181.92910
 6811.50000   -6.24230  164.24600   13.98790    8.99130   17.76000   -9999.25   -9999.25   -9999.25   10.10320    3.38510    2.32210    0.00620    0.37080    0.21940   99.72730  181.92910
 6812.00000   -6.21340  204.44410   18.30530    9.84600   16.71830   -9999.25   -9999.25   -9999.25    9.29540    3.37240    2.30340    0.01100    0.37530    0.23610  102.00790  179.50390
 6812.50000   -6.18390  255.30090   23.95540    9.95350   15.86120   -9999.25   -9999.25   -9999.25    8.91770    3.37240    2.28500    0.01620    0.37900    0.25360  101.09520  173.26770
 6813.00000   -6.15500  287.20160   28.04500    9.84910   15.06660   -9999.25   -9999.25   -9999.25    9.00600    3.36190    2.27200    0.02150    0.37870    0.25950   99.56190  167.03150
 6813.50000   -6.12630  279.60130   31.29500    9.94310   12.27150   -9999.25   -9999.25   -9999.25    9.08830    3.33030    2.27630    0.02690    0.37840    0.25180   98.02860  163.78810
 6814.00000   -6.09740  230.89700   28.56220    9.86230   10.04210   -9999.25   -9999.25   -9999.25    9.16780    3.19250    2.28730    0.03200    0.34160    0.24400   96.49540  162.46090
 6814.50000   -6.06840  188.31600   17.94170    8.90920    8.70800   -9999.25   -9999.25   -9999.25    9.25490    3.06740    2.29670    0.03750    0.30040    0.23750   95.41280  161.44710
 6815.00000   -6.03930  154.18290   11.61990    8.23090    9.61120   -9999.25   -9999.25   -9999.25    9.34110    2.95000    2.30420    0.04120    0.28780    0.24710   95.83800  161.45610
 6815.50000   -6.01010  133.10740    8.70800    7.65840   10.37580   -9999.25   -9999.25   -9999.25    9.38230    2.75000    2.28980    0.03530    0.29170    0.25400   96.26320  161.46300
 6816.00000   -5.98120  113.28140    9.36670    6.99330   11.20130   -9999.25   -9999.25   -9999.25    9.37890    3.26300    2.30360    0.02650    0.28690    0.25170   93.46650  161.46920
 6816.50000   -5.95240   99.30080    9.89630    6.96360   12.09970   -9999.25   -9999.25   -9999.25    9.37950    3.61340    2.48440    0.01740    0.27290    0.13690   85.86610  162.74980
 6817.00000   -5.92290  105.39520    9.23070    6.92540    9.53810   -9999.25   -9999.25   -9999.25    9.37990    3.45980    2.53340    0.01690    0.25800    0.06780   84.68500  163.95560
 6817.50000   -5.89300  109.25240    8.39550    6.88730    7.50470   -9999.25   -9999.25   -9999.25    9.37940    3.33080    2.60240    0.01660    0.25220    0.06610   85.74800  165.15200
 6818.00000   -5.86470  113.09210    8.49800    6.84950    5.71980   -9999.25   -9999.25   -9999.25    9.37960    3.22250    2.60680    0.01740    0.26180    0.06450   86.65350  164.60190
 6818.50000   -5.83690  118.78080    8.65850    6.81190    6.06500   -9999.25   -9999.25   -9999.25    9.37950    3.26230    2.60130    0.01800    0.29110    0.06310   85.30510  161.13790
 6819.00000   -5.80620  118.38980    8.82210    6.77460    6.48900   -9999.25   -9999.25   -9999.25    9.37950    3.35290    2.57350    0.01870    0.30620    0.08130   84.80910  163.67980
 6819.50000   -5.77470  119.48070    9.03220    6.74230    6.94260   -9999.25   -9999.25   -9999.25    9.37950    3.35930    2.54050    0.01860    0.31960    0.12660   85.07870  169.06750
 6820.00000   -5.74870  125.05950   10.02370    7.02920    7.25360   -9999.25   -9999.25   -9999.25    9.37950    3.21720    2.42030    0.01990    0.32040    0.17190   88.09710  174.46630
 6820.50000   -5.72350  125.89020   11.53410    7.52360    5.87520   -9999.25   -9999.25   -9999.25    9.37960    3.16720    2.33280    0.02270    0.32030    0.21390   91.40420  180.26260
 6821.00000   -5.68740  125.03210   14.00450    7.48400    5.03300   -9999.25   -9999.25   -9999.25    9.37930    3.28920    2.34280    0.02430    0.32030    0.22490   93.12860  180.27690
 6821.50000   -5.65090  121.15490   12.84250    7.43420    4.94180   -9999.25   -9999.25   -9999.25    9.37930    3.42560    2.34020    0.02720    0.31520    0.20530   93.45930  174.49610
 6822.00000   -5.65090  115.85820   11.16080    7.38740    4.76450   -9999.25   -9999.25   -9999.25    9.36600    3.56880    2.44210    0.02920    0.30280    0.16190   93.79000  166.55910
 6822.50000   -5.70810  111.79830    9.69940    8.08680   10.87100   -9999.25   -9999.25   -9999.25    9.34810    3.70080    2.57060    0.03970    0.28480    0.11850   94.13390  159.09450
 6823.00000   -5.79870  106.14650    8.55030    9.03220   14.79590   -9999.25   -9999.25   -9999.25    9.33030    3.71230    2.55540    0.03190    0.26570    0.08650   92.33420  159.80910
 6823.50000   -5.88640  104.66590   11.06340    9.19870   15.62740   -9999.25   -9999.25   -9999.25    9.31270    3.48490    2.56260    0.02040    0.24990    0.09160   90.46020  160.55310
 6824.00000   -5.96330  110.46970   13.97890    9.54120   13.43300   -9999.25   -9999.25   -9999.25    9.29490    3.29210    2.52110    0.00780    0.25490    0.10300   88.58620  161.29720
 6824.50000   -6.04190  117.30800   16.20910    8.70100    9.03220   -9999.25   -9999.25   -9999.25    9.27720    3.09160    2.50410    0.00300    0.24000    0.11440   87.51810  160.85040
 6825.00000   -6.12590  118.93310   15.91560    7.52360    9.06760   -9999.25   -9999.25   -9999.25    9.25940    3.08380    2.50480    0.00560    0.25680    0.12200   87.71650  160.07870
 6825.50000   -6.20870  117.87070   14.31140    7.64260    9.12840   -9999.25   -9999.25   -9999.25    9.24180    3.15270    2.51750    0.01060    0.27040    0.11850   87.83460  159.30710
