~Version ---------------------------------------------------
VERS.   2.0 : CWLS log ASCII Standard -VERSION 2.0
WRAP.    NO : One line per depth step
DLM . SPACE : Column Data Section Delimiter
~Well ------------------------------------------------------
STRT .F                  935.0 : START DEPTH
STOP .F                 8154.0 : STOP DEPTH
STEP .F                    0.5 : STEP
NULL .                -9999.25 : NULL VALUE
COMP .                         : COMPANY
WELL .                         : WELL
FLD  .                         : FIELD
LOC  .                         : LOCATION
PROV .                         : PROVINCE
CNTY .                         : COUNTY
STAT .                         : STATE
CTRY .                         : COUNTRY
SRVC .                         : SERVICE COMPANY
DATE .                         : DATE
UWI  .                         : UNIQUE WELL ID
API  .                         : API NUMBER
SLAT .WGS84  6.169118870436797 : SURFACE LATITUDE
SLON .WGS84 3.6801019744815022 : SURFACE LONGITUDE
DATUM.F                1774.67 : DEPTH DATUM ELEV
~Curve Information -----------------------------------------
DEPT.F     : 
SPR .MV    : SPONTANEOUS POTENTIAL FROM RESISTIVITY
GRR .GAPI  : GAMMA RAY FROM RESISTIVITY
SFLU.OHMM  : SFL RESISTIVITY (UNAVERAGED)
ILD .OHMM  : INDUCTION DEEP RESISTIVITY
ILM .OHMM  : INDUCTION MEDIUM RESISTIVITY
CILD.MMHO  : INDUCTION DEEP CONDUCTIVITY
ILD1.OHMM  : INDUCTION LOG DEEP
SFLA.OHMM  : SFL RESISTIVITY (AVERAGED)
CALD.IN    : CALIPER FROM DENSITY LOG
PEF .B/E   : PHOTO ELECTRIC FACTOR
RHOB.G/C3  : BULK DENSITY
DRHO.G/C3  : BULK DENSITY CORRECTION
NPHI.DEC   : NEUTRON POROSITY
DPHI.DEC   : DENSITY POROSITY
DTCO.US/F  : DELTA-T COMPRESSIONAL
DTSM.US/F  : DELTA-T SHEAR
~Params ----------------------------------------------------
~Other -----------------------------------------------------
~ASCII -----------------------------------------------------
# ...
 7578.50000   -7.22100   90.71140   13.01730   10.09520    9.12640   -9999.25   -9999.25   -9999.25   10.63500    3.30200    2.63250    0.00160    0.17820    0.04270   74.44860  134.68500
 7579.00000   -7.22130   94.95220   12.33040   10.07880    9.11480   -9999.25   -9999.25   -9999.25   10.63360    3.24040    2.62550    0.00130    0.18170    0.04580   74.44870  134.50870
 7579.50000   -7.22170  100.12040   11.88060   10.01040    9.10320   -9999.25   -9999.25   -9999.25   10.63220    3.17640    2.62530    0.00110    0.18250    0.04880   74.44840  134.30940
 7580.00000   -7.22090  101.78560   12.32290    9.92850    9.09170   -9999.25   -9999.25   -9999.25   10.63070    3.11220    2.62860    0.00100    0.18350    0.05130   74.44780  134.11020
 7580.50000   -7.21940  100.18510   12.28360    9.84720    9.08020   -9999.25   -9999.25   -9999.25   10.62930    3.25780    2.63150    0.00100    0.18450    0.04890   74.44700  133.89760
 7581.00000   -7.22000   98.76960   12.23930    9.76660    9.06860   -9999.25   -9999.25   -9999.25   10.62780    3.42360    2.63450    0.00100    0.18570    0.04700   74.44620  134.31060
 7581.50000   -7.22230   98.95050   12.19520    9.68670    9.05710   -9999.25   -9999.25   -9999.25   10.62640    3.51330    2.63210    0.00100    0.18450    0.04630   74.44570  134.75330
 7582.00000   -7.22040   99.38570   12.15120    9.60740    9.04560   -9999.25   -9999.25   -9999.25   10.62490    3.48590    2.62940    0.00100    0.17780    0.04760   74.57600  135.19600
 7582.50000   -7.21570   99.16970   12.09970    9.52880    9.02690   -9999.25   -9999.25   -9999.25   10.62350    3.35970    2.62700    0.00100    0.17200    0.04890   74.80890  135.63870
 7583.00000   -7.21910   98.92890   12.03740    9.45080    8.87550   -9999.25   -9999.25   -9999.25   10.62210    3.36000    2.62760    0.00100    0.17170    0.04840   75.04200  136.08140
 7583.50000   -7.22730   99.12730   11.96230    9.37340    8.86380   -9999.25   -9999.25   -9999.25   10.62060    3.35750    2.62800    0.00100    0.17340    0.04790   75.27520  136.52410
 7584.00000   -7.21960   99.11730   11.88760    9.29670    8.87440   -9999.25   -9999.25   -9999.25   10.61920    3.28460    2.62860    0.00100    0.17810    0.04730   75.50830  136.96680
 7584.50000   -7.20350   98.04180   11.81340    9.22060    8.76690   -9999.25   -9999.25   -9999.25   10.61770    3.08300    2.62910    0.00080    0.18280    0.04770   75.74120  137.40950
 7585.00000   -7.24150   96.18830   11.73960    9.14510    8.63750   -9999.25   -9999.25   -9999.25   10.61630    3.08600    2.63250    0.00040    0.18740    0.04810   75.97370  137.85210
 7585.50000   -7.38770   95.48050   11.66550    9.07030    8.49800   -9999.25   -9999.25   -9999.25   10.61490    3.11430    2.63530    0.00010    0.19210    0.04630   76.20620  138.29480
 7586.00000   -7.61630   98.11840   12.09970    8.99600    8.36940   -9999.25   -9999.25   -9999.25   10.61340    3.32270    2.63850   -0.00030    0.19590    0.04400   76.43860  138.73750
 7586.50000   -7.85440  104.08650   11.82300    8.92240    8.23680   -9999.25   -9999.25   -9999.25   10.61200    3.48710    2.63640   -0.00060    0.19900    0.04320   76.67100  139.18020
 7587.00000   -8.07500  110.47920   11.49450    8.86860    8.11020   -9999.25   -9999.25   -9999.25   10.61050    3.49110    2.63420   -0.00090    0.19460    0.04450   76.90340  139.62290
 7587.50000   -8.30210  113.94690   11.17510    8.83570    7.98290   -9999.25   -9999.25   -9999.25   10.60910    3.48630    2.63160    0.00110    0.18800    0.04580   77.13580  140.06560
 7588.00000   -8.53710  113.42110   10.84320    8.80980    7.85970   -9999.25   -9999.25   -9999.25   10.60760    3.33620    2.63140    0.00330    0.18960    0.04730   77.04900  139.49610
 7588.50000   -8.75570  110.31640   10.72540    8.78400    7.73640   -9999.25   -9999.25   -9999.25   10.60620    3.19960    2.63900    0.00560    0.19220    0.04630   76.82930  138.50000
 7589.00000   -8.97410  107.07690   10.60020    8.75830    7.66200   -9999.25   -9999.25   -9999.25   10.60480    3.10300    2.65240    0.00780    0.19910    0.04090   76.60770  137.83470
 7589.50000   -9.22620  105.86190   10.45400    8.73260    7.66060   -9999.25   -9999.25   -9999.25   10.60330    3.11770    2.66420    0.01010    0.20600    0.03270   76.41830  137.83470
 7590.00000   -9.46030  107.37750   10.55480    8.70700    7.66210   -9999.25   -9999.25   -9999.25   10.60190    3.12800    2.66120    0.01070    0.21150    0.02610   76.38230  137.83470
 7590.50000   -9.55550  110.24700   10.67950    8.68150    7.66240   -9999.25   -9999.25   -9999.25   10.60040    3.14050    2.65630    0.01040    0.21020    0.03010   76.35090  137.83470
 7591.00000   -9.47080  112.12120   10.80560    8.65600    7.66240   -9999.25   -9999.25   -9999.25   10.59900    3.15300    2.65110    0.01010    0.20910    0.03350   76.31950  137.83470
 7591.50000   -9.29460  111.56970   10.93320    8.63070    7.66240   -9999.25   -9999.25   -9999.25   10.59750    3.16460    2.64620    0.00980    0.20860    0.03680   76.28820  137.83470
 7592.00000   -9.12890  108.62360   11.06240    8.60540    7.66240   -9999.25   -9999.25   -9999.25   10.59610    3.17800    2.64340    0.00950    0.20920    0.03950   76.25700  137.83470
 7592.50000   -9.00150  104.40260   11.24680    8.58020    7.66240   -9999.25   -9999.25   -9999.25   10.59470    3.18880    2.64610    0.00920    0.20350    0.03950   76.22600  137.83440
 7593.00000   -8.88490  101.09150   11.16190    8.55500    7.66240   -9999.25   -9999.25   -9999.25   10.59320    3.19810    2.64860    0.00900    0.19630    0.03950   76.19490  137.83420
 7593.50000   -8.73850  100.93590   11.01990    8.52990    7.66240   -9999.25   -9999.25   -9999.25   10.59180    3.16500    2.65120    0.00870    0.18910    0.03660   76.16370  137.83390
 7594.00000   -8.56080  103.70550   10.87960    8.50490    7.66240   -9999.25   -9999.25   -9999.25   10.59030    3.11780    2.65390    0.00840    0.18330    0.03420   76.13260  137.83350
 7594.50000   -8.42110  106.19260   10.74120    8.48000    7.66240   -9999.25   -9999.25   -9999.25   10.58890    3.14780    2.65670    0.00810    0.19040    0.03180   76.10150  137.75780
 7595.00000   -8.34760  105.69030   10.64680    8.45510    7.66240   -9999.25   -9999.25   -9999.25   10.58750    3.28000    2.65640    0.00780    0.19510    0.03080   76.07040  137.68570
 7595.50000   -8.20440  103.01290   10.88800    8.43040    7.65800   -9999.25   -9999.25   -9999.25   10.58600    3.40480    2.64950    0.00760    0.19820    0.03250   76.03930  137.61350
 7596.00000   -7.84850  100.85860   11.07550    8.40570    7.65460   -9999.25   -9999.25   -9999.25   10.58460    3.44680    2.64160    0.00730    0.19820    0.03680   76.10630  137.54130
 7596.50000   -7.39690  100.25720   11.26630    8.38100    7.65120   -9999.25   -9999.25   -9999.25   10.58310    3.27410    2.64040    0.00700    0.19820    0.04110   76.27230  137.47500
 7597.00000   -7.12210  100.11490   11.45420    8.35650    7.64790   -9999.25   -9999.25   -9999.25   10.58170    3.07450    2.64480    0.00690    0.19820    0.03820   76.43830  137.63760
 7597.50000   -7.08650   99.48380   11.33810    8.33200    7.64450   -9999.25   -9999.25   -9999.25   10.58020    3.06410    2.65280    0.00690    0.19820    0.03540   76.60430  138.01450
 7598.00000   -7.10190   98.77320   11.22650    8.30750    7.64120   -9999.25   -9999.25   -9999.25   10.57880    3.19320    2.65820    0.00690    0.19820    0.03080   76.77030  138.39140
 7598.50000   -7.03840   98.99060   11.11610    8.28320    7.63780   -9999.25   -9999.25   -9999.25   10.57740    3.32950    2.65280    0.00680    0.20220    0.03250   76.93630  138.76820
 7599.00000   -6.95260  100.88360   11.00670    8.25890    7.63450   -9999.25   -9999.25   -9999.25   10.57590    3.34670    2.64570    0.00640    0.20540    0.03670   77.10240  139.14510
 7599.50000   -6.90840  104.48940   10.89840    8.23470    7.63120   -9999.25   -9999.25   -9999.25   10.57450    3.19680    2.63900    0.00610    0.20870    0.04260   77.26840  139.52200
