~Version ---------------------------------------------------
VERS.   2.0 : CWLS log ASCII Standard -VERSION 2.0
WRAP.    NO : One line per depth step
DLM . SPACE : Column Data Section Delimiter
~Well ------------------------------------------------------
STRT .F                  935.0 : START DEPTH
STOP .F                 8154.0 : STOP DEPTH
STEP .F                    0.5 : STEP
NULL .                -9999.25 : NULL VALUE
COMP .                         : COMPANY
WELL .                         : WELL
FLD  .                         : FIELD
LOC  .                         : LOCATION
PROV .                         : PROVINCE
CNTY .                         : COUNTY
STAT .                         : STATE
CTRY .                         : COUNTRY
SRVC .                         : SERVICE COMPANY
DATE .                         : DATE
UWI  .                         : UNIQUE WELL ID
API  .                         : API NUMBER
SLAT .WGS84  6.169118870436797 : SURFACE LATITUDE
SLON .WGS84 3.6801019744815022 : SURFACE LONGITUDE
DATUM.F                1774.67 : DEPTH DATUM ELEV
~Curve Information -----------------------------------------
DEPT.F     : 
SPR .MV    : SPONTANEOUS POTENTIAL FROM RESISTIVITY
GRR .GAPI  : GAMMA RAY FROM RESISTIVITY
SFLU.OHMM  : SFL RESISTIVITY (UNAVERAGED)
ILD .OHMM  : INDUCTION DEEP RESISTIVITY
ILM .OHMM  : INDUCTION MEDIUM RESISTIVITY
CILD.MMHO  : INDUCTION DEEP CONDUCTIVITY
ILD1.OHMM  : INDUCTION LOG DEEP
SFLA.OHMM  : SFL RESISTIVITY (AVERAGED)
CALD.IN    : CALIPER FROM DENSITY LOG
PEF .B/E   : PHOTO ELECTRIC FACTOR
RHOB.G/C3  : BULK DENSITY
DRHO.G/C3  : BULK DENSITY CORRECTION
NPHI.DEC   : NEUTRON POROSITY
DPHI.DEC   : DENSITY POROSITY
DTCO.US/F  : DELTA-T COMPRESSIONAL
DTSM.US/F  : DELTA-T SHEAR
~Params ----------------------------------------------------
~Other -----------------------------------------------------
~ASCII -----------------------------------------------------
# ...
 8116.00000    4.39070  115.99880   11.81290    8.32040    8.80230   -9999.25   -9999.25   -9999.25    7.87370    4.16110    2.68360    0.02500    0.23040    0.01470   76.97730  150.43310
 8116.50000    4.40740  114.97350   11.88120    8.44560    8.87770   -9999.25   -9999.25   -9999.25    7.87010    4.06810    2.68710    0.02790    0.23310    0.01400   76.88460  148.07090
 8117.00000    4.42420  115.22460   12.17690    8.57280    8.95390   -9999.25   -9999.25   -9999.25    7.86650    3.92860    2.68530    0.03040    0.23580    0.01340   76.74280  148.07090
 8117.50000    4.44100  115.12500   12.44590    8.70190    9.03070   -9999.25   -9999.25   -9999.25    7.86290    3.78690    2.68250    0.02640    0.23840    0.01270   76.41080  148.07090
 8118.00000    4.45790  114.19710   12.72160    8.83290    9.10810   -9999.25   -9999.25   -9999.25    7.85940    3.73370    2.68710    0.02090    0.23680    0.01210   76.02360  148.79660
 8118.50000    4.47470  113.76380   13.00350    8.96590    9.19870   -9999.25   -9999.25   -9999.25    7.85580    3.80390    2.69020    0.01500    0.23290    0.01140   76.68820  149.95870
 8119.00000    4.49140  113.68640   13.29170    9.10090    9.21390   -9999.25   -9999.25   -9999.25    7.85220    3.83920    2.68860    0.01260    0.23210    0.01160   77.59840  150.82680
 8119.50000    4.50820  111.70750   13.50190    9.19870    9.23190   -9999.25   -9999.25   -9999.25    7.84870    3.87810    2.68250    0.01280    0.23240    0.01410   76.82950  150.78270
 8120.00000    4.52550  107.27610   13.05700    9.17360    9.25000   -9999.25   -9999.25   -9999.25    7.84500    3.92260    2.67510    0.01280    0.23220    0.01930   75.93310  147.59500
 8120.50000    4.54220  103.07830   12.72080    9.15400    9.26810   -9999.25   -9999.25   -9999.25    7.84150    3.89570    2.66910    0.01280    0.22890    0.02460   75.03660  144.88440
 8121.00000    4.55820  101.37730   12.32290    9.13450    9.28630   -9999.25   -9999.25   -9999.25    7.83830    3.85370    2.66600    0.01280    0.22570    0.02520   74.05510  142.71930
 8121.50000    4.57530  101.29180   12.32290    9.11500    9.30450   -9999.25   -9999.25   -9999.25    7.84130    3.85860    2.66820    0.01280    0.22240    0.02320   74.50590  140.73440
 8122.00000    4.59370  100.97810   12.82200    9.09560    9.32270   -9999.25   -9999.25   -9999.25    7.84450    3.86230    2.67300    0.01280    0.22260    0.02030   75.00390  141.13650
 8122.50000    4.60980   -9999.25   13.67730    9.07620    9.34100   -9999.25   -9999.25   -9999.25    7.84790    3.85480    2.68180    0.01340    0.22900    0.01750   75.43550  142.46820
 8123.00000    4.62380   -9999.25   14.58970    9.05680    9.35930   -9999.25   -9999.25   -9999.25    7.85120    3.79700    2.68280    0.01410    0.23410    0.01510   75.80910  143.79860
 8123.50000    4.64250   -9999.25   14.89930    9.03220    9.45370   -9999.25   -9999.25   -9999.25    7.85450    3.70970    2.68450    0.01440    0.23020    0.01390   76.18260  144.92130
 8124.00000    4.66570   -9999.25   14.57150    9.01030    9.62600   -9999.25   -9999.25   -9999.25    7.85780    3.62810    2.68590    0.01000    0.22340    0.01270   76.41730  144.92130
 8124.50000    4.67680   -9999.25   14.25090    8.98010    9.80150   -9999.25   -9999.25   -9999.25    7.86120    3.67390    2.68750    0.00580    0.22250    0.01290   76.41730  144.52760
 8125.00000    4.65790   -9999.25   13.95830    8.95000    9.98020   -9999.25   -9999.25   -9999.25    7.86450    3.76790    2.68160    0.00080    0.22180    0.01570   76.41730  142.55910
 8125.50000    4.61320   -9999.25   13.60470    8.92000   10.16210   -9999.25   -9999.25   -9999.25    7.86770    3.80430    2.67660    0.00050    0.22540    0.01850   76.41730  140.59050
 8126.00000    4.56230   -9999.25   13.35380    8.89020   10.26470   -9999.25   -9999.25   -9999.25    7.87130    3.69750    2.67090    0.00460    0.22870    0.02130   75.62990  138.53180
 8126.50000    4.51630   -9999.25   13.01300    8.86860   10.98480   -9999.25   -9999.25   -9999.25    7.87430    3.60240    2.67850    0.00820    0.23200    0.02090   73.59060  136.00330
 8127.00000    4.47190   -9999.25   12.80690    9.35390   11.24680   -9999.25   -9999.25   -9999.25    7.87660    3.66010    2.68720    0.01180    0.23530    0.01710   71.59840  133.47490
 8127.50000    4.42530   -9999.25   13.98180    9.75270   11.24680   -9999.25   -9999.25   -9999.25    7.86460    3.78830    2.69620    0.01540    0.23910    0.01040   69.60630  130.94640
 8128.00000    4.37820   -9999.25   15.49290   10.16850   11.24680   -9999.25   -9999.25   -9999.25    7.85320    3.97170    2.70500    0.01930    0.23920    0.00170   68.35750  128.41790
 8128.50000    4.33130   -9999.25   16.63900   10.60200   11.24680   -9999.25   -9999.25   -9999.25    7.84110    4.23920    2.71460    0.01950    0.23750   -0.00370   67.95910  128.08800
 8129.00000    4.28460   -9999.25   17.97480   11.05390   11.24680   -9999.25   -9999.25   -9999.25    7.82940    4.50340    2.71980    0.01680    0.23600   -0.00530   67.75590  128.81250
 8129.50000    4.23970   -9999.25   19.81420   11.52520   11.24680   -9999.25   -9999.25   -9999.25    7.81760    4.59290    2.71980    0.01410    0.23500   -0.00590   67.83170  129.53690
 8130.00000    4.19460   -9999.25   23.42900   11.88060   11.24680   -9999.25   -9999.25   -9999.25    7.80570    4.51180    2.71650    0.01270    0.23550   -0.00140   68.08070  130.26130
 8130.50000    4.14510   -9999.25   25.46430   11.68510   11.24680   -9999.25   -9999.25   -9999.25    7.79390    4.29680    2.71950    0.01280    0.23830   -0.00490   68.67240  132.29280
 8131.00000    4.09610   -9999.25   23.36000   11.45420   11.24680   -9999.25   -9999.25   -9999.25    7.78210    3.94580    2.72270    0.01280    0.24110   -0.00840   70.27220  136.97760
 8131.50000    4.05580   -9999.25   21.45310   10.82750   10.68190   -9999.25   -9999.25   -9999.25    7.77020    3.63730    2.72700    0.01280    0.24200   -0.00920   72.22900  141.68180
 8132.00000    4.01360   -9999.25   19.63460   10.19680    9.36840   -9999.25   -9999.25   -9999.25    7.75840    3.41060    2.72050    0.01280    0.24150   -0.00920   74.84400  146.38500
 8132.50000    3.95420   -9999.25   17.80960    9.60290    8.96460   -9999.25   -9999.25   -9999.25    7.74660    3.42020    2.71230    0.01280    0.23460   -0.00490   77.45660  151.18280
 8133.00000    3.90250   -9999.25   17.48690    9.04350    8.33300   -9999.25   -9999.25   -9999.25    7.73480    3.57230    2.70220    0.01280    0.23540    0.00210   79.57170  152.93960
 8133.50000    3.91510   -9999.25   17.12260    8.51680    7.74590   -9999.25   -9999.25   -9999.25    7.72290    3.72290    2.68990    0.01280    0.23660    0.00880   79.96260  154.73100
 8134.00000    4.00900   -9999.25   14.27740    8.02070    7.25360   -9999.25   -9999.25   -9999.25    7.71120    3.66240    2.67800    0.01280    0.23500    0.01550   80.35300  154.40670
 8134.50000    4.13590   -9999.25   11.45420    7.52360    7.52360   -9999.25   -9999.25   -9999.25    7.69940    3.48450    2.66490    0.01280    0.22810    0.02220   80.35250  154.08470
 8135.00000    4.24590   -9999.25   11.56240    7.52940    7.57880   -9999.25   -9999.25   -9999.25    7.68660    3.36220    2.65670    0.01240    0.23030    0.02560   80.35430  153.76640
 8135.50000    4.34010   -9999.25   11.67940    7.53560    7.63840   -9999.25   -9999.25   -9999.25   -9999.25   -9999.25   -9999.25   -9999.25   -9999.25   -9999.25   80.35430  153.43440
 8136.00000    4.44090   -9999.25   11.79750    7.54180    7.69840   -9999.25   -9999.25   -9999.25   -9999.25   -9999.25   -9999.25   -9999.25   -9999.25   -9999.25   80.35430  153.10240
 8136.50000    4.54950   -9999.25   11.91680    7.54800    7.75890   -9999.25   -9999.25   -9999.25   -9999.25   -9999.25   -9999.25   -9999.25   -9999.25   -9999.25   80.35430  152.79530
 8137.00000    4.65410   -9999.25   12.03740    7.55430    7.81990   -9999.25   -9999.25   -9999.25   -9999.25   -9999.25   -9999.25   -9999.25   -9999.25   -9999.25   80.35430  152.79530
