~Version ---------------------------------------------------
VERS.   2.0 : CWLS log ASCII Standard -VERSION 2.0
WRAP.    NO : One line per depth step
DLM . SPACE : Column Data Section Delimiter
~Well ------------------------------------------------------
STRT .F                  935.0 : START DEPTH
STOP .F                 8154.0 : STOP DEPTH
STEP .F                    0.5 : STEP
NULL .                -9999.25 : NULL VALUE
COMP .                         : COMPANY
WELL .                         : WELL
FLD  .                         : FIELD
LOC  .                         : LOCATION
PROV .                         : PROVINCE
CNTY .                         : COUNTY
STAT .                         : STATE
CTRY .                         : COUNTRY
SRVC .                         : SERVICE COMPANY
DATE .                         : DATE
UWI  .                         : UNIQUE WELL ID
API  .                         : API NUMBER
SLAT .WGS84  6.169118870436797 : SURFACE LATITUDE
SLON .WGS84 3.6801019744815022 : SURFACE LONGITUDE
DATUM.F                1774.67 : DEPTH DATUM ELEV
~Curve Information -----------------------------------------
DEPT.F     : 
SPR .MV    : SPONTANEOUS POTENTIAL FROM RESISTIVITY
GRR .GAPI  : GAMMA RAY FROM RESISTIVITY
SFLU.OHMM  : SFL RESISTIVITY (UNAVERAGED)
ILD .OHMM  : INDUCTION DEEP RESISTIVITY
ILM .OHMM  : INDUCTION MEDIUM RESISTIVITY
CILD.MMHO  : INDUCTION DEEP CONDUCTIVITY
ILD1.OHMM  : INDUCTION LOG DEEP
SFLA.OHMM  : SFL RESISTIVITY (AVERAGED)
CALD.IN    : CALIPER FROM DENSITY LOG
PEF .B/E   : PHOTO ELECTRIC FACTOR
RHOB.G/C3  : BULK DENSITY
DRHO.G/C3  : BULK DENSITY CORRECTION
NPHI.DEC   : NEUTRON POROSITY
DPHI.DEC   : DENSITY POROSITY
DTCO.US/F  : DELTA-T COMPRESSIONAL
DTSM.US/F  : DELTA-T SHEAR
~Params ----------------------------------------------------
~Other -----------------------------------------------------
~ASCII -----------------------------------------------------
# ...
 6697.00000   -6.83490   95.64670    4.34840    5.09950    2.21150   -9999.25   -9999.25   -9999.25   17.69180    2.55040    2.18340    0.17020    0.40160    0.30040   77.76900  146.13980
 6697.50000   -6.92590   94.86850    4.25120    4.93870    2.26210   -9999.25   -9999.25   -9999.25   18.40930    2.57410    2.24620    0.16130    0.40450    0.26270   83.41180  165.17720
 6698.00000   -7.04610   98.13700    4.10400    4.78310    2.33610   -9999.25   -9999.25   -9999.25   18.78240    2.65430    2.27960    0.14920    0.39580    0.26270   89.04900  177.83090
 6698.50000   -7.16080  103.49490    3.89680    4.67820    2.90890   -9999.25   -9999.25   -9999.25   18.11610    2.73650    2.31240    0.13520    0.37820    0.23030   92.45910  186.26570
 6699.00000   -7.17700  107.77400    4.01150    4.67820    2.90890   -9999.25   -9999.25   -9999.25   17.42780    2.80650    2.33820    0.12220    0.36060    0.20260   91.91460  185.76160
 6699.50000   -7.05350  110.19920    4.23740    4.67820    2.90890   -9999.25   -9999.25   -9999.25   16.89280    2.78400    2.43180    0.10970    0.34280    0.16370   91.36730  185.24790
 6700.00000   -6.85240  111.96310    4.42860    4.67820    2.90890   -9999.25   -9999.25   -9999.25   16.61910    2.73740    2.40010    0.09430    0.34360    0.17540   90.81850  184.82250
 6700.50000   -6.65470  113.35470    4.15770    4.67820    3.01720   -9999.25   -9999.25   -9999.25   16.30010    2.68930    2.36880    0.09020    0.35720    0.19520   90.27220  187.46730
 6701.00000   -6.48350  113.16580    3.94380    4.67820    2.77160   -9999.25   -9999.25   -9999.25   16.06900    2.61940    2.33190    0.08430    0.36850    0.21400   92.76580  187.83660
 6701.50000   -6.32250  110.78540    3.75700    4.71260    2.42620   -9999.25   -9999.25   -9999.25   15.88710    2.70160    2.33130    0.10590    0.37190    0.21930   94.19350  186.98510
 6702.00000   -6.14740  107.50150    3.83970    4.74040    2.21150   -9999.25   -9999.25   -9999.25   16.01730    2.93700    2.39970    0.13300    0.36340    0.22050   94.33520  186.21350
 6702.50000   -5.94450  105.19420    3.91780    4.76830    2.85400   -9999.25   -9999.25   -9999.25   16.00880    3.24600    2.38930    0.16150    0.35450    0.18520   94.47690  185.47240
 6703.00000   -5.75620  104.34240    3.96870    4.79640    3.47090   -9999.25   -9999.25   -9999.25   16.07120    3.19400    2.39420    0.17670    0.34680    0.19430   93.42910  186.35660
 6703.50000   -5.68310  104.02230    3.96870    4.82460    4.22120   -9999.25   -9999.25   -9999.25   16.40170    3.07660    2.30770    0.16690    0.34680    0.25680   88.96460  187.20700
 6704.00000   -5.77430  103.53440    4.34620    4.85230    5.13360   -9999.25   -9999.25   -9999.25   16.71730    2.83670    2.24820    0.13680    0.34680    0.30220   86.56950  187.83470
 6704.50000   -5.95630  103.08540    4.69090    5.82530    6.24320   -9999.25   -9999.25   -9999.25   17.60780    2.60970    1.99940    0.10890    0.40100    0.30010   86.25330  187.44450
 6705.00000   -6.12530  102.86610    5.03300    5.82530    7.59270   -9999.25   -9999.25   -9999.25   17.99920    2.43710    1.99020    0.10650    0.40760    0.30070   87.02240  186.99360
 6705.50000   -6.26300  102.61760    5.13590    5.82530    8.70800   -9999.25   -9999.25   -9999.25   17.44490    2.44170    2.01310    0.10350    0.41430    0.30050   87.77230  186.54260
 6706.00000   -6.40720  102.46190    5.23330    5.82530    7.77480   -9999.25   -9999.25   -9999.25   16.97020    2.60080    2.12750    0.10090    0.42060    0.25560   85.01020  186.09160
 6706.50000   -6.56690  103.05580    5.33250    5.77470    6.86660   -9999.25   -9999.25   -9999.25   16.80610    2.77070    2.35050    0.09760    0.34440    0.22570   82.46880  183.69590
 6707.00000   -6.72230  104.31380    5.41460    5.70720    5.96220   -9999.25   -9999.25   -9999.25   16.93520    2.93960    2.39900    0.09710    0.32210    0.19740   79.92640  179.35530
 6707.50000   -6.86970  104.90830    4.93430    5.61620    4.66540   -9999.25   -9999.25   -9999.25   16.98800    3.10960    2.42250    0.09810    0.31270    0.17620   78.18040  172.08660
 6708.00000   -7.02000  103.92020    4.51030    5.60430    3.65070   -9999.25   -9999.25   -9999.25   16.99460    3.20030    2.40650    0.09760    0.30830    0.17470   79.12120  174.02360
 6708.50000   -7.17450  102.41190    4.96500    5.58560    2.90890   -9999.25   -9999.25   -9999.25   16.30830    3.10040    2.31690    0.12350    0.32870    0.22060   84.08500  179.97640
 6709.00000   -7.32710  102.43880    5.61620    5.56690    2.85620   -9999.25   -9999.25   -9999.25   16.11750    2.80390    2.29040    0.13020    0.32350    0.25520   89.40940  181.53540
 6709.50000   -7.47830  104.60620    4.34840    5.54820    8.24350   -9999.25   -9999.25   -9999.25   16.21900    2.89730    2.29630    0.13380    0.32080    0.24720   88.82380  178.91180
 6710.00000   -7.63070  107.47910    4.73320    5.52960   29.08900   -9999.25   -9999.25   -9999.25   15.95420    3.41020    2.36870    0.13030    0.29960    0.14300   88.20370  176.02360
 6710.50000   -7.78320  109.69900    5.03300    5.51450   28.56220   -9999.25   -9999.25   -9999.25   15.99660    3.33690    2.49270    0.12600    0.30510    0.11900   87.58370  176.34120
 6711.00000   -7.93460  111.75100    4.81420    5.91850   14.21880   -9999.25   -9999.25   -9999.25   15.24490    3.37110    2.56300    0.12180    0.28470    0.09350   85.34060  178.32680
 6711.50000   -8.08730  114.56950    4.67820    6.28310    7.88440   -9999.25   -9999.25   -9999.25   15.12110    3.37000    2.59740    0.11490    0.28390    0.06360   82.61220  180.35430
 6712.00000   -8.24100  117.13150    6.38260    6.67010    3.62220   -9999.25   -9999.25   -9999.25   15.39240    3.22900    2.60430    0.10470    0.29270    0.07250   78.77950  176.81100
 6712.50000   -8.39120  117.23370    6.15760    7.12230    3.30590   -9999.25   -9999.25   -9999.25   15.62440    3.04460    2.56540    0.09460    0.31140    0.09530   80.09190  179.37010
 6713.00000   -8.53970  114.76400    5.95440    6.96780    4.84350   -9999.25   -9999.25   -9999.25   15.92470    3.13370    2.52220    0.08360    0.33420    0.11860   82.29660  181.95810
 6713.50000   -8.69500  112.30480    5.82530    6.67650   10.18840   -9999.25   -9999.25   -9999.25   15.99710    3.37110    2.46730    0.07510    0.33300    0.14090   84.50130  184.54500
 6714.00000   -8.85270  111.84420    6.38260    6.39750   18.76080   -9999.25   -9999.25   -9999.25   16.01130    3.51830    2.47290    0.06970    0.30120    0.12590   86.65350  187.07710
 6714.50000   -8.99770  112.54200    5.81990    6.13010   19.45920   -9999.25   -9999.25   -9999.25   15.59160    3.58020    2.58760    0.11970    0.24510    0.07560   85.46850  187.09600
 6715.00000   -9.13960  112.73450    5.31660    5.93270    8.73990   -9999.25   -9999.25   -9999.25   15.22830    3.26560    2.56140    0.13070    0.22180    0.09140   84.31100  187.11980
 6715.50000   -9.30680  112.54030    5.34300    5.81620    5.12580   -9999.25   -9999.25   -9999.25   15.55770    3.01310    2.53860    0.13820    0.20450    0.10640   82.62200  186.04400
 6716.00000   -9.47810  112.95180    5.37450    5.68120   83.78930   -9999.25   -9999.25   -9999.25   15.88040    2.89780    2.51380    0.13400    0.22520    0.11640   80.63780  174.92860
 6716.50000   -9.56670  113.45260    5.41460    5.82150  839.54860   -9999.25   -9999.25   -9999.25   16.22050    2.86650    2.52360    0.16720    0.24530    0.10900   78.38580  159.97850
 6717.00000   -9.51860  112.47800    5.31660    6.24640  936.83890   -9999.25   -9999.25   -9999.25   16.28950    3.02010    2.54650    0.16930    0.26540    0.09690   79.24410  157.12600
 6717.50000   -9.38590  109.81310    5.03300    6.62020  166.04900   -9999.25   -9999.25   -9999.25   17.14620    3.14060    2.54940    0.17540    0.29410    0.10170   80.23620  160.27560
 6718.00000   -9.25750  106.69100    5.22030    6.39570    3.75700   -9999.25   -9999.25   -9999.25   18.33300    2.99050    2.52350    0.18190    0.29020    0.11430   81.22830  164.45840
