~Version ---------------------------------------------------
VERS.   2.0 : CWLS log ASCII Standard -VERSION 2.0
WRAP.    NO : One line per depth step
DLM . SPACE : Column Data Section Delimiter
~Well ------------------------------------------------------
STRT .F                  935.0 : START DEPTH
STOP .F                 8154.0 : STOP DEPTH
STEP .F                    0.5 : STEP
NULL .                -9999.25 : NULL VALUE
COMP .                         : COMPANY
WELL .                         : WELL
FLD  .                         : FIELD
LOC  .                         : LOCATION
PROV .                         : PROVINCE
CNTY .                         : COUNTY
STAT .                         : STATE
CTRY .                         : COUNTRY
SRVC .                         : SERVICE COMPANY
DATE .                         : DATE
UWI  .                         : UNIQUE WELL ID
API  .                         : API NUMBER
SLAT .WGS84  6.169118870436797 : SURFACE LATITUDE
SLON .WGS84 3.6801019744815022 : SURFACE LONGITUDE
DATUM.F                1774.67 : DEPTH DATUM ELEV
~Curve Information -----------------------------------------
DEPT.F     : 
SPR .MV    : SPONTANEOUS POTENTIAL FROM RESISTIVITY
GRR .GAPI  : GAMMA RAY FROM RESISTIVITY
SFLU.OHMM  : SFL RESISTIVITY (UNAVERAGED)
ILD .OHMM  : INDUCTION DEEP RESISTIVITY
ILM .OHMM  : INDUCTION MEDIUM RESISTIVITY
CILD.MMHO  : INDUCTION DEEP CONDUCTIVITY
ILD1.OHMM  : INDUCTION LOG DEEP
SFLA.OHMM  : SFL RESISTIVITY (AVERAGED)
CALD.IN    : CALIPER FROM DENSITY LOG
PEF .B/E   : PHOTO ELECTRIC FACTOR
RHOB.G/C3  : BULK DENSITY
DRHO.G/C3  : BULK DENSITY CORRECTION
NPHI.DEC   : NEUTRON POROSITY
DPHI.DEC   : DENSITY POROSITY
DTCO.US/F  : DELTA-T COMPRESSIONAL
DTSM.US/F  : DELTA-T SHEAR
~Params ----------------------------------------------------
~Other -----------------------------------------------------
~ASCII -----------------------------------------------------
# ...
 7901.00000   -3.28060  120.33620    9.26410    6.74740    6.87170   -9999.25   -9999.25   -9999.25    8.90080    3.70080    2.65370    0.01690    0.28010    0.03240   82.09870  163.73050
 7901.50000   -3.19420  119.80270    9.19650    6.72940    6.83960   -9999.25   -9999.25   -9999.25    8.90940    3.61650    2.66480    0.02220    0.28390    0.02420   82.56550  162.86940
 7902.00000   -3.15590  119.64770    9.15730    6.70830    6.80760   -9999.25   -9999.25   -9999.25    8.91950    3.51790    2.68050    0.02810    0.28320    0.01740   83.11020  161.86110
 7902.50000   -3.11600  119.55170    9.12050    6.68980    6.77580   -9999.25   -9999.25   -9999.25    8.92990    3.51020    2.69710    0.03280    0.28200    0.01040   82.88920  163.71060
 7903.00000   -3.06060  118.72470    9.08510    6.67020    6.74420   -9999.25   -9999.25   -9999.25    8.94030    3.53770    2.70430    0.03100    0.28150    0.00750   82.39170  165.24720
 7903.50000   -3.00670  117.89000    9.05070    6.64920    6.71270   -9999.25   -9999.25   -9999.25    8.95060    3.56210    2.70430    0.02990    0.27500    0.00620   81.89430  164.65200
 7904.00000   -2.95990  119.40100    9.01320    6.63430    6.68130   -9999.25   -9999.25   -9999.25    8.96120    3.58620    2.69510    0.01710    0.26660    0.00730   81.39770  164.05670
 7904.50000   -2.91130  123.63000    8.98380    6.60640    6.65010   -9999.25   -9999.25   -9999.25    8.97110    3.61090    2.67710    0.00280    0.25800    0.02060   81.26750  163.46140
 7905.00000   -2.86050  127.28500    8.93980    6.60080    6.62020   -9999.25   -9999.25   -9999.25    8.98150    3.63680    2.67480   -0.00260    0.25800    0.02060   81.55280  163.44490
 7905.50000   -2.81170  127.93650    8.91930    6.56180    6.64030   -9999.25   -9999.25   -9999.25    8.96980    3.67210    2.67470    0.00130    0.26430    0.02060   81.83870  164.93310
 7906.00000   -2.76110  127.68860    8.86410    6.56930    6.65980   -9999.25   -9999.25   -9999.25    8.94970    3.76700    2.67580    0.00470    0.26900    0.02150   81.92880  166.57480
 7906.50000   -2.70800  128.73820    8.85450    6.51800    6.67930   -9999.25   -9999.25   -9999.25    8.92980    3.86210    2.66530    0.03250    0.26350    0.02520   81.93080  162.74200
 7907.00000   -2.66160  128.24400    8.79010    6.53680    6.69880   -9999.25   -9999.25   -9999.25    8.91030    3.93780    2.65070    0.04520    0.26600    0.03360   81.93260  158.46820
 7907.50000   -2.61820  122.61150    8.78820    6.47630    6.71850   -9999.25   -9999.25   -9999.25    8.89060    3.85100    2.63040    0.05180    0.28210    0.04580   81.93470  154.19440
 7908.00000   -2.55980  114.49030    8.74180    6.26700    6.74230   -9999.25   -9999.25   -9999.25    8.87090    3.77430    2.63460    0.05200    0.29170    0.04050   80.92230  149.92070
 7908.50000   -2.49680  109.91490    8.70800    6.62260    7.23460   -9999.25   -9999.25   -9999.25    8.85330    3.76890    2.64900    0.05170    0.27830    0.03350   79.52010  145.64690
 7909.00000   -2.48200  110.01320    9.75130    6.93980    7.91050   -9999.25   -9999.25   -9999.25    8.83670    3.84300    2.65630    0.04050    0.26010    0.03220   78.11860  143.67320
 7909.50000   -2.55220  110.80140   10.91000    7.27220    8.64950   -9999.25   -9999.25   -9999.25    8.82010    3.92200    2.65850    0.02820    0.24180    0.03080   76.71660  142.51570
 7910.00000   -2.67920  109.98430   12.20630    7.62050    9.45750   -9999.25   -9999.25   -9999.25    8.80340    3.96460    2.66830    0.01450    0.22020    0.02480   75.25740  141.81590
 7910.50000   -2.80820  108.99040   13.50190    7.98550    9.78310   -9999.25   -9999.25   -9999.25    8.78670    3.91400    2.67870    0.00610    0.22190    0.01830   75.39500  141.94000
 7911.00000   -2.92140  108.86670   13.40290    8.36790    9.55690   -9999.25   -9999.25   -9999.25    8.77010    3.81560    2.68760    0.00710    0.22710    0.01510   75.56040  142.06400
 7911.50000   -3.03500  108.47690   13.31360    8.76870    9.36840   -9999.25   -9999.25   -9999.25    8.75340    3.88880    2.68780    0.00670    0.23280    0.01470   75.24670  142.16530
 7912.00000   -3.15660  106.98240   13.25740    9.18870    9.42450   -9999.25   -9999.25   -9999.25    8.73680    4.12810    2.68540    0.00620    0.22630    0.01360   74.58530  139.83470
 7912.50000   -3.27740  105.15380   12.32290    9.62870    9.47360   -9999.25   -9999.25   -9999.25    8.72010    4.36230    2.68240    0.00590    0.21910    0.01910   73.92390  135.07870
 7913.00000   -3.39400  103.78780   12.32290   10.26470    9.54120   -9999.25   -9999.25   -9999.25    8.70350    4.19810    2.67960    0.00540    0.21550    0.01940   73.26250  134.71730
 7913.50000   -3.51120  102.58060   12.97150   10.32750    9.54120   -9999.25   -9999.25   -9999.25    8.68680    3.80310    2.67590    0.00500    0.21550    0.01980   72.60110  133.82440
 7914.00000   -3.63060  101.00190   13.63830   10.42740    9.54120   -9999.25   -9999.25   -9999.25    8.67020    3.74930    2.68240    0.00460    0.21550    0.01710   71.93960  132.93150
 7914.50000   -3.74960   99.35250   14.33930   10.52840   10.93870   -9999.25   -9999.25   -9999.25    8.65350    3.75880    2.69190    0.00420    0.20110    0.01410   71.69290  132.03860
 7915.00000   -3.86760   98.26820   15.07640   10.63030   11.88060   -9999.25   -9999.25   -9999.25    8.63690    3.78670    2.69220    0.00370    0.19050    0.01120   71.69290  131.49930
 7915.50000   -3.98640   97.47060   16.20910   10.73310   11.88060   -9999.25   -9999.25   -9999.25    8.62020    3.70630    2.68800    0.00330    0.17860    0.01550   71.69290  131.41670
 7916.00000   -4.10610   96.18510   16.20910   10.83260   11.98720   -9999.25   -9999.25   -9999.25    8.60350    3.66320    2.68080    0.00290    0.18230    0.01910   71.69290  131.33400
 7916.50000   -4.22450   95.00520   16.20910   10.93890   12.09970   -9999.25   -9999.25   -9999.25    8.58690    3.79260    2.67610    0.00240    0.19120    0.01830   71.60630  131.25130
 7917.00000   -4.34190   95.73480   16.20910   11.05280   12.09970   -9999.25   -9999.25   -9999.25    8.57020    3.92000    2.67630    0.00200    0.18870    0.01830   71.27560  131.16860
 7917.50000   -4.46200   98.72970   16.20910   11.13880   12.09970   -9999.25   -9999.25   -9999.25    8.55360    3.97870    2.67600    0.00160    0.18590    0.01830   70.94490  129.26770
 7918.00000   -4.58260  101.90780   16.20910   11.27750   12.09970   -9999.25   -9999.25   -9999.25    8.53690    3.86610    2.67630    0.00110    0.18330    0.01870   70.61380  126.50480
 7918.50000   -4.69640  103.28230   16.20910   11.34410   12.09970   -9999.25   -9999.25   -9999.25    8.52030    3.68470    2.67640    0.00110    0.18640    0.01980   70.28150  126.00730
 7919.00000   -4.81040  102.97670   16.20910   11.50390   12.09970   -9999.25   -9999.25   -9999.25    8.50360    3.67350    2.68230    0.00140    0.18930    0.01610   69.94850  126.54030
 7919.50000   -4.93780  101.77400   16.93150   11.55730   12.09970   -9999.25   -9999.25   -9999.25    8.48710    3.65490    2.69020    0.00160    0.19270    0.01260   69.40980  127.07930
 7920.00000   -5.06280   99.22770   17.50680   11.69000   14.26280   -9999.25   -9999.25   -9999.25    8.47030    3.63080    2.69430    0.00190    0.18770    0.01210   68.41390  127.56280
 7920.50000   -5.16270   94.63800   18.10170   12.69300   15.01470   -9999.25   -9999.25   -9999.25    8.45340    3.72770    2.69370    0.00210    0.17650    0.01150   67.41870  124.75080
 7921.00000   -5.27150   89.02100   18.71680   13.61200   15.83940   -9999.25   -9999.25   -9999.25    8.43810    3.89810    2.69290    0.00230    0.16520    0.01180   66.42480  122.24630
 7921.50000   -5.42890   84.75850   19.45920   14.45580   16.50810   -9999.25   -9999.25   -9999.25    8.41600    3.87400    2.69120    0.00260    0.15390    0.01330   65.66590  119.74510
 7922.00000   -5.56370   83.39050   20.55580   15.49070   17.56690   -9999.25   -9999.25   -9999.25    8.38910    3.75370    2.68910    0.00280    0.14260    0.01480   65.37160  117.24100
