~Version ---------------------------------------------------
VERS.   2.0 : CWLS log ASCII Standard -VERSION 2.0
WRAP.    NO : One line per depth step
DLM . SPACE : Column Data Section Delimiter
~Well ------------------------------------------------------
STRT .F                  935.0 : START DEPTH
STOP .F                 8154.0 : STOP DEPTH
STEP .F                    0.5 : STEP
NULL .                -9999.25 : NULL VALUE
COMP .                         : COMPANY
WELL .                         : WELL
FLD  .                         : FIELD
LOC  .                         : LOCATION
PROV .                         : PROVINCE
CNTY .                         : COUNTY
STAT .                         : STATE
CTRY .                         : COUNTRY
SRVC .                         : SERVICE COMPANY
DATE .                         : DATE
UWI  .                         : UNIQUE WELL ID
API  .                         : API NUMBER
SLAT .WGS84  6.169118870436797 : SURFACE LATITUDE
SLON .WGS84 3.6801019744815022 : SURFACE LONGITUDE
DATUM.F                1774.67 : DEPTH DATUM ELEV
~Curve Information -----------------------------------------
DEPT.F     : 
SPR .MV    : SPONTANEOUS POTENTIAL FROM RESISTIVITY
GRR .GAPI  : GAMMA RAY FROM RESISTIVITY
SFLU.OHMM  : SFL RESISTIVITY (UNAVERAGED)
ILD .OHMM  : INDUCTION DEEP RESISTIVITY
ILM .OHMM  : INDUCTION MEDIUM RESISTIVITY
CILD.MMHO  : INDUCTION DEEP CONDUCTIVITY
ILD1.OHMM  : INDUCTION LOG DEEP
SFLA.OHMM  : SFL RESISTIVITY (AVERAGED)
CALD.IN    : CALIPER FROM DENSITY LOG
PEF .B/E   : PHOTO ELECTRIC FACTOR
RHOB.G/C3  : BULK DENSITY
DRHO.G/C3  : BULK DENSITY CORRECTION
NPHI.DEC   : NEUTRON POROSITY
DPHI.DEC   : DENSITY POROSITY
DTCO.US/F  : DELTA-T COMPRESSIONAL
DTSM.US/F  : DELTA-T SHEAR
~Params ----------------------------------------------------
~Other -----------------------------------------------------
~ASCII -----------------------------------------------------
# ...
 7234.50000  -15.15870  108.00850    8.65140    6.99500    6.99330   -9999.25   -9999.25   -9999.25   10.38630    3.02820    2.62810    0.00140    0.22740    0.05210   80.74800  149.31070
 7235.00000  -15.15870  108.56520    8.64380    6.98520    6.99130   -9999.25   -9999.25   -9999.25   10.38420    3.00390    2.62690    0.00160    0.22820    0.04890   80.74800  149.24980
 7235.50000  -15.15870  110.06570    8.63560    6.98120    6.98780   -9999.25   -9999.25   -9999.25   10.38220    3.00950    2.62670    0.00180    0.23520    0.04890   80.74800  149.60930
 7236.00000  -15.15870  109.90510    8.62770    6.97200    6.98420   -9999.25   -9999.25   -9999.25   10.38010    3.06150    2.62840    0.00190    0.23860    0.04900   80.74800  150.03830
 7236.50000  -15.15870  108.24830    8.61970    6.96700    6.98060   -9999.25   -9999.25   -9999.25   10.37810    3.13710    2.63120    0.00210    0.24070    0.04900   80.74800  150.43310
 7237.00000  -15.15870  108.02350    8.61170    6.95880    6.97710   -9999.25   -9999.25   -9999.25   10.37610    3.12250    2.63420    0.00230    0.24070    0.04760   80.74800  150.45150
 7237.50000  -15.15870  110.75800    8.60380    6.95290    6.97350   -9999.25   -9999.25   -9999.25   10.37390    3.10050    2.63740    0.00250    0.23450    0.04540   80.74800  150.46870
 7238.00000  -15.15870  114.12290    8.59580    6.94550    6.96990   -9999.25   -9999.25   -9999.25   10.37220    3.17760    2.64020    0.00260    0.22930    0.04310   80.74800  150.48590
 7238.50000  -15.15870  114.94680    8.58790    6.93900    6.96640   -9999.25   -9999.25   -9999.25   10.36970    3.26570    2.64220    0.00280    0.22260    0.04280   80.74800  150.50310
 7239.00000  -15.15870  113.64190    8.57990    6.93210    6.96280   -9999.25   -9999.25   -9999.25   10.36700    3.25320    2.63600    0.00310    0.22550    0.04530   80.74800  150.52020
 7239.50000  -15.15870  113.59300    8.57190    6.92540    6.95930   -9999.25   -9999.25   -9999.25   10.34420    3.16650    2.63040    0.00580    0.23050    0.04770   80.74800  150.53740
 7240.00000  -15.15870  116.11130    8.56390    6.91870    6.95570   -9999.25   -9999.25   -9999.25   10.31780    3.12110    2.62490    0.00880    0.23440    0.05020   80.74800  150.55460
 7240.50000  -15.15870  118.36210    8.55600    6.91190    6.95220   -9999.25   -9999.25   -9999.25   10.29100    3.16780    2.62120    0.01160    0.23500    0.05270   80.74800  150.57170
 7241.00000  -15.15870  117.61250    8.54800    6.90520    6.94860   -9999.25   -9999.25   -9999.25   10.26460    3.30650    2.62230    0.01460    0.23370    0.05300   80.74800  150.58890
 7241.50000  -15.15870  115.32290    8.54010    6.89850    6.94520   -9999.25   -9999.25   -9999.25   10.23810    3.36300    2.62340    0.01480    0.23120    0.05210   80.74800  150.60610
 7242.00000  -15.15870  114.66450    8.53210    6.89180    6.94150   -9999.25   -9999.25   -9999.25   10.21160    3.36880    2.62430    0.01450    0.23390    0.05110   80.74800  150.62330
 7242.50000  -15.15870  115.62030    8.52420    6.88500    6.93800   -9999.25   -9999.25   -9999.25   10.18490    3.37660    2.62500    0.01340    0.23660    0.05010   80.74800  150.64040
 7243.00000  -15.15870  115.45220    8.51630    6.87830    6.93440   -9999.25   -9999.25   -9999.25   10.15860    3.38530    2.62500    0.01250    0.23990    0.05010   80.74800  150.65760
 7243.50000  -15.15870  113.16460    8.50840    6.87160    6.93090   -9999.25   -9999.25   -9999.25   10.13230    3.39270    2.62490    0.01150    0.24110    0.05080   80.74800  150.67480
 7244.00000  -15.15870  110.88580    8.50060    6.86480    6.92730   -9999.25   -9999.25   -9999.25   10.10410    3.37080    2.62580    0.01060    0.24260    0.05130   80.74800  150.69200
 7244.50000  -15.15870  110.86530    8.49270    6.85810    6.92380   -9999.25   -9999.25   -9999.25   10.09040    3.33880    2.62860    0.00950    0.24420    0.04840   80.74800  150.70930
 7245.00000  -15.15870  112.69670    8.48490    6.85140    6.92030   -9999.25   -9999.25   -9999.25   10.09400    3.30200    2.63110    0.00880    0.24540    0.04660   80.74800  150.72660
 7245.50000  -15.15870  113.69280    8.47710    6.84470    6.91700   -9999.25   -9999.25   -9999.25   10.09570    3.36470    2.63430    0.00910    0.24800    0.04610   80.74800  150.74340
 7246.00000  -15.15870  111.75410    8.46900    6.83810    6.91370   -9999.25   -9999.25   -9999.25   10.09760    3.53600    2.63100    0.00720    0.25020    0.04580   80.74800  150.75960
 7246.50000  -15.15870  107.98410    8.46180    6.83120    6.91010   -9999.25   -9999.25   -9999.25   10.09980    3.61520    2.62380    0.00710    0.25250    0.05170   80.74800  150.77530
 7247.00000  -15.15870  105.79970    8.45390    6.82480    6.90710   -9999.25   -9999.25   -9999.25   10.10170    3.55020    2.61670    0.00530    0.24150    0.05760   80.74800  150.79070
 7247.50000  -15.15870  107.03690    8.44550    6.81760    6.90360   -9999.25   -9999.25   -9999.25   10.10370    3.52170    2.61100    0.00540    0.23080    0.06030   80.74800  150.80650
 7248.00000  -15.15870  110.20860    8.43920    6.81140    6.89930   -9999.25   -9999.25   -9999.25   10.10570    3.20640    2.60080    0.00580    0.24040    0.06310   80.74800  150.82060
 7248.50000  -15.15870  112.98400    8.43020    6.80460    6.89700   -9999.25   -9999.25   -9999.25   10.10770    3.07390    2.60270    0.00630    0.25760    0.06200   80.74800  150.23320
 7249.00000  -15.15870  114.49860    8.42150    6.79740    6.89290   -9999.25   -9999.25   -9999.25   10.10970    3.14770    2.60490    0.00680    0.25930    0.05930   80.74800  149.72370
 7249.50000  -15.15870  114.73270    8.41390    6.78950    6.88850   -9999.25   -9999.25   -9999.25   10.11170    3.20250    2.61220    0.00610    0.26090    0.05660   80.74820  149.21450
 7250.00000  -15.15870  113.92310    8.40610    6.78560    6.88500   -9999.25   -9999.25   -9999.25   10.11370    3.26590    2.61450    0.00510    0.25510    0.05440   80.74850  148.70530
 7250.50000  -15.15870  113.36660    8.39550    6.77410    6.88150   -9999.25   -9999.25   -9999.25   10.11570    3.29390    2.61240    0.00410    0.24930    0.05760   80.74880  148.19550
 7251.00000  -15.15870  114.75710    8.43190    6.77500    6.87800   -9999.25   -9999.25   -9999.25   10.11760    3.27240    2.61090    0.00310    0.25400    0.05990   80.74910  147.68510
 7251.50000  -15.15870  117.77180    8.48890    6.75770    6.87450   -9999.25   -9999.25   -9999.25   10.11960    3.23720    2.60960    0.00220    0.25110    0.05890   80.74920  147.17410
 7252.00000  -15.15870  119.83030    8.54630    6.76520    6.87100   -9999.25   -9999.25   -9999.25   10.12160    3.13460    2.61280    0.00110    0.24350    0.05760   80.74930  146.66330
 7252.50000  -15.15870  119.05000    8.60410    6.74100    6.86660   -9999.25   -9999.25   -9999.25   10.12360    2.97150    2.61620    0.00100    0.23580    0.05630   80.74980  146.15250
 7253.00000  -15.15870  116.43210    8.66220    6.75240    7.01310   -9999.25   -9999.25   -9999.25   10.12560    3.02260    2.61920    0.00100    0.22660    0.05490   80.61770  145.64160
 7253.50000  -15.15870  114.54800    8.70800    6.95270    7.20870   -9999.25   -9999.25   -9999.25   10.12760    3.07220    2.61900    0.00100    0.22350    0.05360   80.07780  145.13080
 7254.00000  -15.15870  114.65430    8.91020    7.36490    7.40970   -9999.25   -9999.25   -9999.25   10.12960    3.11330    2.61870    0.00100    0.22030    0.05640   79.53830  144.61990
 7254.50000  -15.15870  115.59210    9.07980    7.79040    7.61630   -9999.25   -9999.25   -9999.25   10.13160    3.02190    2.61340    0.00100    0.22090    0.05910   78.99830  144.10910
 7255.00000  -15.15870  115.30880    9.25270    7.81490    7.80370   -9999.25   -9999.25   -9999.25   10.13350    3.02600    2.61370    0.00100    0.22140    0.05620   78.39300  143.73160
 7255.50000  -15.15870  113.09800    9.36840    7.78620    7.80190   -9999.25   -9999.25   -9999.25   10.13550    3.00360    2.61940    0.00100    0.22200    0.05320   78.35810  143.69920
