~Version ---------------------------------------------------
VERS.   2.0 : CWLS log ASCII Standard -VERSION 2.0
WRAP.    NO : One line per depth step
DLM . SPACE : Column Data Section Delimiter
~Well ------------------------------------------------------
STRT .F                  935.0 : START DEPTH
STOP .F                 8154.0 : STOP DEPTH
STEP .F                    0.5 : STEP
NULL .                -9999.25 : NULL VALUE
COMP .                         : COMPANY
WELL .                         : WELL
FLD  .                         : FIELD
LOC  .                         : LOCATION
PROV .                         : PROVINCE
CNTY .                         : COUNTY
STAT .                         : STATE
CTRY .                         : COUNTRY
SRVC .                         : SERVICE COMPANY
DATE .                         : DATE
UWI  .                         : UNIQUE WELL ID
API  .                         : API NUMBER
SLAT .WGS84  6.169118870436797 : SURFACE LATITUDE
SLON .WGS84 3.6801019744815022 : SURFACE LONGITUDE
DATUM.F                1774.67 : DEPTH DATUM ELEV
~Curve Information -----------------------------------------
DEPT.F     : 
SPR .MV    : SPONTANEOUS POTENTIAL FROM RESISTIVITY
GRR .GAPI  : GAMMA RAY FROM RESISTIVITY
SFLU.OHMM  : SFL RESISTIVITY (UNAVERAGED)
ILD .OHMM  : INDUCTION DEEP RESISTIVITY
ILM .OHMM  : INDUCTION MEDIUM RESISTIVITY
CILD.MMHO  : INDUCTION DEEP CONDUCTIVITY
ILD1.OHMM  : INDUCTION LOG DEEP
SFLA.OHMM  : SFL RESISTIVITY (AVERAGED)
CALD.IN    : CALIPER FROM DENSITY LOG
PEF .B/E   : PHOTO ELECTRIC FACTOR
RHOB.G/C3  : BULK DENSITY
DRHO.G/C3  : BULK DENSITY CORRECTION
NPHI.DEC   : NEUTRON POROSITY
DPHI.DEC   : DENSITY POROSITY
DTCO.US/F  : DELTA-T COMPRESSIONAL
DTSM.US/F  : DELTA-T SHEAR
~Params ----------------------------------------------------
~Other -----------------------------------------------------
~ASCII -----------------------------------------------------
# ...
 7793.50000   -3.88720  115.27840    8.79010    6.87820    7.85750   -9999.25   -9999.25   -9999.25    9.45580    3.37090    2.64260    0.00330    0.24120    0.04120   81.38800  151.86380
 7794.00000   -3.99680  116.34420    8.81340    6.89000    7.84440   -9999.25   -9999.25   -9999.25    9.44260    3.25030    2.64410    0.00370    0.24140    0.04200   81.36450  151.68670
 7794.50000   -4.10650  118.01040    8.83680    6.90190    7.83140   -9999.25   -9999.25   -9999.25    9.42940    3.26540    2.63800    0.00420    0.23580    0.04450   81.34100  151.51090
 7795.00000   -4.21630  119.99630    8.86860    6.91370    7.81850   -9999.25   -9999.25   -9999.25    9.41910    3.33170    2.63260    0.00470    0.23020    0.04730   81.31740  151.33540
 7795.50000   -4.32580  120.96040    9.00250    6.92560    7.80370   -9999.25   -9999.25   -9999.25    9.41910    3.38230    2.63590    0.00480    0.22730    0.04540   81.29380  151.21730
 7796.00000   -4.43520  119.77230    9.21390    6.93760    7.80370   -9999.25   -9999.25   -9999.25    9.41890    3.36980    2.64300    0.00440    0.22900    0.04320   81.27020  151.21780
 7796.50000   -4.54520  116.96950    9.43020    6.94950    7.80370   -9999.25   -9999.25   -9999.25    9.41900    3.16160    2.64340    0.00410    0.23750    0.04110   81.24660  151.21850
 7797.00000   -4.65550  114.47650    9.71710    6.96140    7.80370   -9999.25   -9999.25   -9999.25    9.41900    3.13680    2.64130    0.00340    0.25720    0.04110   81.22310  151.21930
 7797.50000   -4.76450  113.89800    9.66910    6.97340    7.80370   -9999.25   -9999.25   -9999.25    9.41890    3.15640    2.64340    0.00360    0.25900    0.04030   81.19950  151.21990
 7798.00000   -4.87290  115.17110    9.60170    6.98540    7.80370   -9999.25   -9999.25   -9999.25    9.41900    3.17620    2.64690    0.00380    0.25980    0.03860   81.17590  151.22020
 7798.50000   -4.98410  116.81460    9.53480    6.99330    7.80370   -9999.25   -9999.25   -9999.25    9.41900    3.38470    2.65090    0.01630    0.25630    0.03700   81.15230  151.22040
 7799.00000   -5.09590  117.50170    9.46840    6.99330    7.80370   -9999.25   -9999.25   -9999.25    9.41900    3.34080    2.65130    0.01390    0.25800    0.03750   81.12870  151.22050
 7799.50000   -5.20260  117.45740    9.40530    6.99300    7.80360   -9999.25   -9999.25   -9999.25    9.41900    3.30270    2.64790    0.01200    0.26170    0.03920   81.10510  151.22050
 7800.00000   -5.30870  117.98410    9.33650    6.99320    7.80350   -9999.25   -9999.25   -9999.25    9.41900    3.31650    2.64490    0.00930    0.25440    0.04100   81.08160  151.22050
 7800.50000   -5.42490  119.52430    9.27140    6.99340    7.80360   -9999.25   -9999.25   -9999.25    9.41900    3.35380    2.63760    0.00700    0.24180    0.04280   81.05800  151.22050
 7801.00000   -5.54080  120.92150    9.20030    6.99320    7.80370   -9999.25   -9999.25   -9999.25    9.41900    3.35310    2.63860    0.00620    0.23690    0.04420   81.03440  151.22050
 7801.50000   -5.62100  121.03930    9.21810    6.99310    7.80360   -9999.25   -9999.25   -9999.25    9.41900    3.28690    2.64000    0.00530    0.23770    0.04420   81.01080  151.22050
 7802.00000   -5.64600  120.12500    9.24720    6.99340    7.80360   -9999.25   -9999.25   -9999.25    9.41900    3.18820    2.64190    0.00460    0.23810    0.04320   80.98720  151.22050
 7802.50000   -5.63820  118.81380    9.26760    6.99340    7.80370   -9999.25   -9999.25   -9999.25    9.41890    3.22110    2.64340    0.00390    0.24460    0.04150   80.96370  151.22050
 7803.00000   -5.63210  117.00600    9.29640    6.99300    7.80370   -9999.25   -9999.25   -9999.25    9.41920    3.26790    2.64480    0.00310    0.24710    0.03950   80.94010  151.22060
 7803.50000   -5.63600  114.95510    9.31800    6.99330    7.80370   -9999.25   -9999.25   -9999.25    9.41890    3.32210    2.64550    0.00560    0.24750    0.03950   80.91650  151.22070
 7804.00000   -5.63850  114.21190    9.34520    6.99380    7.80370   -9999.25   -9999.25   -9999.25    9.41780    3.36820    2.64620    0.00840    0.24520    0.03950   80.89290  151.22050
 7804.50000   -5.63600  115.74260    9.36840    6.99290    7.80370   -9999.25   -9999.25   -9999.25    9.40220    3.41130    2.64690    0.01110    0.24400    0.03950   80.86930  151.21990
 7805.00000   -5.63460  118.00430    9.39440    6.99270    7.80370   -9999.25   -9999.25   -9999.25    9.38930    3.40870    2.64760    0.01350    0.24460    0.03950   80.84570  151.21900
 7805.50000   -5.63580  118.65330    9.41930    6.99460    7.80370   -9999.25   -9999.25   -9999.25    9.37530    3.30460    2.64830    0.01600    0.24720    0.03950   80.82220  151.22050
 7806.00000   -5.63640  117.33970    9.44470    6.99330    7.80370   -9999.25   -9999.25   -9999.25    9.36170    3.14200    2.64900    0.01690    0.25030    0.03950   80.79860  151.22050
 7806.50000   -5.63550  115.25080    9.47020    6.99100    7.80370   -9999.25   -9999.25   -9999.25    9.34810    3.09710    2.64970    0.01580    0.25320    0.03950   80.77500  151.22050
 7807.00000   -5.63510  113.04820    9.49560    6.99560    7.80370   -9999.25   -9999.25   -9999.25    9.33440    3.04560    2.65030    0.01350    0.25290    0.03830   80.74800  150.77500
 7807.50000   -5.63530  111.08270    9.52140    6.99530    7.80370   -9999.25   -9999.25   -9999.25    9.32090    3.04370    2.65100    0.01140    0.25260    0.03720   80.73770  150.35150
 7808.00000   -5.63530  110.42960    9.54690    6.99060    7.80370   -9999.25   -9999.25   -9999.25    9.30720    3.15770    2.65160    0.00970    0.25230    0.03610   80.72570  149.92800
 7808.50000   -5.63510  111.66440    9.57250    6.99540    7.80370   -9999.25   -9999.25   -9999.25    9.29350    3.32190    2.65230    0.00830    0.25200    0.03580   80.71360  149.50450
 7809.00000   -5.63490  113.36650    9.59820    7.09200    7.80370   -9999.25   -9999.25   -9999.25    9.28000    3.28960    2.64670    0.00680    0.25170    0.03630   80.70160  149.08100
 7809.50000   -5.63490  113.55360    9.62390    7.18580    7.80370   -9999.25   -9999.25   -9999.25    9.26600    3.22110    2.63870    0.00530    0.25300    0.04020   80.68950  148.94460
 7810.00000   -5.63490  112.11080    9.64980    7.27390    7.80370   -9999.25   -9999.25   -9999.25    9.26040    3.14480    2.63010    0.00490    0.25360    0.04470   80.67750  149.14340
 7810.50000   -5.63490  110.57020    9.67560    7.36800    7.80370   -9999.25   -9999.25   -9999.25    9.26090    3.07450    2.62840    0.00490    0.25210    0.04910   80.66540  149.34300
 7811.00000   -5.63490  110.04450    9.70160    7.46060    7.80370   -9999.25   -9999.25   -9999.25    9.26090    3.00280    2.63280    0.00490    0.25050    0.05020   80.65340  149.54300
 7811.50000   -5.63490  110.49080    9.72760    7.52410    7.80370   -9999.25   -9999.25   -9999.25    9.26080    2.89620    2.63910    0.00490    0.24900    0.04660   80.64130  149.74340
 7812.00000   -5.63490  111.52780    9.75370    7.49890    7.80370   -9999.25   -9999.25   -9999.25    9.26090    2.95170    2.64480    0.00490    0.25090    0.04030   80.62920  149.94380
 7812.50000   -5.63490  112.89020    9.77990    7.47810    7.80370   -9999.25   -9999.25   -9999.25    9.26080    3.16480    2.65210    0.00490    0.25400    0.03650   80.61720  150.12760
 7813.00000   -5.63490  114.12230    9.80610    7.45960    7.80370   -9999.25   -9999.25   -9999.25    9.26090    3.35760    2.65240    0.00490    0.25320    0.03540   80.60510  150.29430
 7813.50000   -5.63490  114.53340    9.83240    7.43940    7.80370   -9999.25   -9999.25   -9999.25    9.26090    3.50750    2.65230    0.00560    0.25250    0.03510   80.59310  150.43310
 7814.00000   -5.63490  113.67620    9.85880    7.42010    7.80370   -9999.25   -9999.25   -9999.25    9.26090    3.45650    2.64480    0.00690    0.23520    0.03820   80.58100  150.03940
 7814.50000   -5.63490  111.76000    9.88520    7.40100    7.80370   -9999.25   -9999.25   -9999.25    9.26080    3.29200    2.63370    0.00820    0.23520    0.04580   80.56900  149.58860
