~Version ---------------------------------------------------
VERS.   2.0 : CWLS log ASCII Standard -VERSION 2.0
WRAP.    NO : One line per depth step
DLM . SPACE : Column Data Section Delimiter
~Well ------------------------------------------------------
STRT .F                  935.0 : START DEPTH
STOP .F                 8154.0 : STOP DEPTH
STEP .F                    0.5 : STEP
NULL .                -9999.25 : NULL VALUE
COMP .                         : COMPANY
WELL .                         : WELL
FLD  .                         : FIELD
LOC  .                         : LOCATION
PROV .                         : PROVINCE
CNTY .                         : COUNTY
STAT .                         : STATE
CTRY .                         : COUNTRY
SRVC .                         : SERVICE COMPANY
DATE .                         : DATE
UWI  .                         : UNIQUE WELL ID
API  .                         : API NUMBER
SLAT .WGS84  6.169118870436797 : SURFACE LATITUDE
SLON .WGS84 3.6801019744815022 : SURFACE LONGITUDE
DATUM.F                1774.67 : DEPTH DATUM ELEV
~Curve Information -----------------------------------------
DEPT.F     : 
SPR .MV    : SPONTANEOUS POTENTIAL FROM RESISTIVITY
GRR .GAPI  : GAMMA RAY FROM RESISTIVITY
SFLU.OHMM  : SFL RESISTIVITY (UNAVERAGED)
ILD .OHMM  : INDUCTION DEEP RESISTIVITY
ILM .OHMM  : INDUCTION MEDIUM RESISTIVITY
CILD.MMHO  : INDUCTION DEEP CONDUCTIVITY
ILD1.OHMM  : INDUCTION LOG DEEP
SFLA.OHMM  : SFL RESISTIVITY (AVERAGED)
CALD.IN    : CALIPER FROM DENSITY LOG
PEF .B/E   : PHOTO ELECTRIC FACTOR
RHOB.G/C3  : BULK DENSITY
DRHO.G/C3  : BULK DENSITY CORRECTION
NPHI.DEC   : NEUTRON POROSITY
DPHI.DEC   : DENSITY POROSITY
DTCO.US/F  : DELTA-T COMPRESSIONAL
DTSM.US/F  : DELTA-T SHEAR
~Params ----------------------------------------------------
~Other -----------------------------------------------------
~ASCII -----------------------------------------------------
# ...
 7019.50000   -4.89790  106.05360    7.38740    5.41040    3.73360   -9999.25   -9999.25   -9999.25   13.10480    2.91920    2.54150    0.16820    0.29650    0.07490   83.59980  143.92010
 7020.00000   -5.12490  105.07710    7.07190    5.92810    3.22210   -9999.25   -9999.25   -9999.25   13.28070    2.85080    2.57910    0.16920    0.31890    0.08660   81.70950  133.29030
 7020.50000   -5.42540  104.43450    6.80460    5.93070    3.31290   -9999.25   -9999.25   -9999.25   13.38040    2.77470    2.53840    0.18310    0.34360    0.10630   70.87680  121.88780
 7021.00000   -5.63840  103.97160    6.54740    5.92470    3.41020   -9999.25   -9999.25   -9999.25   13.36890    2.74990    2.50460    0.21210    0.35540    0.12590   61.22020  106.29770
 7021.50000   -5.73720  103.47620    6.30000    5.93350    3.45400   -9999.25   -9999.25   -9999.25   13.37130    2.76330    2.47870    0.25210    0.36720    0.13770   51.44480   82.65550
 7022.00000   -5.80400  102.97310    6.06190    5.39750    3.46410   -9999.25   -9999.25   -9999.25   13.38790    2.79060    2.47790    0.24580    0.37660    0.13770   52.38040   84.76970
 7022.50000   -5.88990  102.18710    5.83280    4.75940    3.51070   -9999.25   -9999.25   -9999.25   13.42680    2.67030    2.46490    0.24180    0.38210    0.15190   54.97610   90.19340
 7023.00000   -5.98090  101.24000    5.74180    4.77130    3.53240   -9999.25   -9999.25   -9999.25   13.46520    2.40790    2.43250    0.22100    0.37670    0.18020   57.67980   86.49940
 7023.50000   -6.05960  101.35630    5.78670    4.85270    3.56200   -9999.25   -9999.25   -9999.25   13.64580    2.27100    2.39820    0.19870    0.36740    0.18800   60.27560   86.92460
 7024.00000   -6.13470  103.15800    5.83200    4.90840    3.86070   -9999.25   -9999.25   -9999.25   13.76820    2.31430    2.40260    0.17500    0.36010    0.16370   60.27560   87.34980
 7024.50000   -6.21880  104.98190    5.87770    4.88530    4.11040   -9999.25   -9999.25   -9999.25   13.68090    2.53530    2.42440    0.15410    0.34120    0.17180   60.27560   85.43640
 7025.00000   -6.30800  104.63590    5.92370    4.95720    4.42860   -9999.25   -9999.25   -9999.25   13.45350    2.84380    2.43170    0.15100    0.32830    0.19230   57.59350   82.88530
 7025.50000   -6.38350  102.43550    5.97000    4.91310    4.42860   -9999.25   -9999.25   -9999.25   13.22270    3.02890    2.37600    0.15130    0.32730    0.22340   53.74900   80.35430
 7026.00000   -6.42580  100.82580    6.01680    4.29340    3.95260   -9999.25   -9999.25   -9999.25   13.00750    2.87600    2.30650    0.16460    0.33290    0.27050   49.90450   80.35430
 7026.50000   -6.43470  101.07130    6.04210    4.35440    3.53700   -9999.25   -9999.25   -9999.25   12.80170    2.63750    2.23810    0.13280    0.34060    0.29980   47.81630   82.34500
 7027.00000   -6.42980  101.81720    5.64290    4.53390    3.12950   -9999.25   -9999.25   -9999.25   12.97990    2.50770    2.15480    0.11910    0.34600    0.30050   48.41340   84.78020
 7027.50000   -6.42820  101.28070    5.38500    4.62380    3.14270   -9999.25   -9999.25   -9999.25   13.16680    2.53670    2.13460    0.12220    0.36050    0.30120   49.90160   87.21550
 7028.00000   -6.43040   99.58190    5.13890    4.87860    3.15740   -9999.25   -9999.25   -9999.25   13.38550    2.58650    2.14420    0.12480    0.37250    0.30200   51.38980   89.65070
 7028.50000   -6.43040   98.23120    4.90400    4.69550    3.17220   -9999.25   -9999.25   -9999.25   13.49790    2.63630    2.21120    0.14610    0.37980    0.24860   52.79530   90.36280
 7029.00000   -6.42870   98.18450    4.59350    4.54760    3.18720   -9999.25   -9999.25   -9999.25   13.47540    2.53190    2.26720    0.16370    0.37980    0.24080   52.16690   88.98910
 7029.50000   -6.42850   99.17910    4.74510    4.25730    3.32460   -9999.25   -9999.25   -9999.25   13.47310    2.57660    2.30430    0.17950    0.37490    0.23620   51.57170   87.61540
 7030.00000   -6.42930  100.36620    5.00830    4.16390    3.56630   -9999.25   -9999.25   -9999.25   13.47010    2.60760    2.30970    0.20830    0.36280    0.24960   50.97640   86.24170
 7030.50000   -6.42910  101.00380    5.28600    3.85670    3.75700   -9999.25   -9999.25   -9999.25   13.44310    2.58770    2.29350    0.15940    0.35070    0.26150   50.42930   84.86800
 7031.00000   -6.42820  100.95070    5.57920    3.89730    3.42890   -9999.25   -9999.25   -9999.25   13.47710    2.49530    2.26100    0.13960    0.35190    0.27210   50.43060   85.52910
 7031.50000   -6.42840  100.54870    6.04210    3.88920    3.52310   -9999.25   -9999.25   -9999.25   13.59540    2.56790    2.21150    0.13150    0.35300    0.30110   50.43120   94.92130
 7032.00000   -6.42910   99.74390    5.99010    3.90580    3.66320   -9999.25   -9999.25   -9999.25   13.40150    2.65960    2.17910    0.12690    0.37320    0.30090   50.75950   94.10240
 7032.50000   -6.42820   98.25110    5.89200    5.71980    3.70330   -9999.25   -9999.25   -9999.25   12.70580    2.61190    2.12310    0.11890    0.38530    0.30070   51.82080   91.45670
 7033.00000   -6.42690   97.25500    5.79550    5.71980    5.35420   -9999.25   -9999.25   -9999.25   12.70880    2.54700    2.14010    0.11760    0.37020    0.30040   52.88450   88.81100
 7033.50000   -6.42810   99.08780    5.70060    5.71980    6.76650   -9999.25   -9999.25   -9999.25   12.57820    2.59940    2.21110    0.14570    0.34520    0.28510   53.94930   86.08660
 7034.00000   -6.43000  103.70730    5.60730    5.82530    4.87570   -9999.25   -9999.25   -9999.25   12.47660    2.64450    2.24530    0.16820    0.30510    0.24060   55.01370   87.37640
 7034.50000   -6.42690  107.47330    5.51540    5.35700    4.60520   -9999.25   -9999.25   -9999.25   12.37600    2.66260    2.28660    0.19840    0.30880    0.24300   56.05200   90.01100
 7035.00000   -6.42310  107.21390    5.41460    4.84600    4.46680   -9999.25   -9999.25   -9999.25   12.26380    2.68610    2.29830    0.19060    0.31800    0.24790   56.37790   88.87010
 7035.50000   -6.43560  103.85530    5.68190    4.42860    4.20900   -9999.25   -9999.25   -9999.25   12.15910    2.70500    2.28630    0.17170    0.32730    0.25280   55.38580   86.58820
 7036.00000   -6.47430  100.68410    6.00070    4.95880    4.63490   -9999.25   -9999.25   -9999.25   12.05720    2.72440    2.27560    0.15340    0.33650    0.25870   54.39370   84.30630
 7036.50000   -6.52910   99.57460    6.33730    6.04210    4.75820   -9999.25   -9999.25   -9999.25   11.95170    2.74860    2.26910    0.13710    0.34170    0.25770   53.40160   81.99610
 7037.00000   -6.58440   99.77480    6.69280    6.04210    5.42150   -9999.25   -9999.25   -9999.25   12.15090    2.70330    2.26930    0.12070    0.33300    0.23770   52.40950   82.80220
 7037.50000   -6.63560   99.34640    6.99330    5.20440    5.17540   -9999.25   -9999.25   -9999.25   12.44000    2.61950    2.31340    0.12750    0.31930    0.20530   51.41730   84.41440
 7038.00000   -6.68520   97.43400    6.76250    4.66620    5.31820   -9999.25   -9999.25   -9999.25   12.36550    2.54340    2.35640    0.13370    0.33740    0.21320   51.26850   86.02660
 7038.50000   -6.73530   94.84970    6.57540    4.18370    3.78530   -9999.25   -9999.25   -9999.25   12.26880    2.46970    2.32450    0.14210    0.35550    0.24170   52.35980   88.04800
 7039.00000   -6.78980   91.37330    6.39330    3.75100    4.18090   -9999.25   -9999.25   -9999.25   12.14970    2.38180    2.23890    0.13420    0.38450    0.27740   53.45120   90.32990
 7039.50000   -6.84630   83.91890    6.26700    3.36310    2.65930   -9999.25   -9999.25   -9999.25   11.72820    2.33280    2.15190    0.12700    0.36930    0.29900   54.54250   92.61180
 7040.00000   -6.89380   70.81290    6.20050    3.73420   14.88860   -9999.25   -9999.25   -9999.25   11.42450    2.50860    2.11230    0.09250    0.29100    0.29940   54.82430   94.89370
 7040.50000   -6.93630   54.38790    5.02080    4.59350  873.19250   -9999.25   -9999.25   -9999.25   10.51740    3.66010    2.29550    0.05820    0.15130    0.17780   54.06120   95.83070
