~Version ---------------------------------------------------
VERS.   2.0 : CWLS log ASCII Standard -VERSION 2.0
WRAP.    NO : One line per depth step
DLM . SPACE : Column Data Section Delimiter
~Well ------------------------------------------------------
STRT .F                  935.0 : START DEPTH
STOP .F                 8154.0 : STOP DEPTH
STEP .F                    0.5 : STEP
NULL .                -9999.25 : NULL VALUE
COMP .                         : COMPANY
WELL .                         : WELL
FLD  .                         : FIELD
LOC  .                         : LOCATION
PROV .                         : PROVINCE
CNTY .                         : COUNTY
STAT .                         : STATE
CTRY .                         : COUNTRY
SRVC .                         : SERVICE COMPANY
DATE .                         : DATE
UWI  .                         : UNIQUE WELL ID
API  .                         : API NUMBER
SLAT .WGS84  6.169118870436797 : SURFACE LATITUDE
SLON .WGS84 3.6801019744815022 : SURFACE LONGITUDE
DATUM.F                1774.67 : DEPTH DATUM ELEV
~Curve Information -----------------------------------------
DEPT.F     : 
SPR .MV    : SPONTANEOUS POTENTIAL FROM RESISTIVITY
GRR .GAPI  : GAMMA RAY FROM RESISTIVITY
SFLU.OHMM  : SFL RESISTIVITY (UNAVERAGED)
ILD .OHMM  : INDUCTION DEEP RESISTIVITY
ILM .OHMM  : INDUCTION MEDIUM RESISTIVITY
CILD.MMHO  : INDUCTION DEEP CONDUCTIVITY
ILD1.OHMM  : INDUCTION LOG DEEP
SFLA.OHMM  : SFL RESISTIVITY (AVERAGED)
CALD.IN    : CALIPER FROM DENSITY LOG
PEF .B/E   : PHOTO ELECTRIC FACTOR
RHOB.G/C3  : BULK DENSITY
DRHO.G/C3  : BULK DENSITY CORRECTION
NPHI.DEC   : NEUTRON POROSITY
DPHI.DEC   : DENSITY POROSITY
DTCO.US/F  : DELTA-T COMPRESSIONAL
DTSM.US/F  : DELTA-T SHEAR
~Params ----------------------------------------------------
~Other -----------------------------------------------------
~ASCII -----------------------------------------------------
# ...
 7471.00000   -6.42810   52.52640   51.25780   78.11840  615.35430   -9999.25   -9999.25   -9999.25    9.82300    2.13050    2.22370    0.07720    0.10110    0.29020   70.02670  109.98270
 7471.50000   -6.42920   51.00290   51.25780   88.65130 1315.60410   -9999.25   -9999.25   -9999.25    9.74180    2.29810    2.26910    0.07610    0.09670    0.25280   68.94680  111.45670
 7472.00000   -6.42740   49.71600   58.64430   97.17130 2000.00000   -9999.25   -9999.25   -9999.25    9.66980    2.55250    2.33300    0.07550    0.08430    0.22040   67.86820  109.75450
 7472.50000   -6.42540   48.20260   65.65610  105.17910 2000.00000   -9999.25   -9999.25   -9999.25    9.58410    2.74640    2.41260    0.07200    0.07510    0.18990   66.79320  108.30130
 7473.00000   -6.42870   46.07150   67.00840  112.46830 2000.00000   -9999.25   -9999.25   -9999.25    9.58720    2.79370    2.45030    0.06470    0.07140    0.15910   65.71090  106.84810
 7473.50000   -6.43170   42.69680   68.38850  127.93290 2000.00000   -9999.25   -9999.25   -9999.25    9.59710    2.74210    2.49740    0.04530    0.05840    0.12810   64.62860  105.39490
 7474.00000   -6.42440   38.65650   69.79710  145.99490 2000.00000   -9999.25   -9999.25   -9999.25    9.61080    2.75080    2.51290    0.04070    0.05410    0.11560   63.54630  103.94160
 7474.50000   -6.41880   37.32910   71.23470  548.41470 2000.00000   -9999.25   -9999.25   -9999.25    9.62170    2.76430    2.49600    0.03520    0.05340    0.12890   62.46400  102.48840
 7475.00000   -6.44580   38.73820   72.70190 1655.27550 2000.00000   -9999.25   -9999.25   -9999.25    9.63360    2.67630    2.49550    0.03050    0.05250    0.12630   62.24410  101.61420
 7475.50000   -6.51630   39.37910   73.87380 1648.11020 2000.00000   -9999.25   -9999.25   -9999.25    9.64550    2.55720    2.51200    0.02510    0.05160    0.12170   62.24410  101.61420
 7476.00000   -6.60430   39.78180   71.13580  625.94070 2000.00000   -9999.25   -9999.25   -9999.25    9.65720    2.41320    2.50730    0.01980    0.05100    0.11570   62.24410  101.61420
 7476.50000   -6.68200   42.35190   68.95980  264.19550  837.32000   -9999.25   -9999.25   -9999.25    9.66910    2.21950    2.48730    0.01440    0.06140    0.13040   64.24810  104.24270
 7477.00000   -6.75020   47.39320   66.20200  172.05980  352.83110   -9999.25   -9999.25   -9999.25    9.68090    2.16730    2.46650    0.00900    0.08870    0.14870   66.22220  108.55480
 7477.50000   -6.82220   55.65360   56.64520  105.28090  148.67640   -9999.25   -9999.25   -9999.25    9.69260    2.17040    2.43620    0.00680    0.11600    0.15970   68.19710  112.86690
 7478.00000   -6.89880   68.79740   45.13380   71.73830   49.41820   -9999.25   -9999.25   -9999.25    9.70440    2.21000    2.44770    0.00640    0.14870    0.14800   70.12710  117.17890
 7478.50000   -6.97310   83.69850   32.45990   48.40030   48.49870   -9999.25   -9999.25   -9999.25    9.71620    2.24260    2.48820    0.01380    0.15030    0.12850   69.59850  120.30610
 7479.00000   -7.04490   92.56600   31.87210   45.45450   47.25920   -9999.25   -9999.25   -9999.25    9.72790    2.27710    2.52700    0.02810    0.14630    0.10900   68.75290  119.40030
 7479.50000   -7.11820   92.86860   31.29500   45.12100   46.05150   -9999.25   -9999.25   -9999.25    9.73970    2.30660    2.55360    0.04290    0.14360    0.08950   67.76810  118.49440
 7480.00000   -7.19280   90.35480   30.72830   39.38610   45.10290   -9999.25   -9999.25   -9999.25    9.75150    2.40740    2.57260    0.04630    0.13930    0.07000   68.03150  117.58860
 7480.50000   -7.26630   89.30550   30.72830   34.48250   29.62540   -9999.25   -9999.25   -9999.25    9.76320    2.60960    2.61400    0.03150    0.14530    0.05730   68.36090  116.68270
 7481.00000   -7.33890   89.23610   31.84300   28.23180   27.30810   -9999.25   -9999.25   -9999.25    9.77500    2.81480    2.61420    0.01830    0.16020    0.05460   68.94420  117.54070
 7481.50000   -7.41290   91.22120   32.45990   23.20090   25.21140   -9999.25   -9999.25   -9999.25    9.78680    2.92400    2.62180    0.00730    0.17510    0.05190   69.84250  120.58760
 7482.00000   -7.48740   96.16580   31.38090   22.65460   23.79180   -9999.25   -9999.25   -9999.25    9.79850    2.98970    2.62970    0.00700    0.19010    0.04970   70.74090  123.63450
 7482.50000   -7.56040  101.23750   30.65810   22.23630   23.79180   -9999.25   -9999.25   -9999.25    9.81030    2.97670    2.63790    0.00680    0.19900    0.04320   71.63920  126.68140
 7483.00000   -7.63310  106.72340   29.62540   21.82560   23.79180   -9999.25   -9999.25   -9999.25    9.82210    2.96190    2.64680    0.00690    0.19980    0.03780   72.48030  130.74800
 7483.50000   -7.70850  111.67630   28.78490   21.32100   23.79180   -9999.25   -9999.25   -9999.25    9.83380    2.99820    2.65310    0.00690    0.19570    0.03240   71.75790  129.50610
 7484.00000   -7.78370  114.20030   27.26180   21.46960   23.79180   -9999.25   -9999.25   -9999.25    9.84560    3.02840    2.65920    0.00690    0.18550    0.03080   71.26380  127.63950
 7484.50000   -7.85390  113.02980   26.06810   21.67060   23.79180   -9999.25   -9999.25   -9999.25    9.85740    3.05690    2.65920    0.00690    0.17500    0.03340   70.76970  125.77300
 7485.00000   -7.92670  109.16710   26.06810   21.87350   23.79180   -9999.25   -9999.25   -9999.25    9.86910    2.98790    2.65100    0.00690    0.16400    0.03590   70.27560  124.05510
 7485.50000   -8.02470  104.83440   26.29940   22.07830   23.79180   -9999.25   -9999.25   -9999.25    9.88090    2.95750    2.64490    0.00690    0.15740    0.03850   70.07600  124.18850
 7486.00000   -8.16970  101.45820   25.89400   22.28510   23.87490   -9999.25   -9999.25   -9999.25    9.89270    3.02870    2.64490    0.00690    0.15740    0.03850   70.01430  124.31200
 7486.50000   -8.36270   99.57170   25.59600   22.49370   23.97630   -9999.25   -9999.25   -9999.25    9.90440    3.21810    2.64460    0.00690    0.17280    0.03680   69.95250  124.44880
 7487.00000   -8.57240   99.32830   25.38310   22.70440   24.07810   -9999.25   -9999.25   -9999.25    9.91620    3.27880    2.64810    0.00690    0.17810    0.03510   69.89070  124.04200
 7487.50000   -8.75950  100.05310   25.21470   22.93790   24.18030   -9999.25   -9999.25   -9999.25    9.92800    3.33820    2.65310    0.00690    0.18330    0.03340   69.82900  123.21850
 7488.00000   -8.93100  100.25630   24.67740   23.29120   24.28290   -9999.25   -9999.25   -9999.25    9.93970    3.37930    2.65790    0.00750    0.17950    0.03170   69.76720  122.49430
 7488.50000   -9.13800   98.91350   27.03850   23.68920   24.38600   -9999.25   -9999.25   -9999.25    9.95160    3.34180    2.66230    0.00800    0.17580    0.03010   69.57280  123.03920
 7489.00000   -9.37920   96.69600   27.27010   24.09410   24.48960   -9999.25   -9999.25   -9999.25    9.96330    3.26590    2.66230    0.00870    0.17200    0.02960   69.07870  123.44900
 7489.50000   -9.55040   95.51880   27.69700   24.67850   24.80620   -9999.25   -9999.25   -9999.25    9.97500    3.19310    2.66210    0.00850    0.16830    0.02880   68.58460  123.77850
 7490.00000   -9.55440   96.16680   28.13050   24.50110   24.44300   -9999.25   -9999.25   -9999.25    9.98700    3.11750    2.65550    0.00760    0.15660    0.03050   68.14960  124.06950
 7490.50000   -9.42530   96.82760   28.57090   24.16410   24.22650   -9999.25   -9999.25   -9999.25    9.99820    3.04800    2.65210    0.00710    0.15480    0.03390   68.42620  124.90030
 7491.00000   -9.27500   96.02150   29.08900   23.79050   22.95000   -9999.25   -9999.25   -9999.25   10.01040    2.96770    2.65110    0.00490    0.15420    0.03690   68.67320  125.64450
 7491.50000   -9.15590   96.32100   27.38830   23.42870   23.33060   -9999.25   -9999.25   -9999.25   10.00420    2.96060    2.65220    0.00140    0.15410    0.03530   68.93700  126.43890
 7492.00000   -9.04610  101.28930   25.49960   21.16570   22.56220   -9999.25   -9999.25   -9999.25    9.99780    3.02640    2.65660   -0.00100    0.16090    0.03200   69.39760  130.43140
