~Version ---------------------------------------------------
VERS.   2.0 : CWLS log ASCII Standard -VERSION 2.0
WRAP.    NO : One line per depth step
DLM . SPACE : Column Data Section Delimiter
~Well ------------------------------------------------------
STRT .F                  935.0 : START DEPTH
STOP .F                 8154.0 : STOP DEPTH
STEP .F                    0.5 : STEP
NULL .                -9999.25 : NULL VALUE
COMP .                         : COMPANY
WELL .                         : WELL
FLD  .                         : FIELD
LOC  .                         : LOCATION
PROV .                         : PROVINCE
CNTY .                         : COUNTY
STAT .                         : STATE
CTRY .                         : COUNTRY
SRVC .                         : SERVICE COMPANY
DATE .                         : DATE
UWI  .                         : UNIQUE WELL ID
API  .                         : API NUMBER
SLAT .WGS84  6.169118870436797 : SURFACE LATITUDE
SLON .WGS84 3.6801019744815022 : SURFACE LONGITUDE
DATUM.F                1774.67 : DEPTH DATUM ELEV
~Curve Information -----------------------------------------
DEPT.F     : 
SPR .MV    : SPONTANEOUS POTENTIAL FROM RESISTIVITY
GRR .GAPI  : GAMMA RAY FROM RESISTIVITY
SFLU.OHMM  : SFL RESISTIVITY (UNAVERAGED)
ILD .OHMM  : INDUCTION DEEP RESISTIVITY
ILM .OHMM  : INDUCTION MEDIUM RESISTIVITY
CILD.MMHO  : INDUCTION DEEP CONDUCTIVITY
ILD1.OHMM  : INDUCTION LOG DEEP
SFLA.OHMM  : SFL RESISTIVITY (AVERAGED)
CALD.IN    : CALIPER FROM DENSITY LOG
PEF .B/E   : PHOTO ELECTRIC FACTOR
RHOB.G/C3  : BULK DENSITY
DRHO.G/C3  : BULK DENSITY CORRECTION
NPHI.DEC   : NEUTRON POROSITY
DPHI.DEC   : DENSITY POROSITY
DTCO.US/F  : DELTA-T COMPRESSIONAL
DTSM.US/F  : DELTA-T SHEAR
~Params ----------------------------------------------------
~Other -----------------------------------------------------
~ASCII -----------------------------------------------------
# ...
 6912.00000  -17.53480   85.85510   15.66850   14.52580   15.77360   -9999.25   -9999.25   -9999.25   10.88770    2.61900    2.57960    0.02880    0.16520    0.07790   70.86870  122.44680
 6912.50000  -17.55170   82.07830   15.62740   15.77090   16.81250   -9999.25   -9999.25   -9999.25   10.86580    2.67710    2.58710    0.03220    0.15190    0.07460   69.94350  119.15920
 6913.00000  -17.53010   77.53590   16.46710   17.12260   17.01190   -9999.25   -9999.25   -9999.25   10.84440    2.71150    2.58670    0.03510    0.13850    0.07380   69.01840  114.72140
 6913.50000  -17.52790   73.10080   16.81250   15.89740   17.21360   -9999.25   -9999.25   -9999.25   10.82350    2.74170    2.58590    0.03750    0.13170    0.07450   68.09410  114.70620
 6914.00000  -17.54560   69.44800   18.00180   14.96230   17.43840   -9999.25   -9999.25   -9999.25   10.80050    2.70260    2.58810    0.04520    0.11960    0.07370   67.16940  113.89220
 6914.50000  -17.54230   67.60390   18.76080   14.08220   17.43840   -9999.25   -9999.25   -9999.25   10.78070    2.61620    2.59300    0.05070    0.10390    0.07170   66.18110  112.29630
 6915.00000  -17.52810   68.27030   17.64800   13.25390   15.78170   -9999.25   -9999.25   -9999.25   10.76680    2.53670    2.58750    0.05010    0.10950    0.07310   66.81100  112.50800
 6915.50000  -17.54280   70.75000   16.71360   12.32290   13.78110   -9999.25   -9999.25   -9999.25   10.81470    2.45600    2.58180    0.04970    0.11520    0.07670   67.47510  113.51080
 6916.00000  -17.56200   73.25180   15.82860   11.86760   11.53020   -9999.25   -9999.25   -9999.25   10.85870    2.38660    2.57560    0.04950    0.11960    0.08040   68.13910  115.84370
 6916.50000  -17.53440   74.39660   14.99050   11.24680   11.41980   -9999.25   -9999.25   -9999.25   10.86880    2.34590    2.57040    0.04890    0.15910    0.08400   68.80310  118.16460
 6917.00000  -17.50990   74.19400   14.26280   13.25740   12.50100   -9999.25   -9999.25   -9999.25   10.82540    2.29880    2.56330    0.04870    0.16150    0.08760   69.00900  119.28450
 6917.50000  -17.57300   73.36970   14.52580   13.07180   13.20140   -9999.25   -9999.25   -9999.25   10.78570    2.40850    2.55840    0.04850    0.16330    0.09020   67.44380  115.81000
 6918.00000  -17.61840   72.08150   15.53840   12.81030   14.16830   -9999.25   -9999.25   -9999.25   10.74790    2.56840    2.56400    0.05250    0.14420    0.08290   65.87850  110.66930
 6918.50000  -17.39110   70.27130   16.35850   12.55020   15.10510   -9999.25   -9999.25   -9999.25   10.70790    2.63240    2.59580    0.05660    0.11180    0.07010   65.16390  115.39370
 6919.00000  -16.82610   69.22060   17.22190   16.20910   16.19250   -9999.25   -9999.25   -9999.25   10.66180    2.55800    2.59750    0.05990    0.10390    0.06620   65.53740  113.76040
 6919.50000  -16.14610   70.89480   18.08750   13.50590   16.83910   -9999.25   -9999.25   -9999.25   10.69560    2.49590    2.58830    0.05830    0.11130    0.06620   65.91090  112.19520
 6920.00000  -15.54890   74.80300   17.68030   12.09970   12.79250   -9999.25   -9999.25   -9999.25   10.84180    2.43830    2.58020    0.05690    0.12060    0.08190   66.18110  110.58070
 6920.50000  -15.01030   77.42860   17.29970   43.48420   10.12000   -9999.25   -9999.25   -9999.25   10.98670    2.37880    2.57320    0.05590    0.12990    0.08140   64.80150  108.83760
 6921.00000  -14.46240   76.11810   16.92730   60.75770   11.56040   -9999.25   -9999.25   -9999.25   11.01620    2.48340    2.59350    0.05620    0.11390    0.07320   63.23620  107.09450
 6921.50000  -13.94180   71.84940   16.56290   78.03690   14.38970   -9999.25   -9999.25   -9999.25   10.97510    2.58240    2.61100    0.05600    0.09790    0.05990   61.85040  105.55120
 6922.00000  -13.48090   67.25260   16.20910   40.24210   18.48850   -9999.25   -9999.25   -9999.25   10.90610    2.61600    2.56070    0.05500    0.07880    0.05990   64.29290  114.59170
 6922.50000  -13.03580   64.20640   28.04500   20.93490   15.01180   -9999.25   -9999.25   -9999.25   10.89110    2.29480    2.47620    0.03540    0.08380    0.13980   66.18110  122.70250
 6923.00000  -12.58360   64.64760   28.04500   13.94420    9.67790   -9999.25   -9999.25   -9999.25   10.87140    1.76340    2.21770    0.02660    0.08850    0.23970   69.35590  130.81330
 6923.50000  -12.15560   71.10240   27.03850    8.24350    7.74430   -9999.25   -9999.25   -9999.25   10.84780    1.68530    1.99300    0.02230    0.19150    0.29950   72.14490  138.92410
 6924.00000  -11.75830   83.90170   22.62430    8.60360    1.94950   -9999.25   -9999.25   -9999.25   12.12040    1.72320    1.99270    0.08910    0.37250    0.29920   74.93390  147.03490
 6924.50000  -11.36250   98.92730   14.24400    9.01900    2.08060   -9999.25   -9999.25   -9999.25   13.31880    2.27770    1.99240    0.10640    0.35670    0.29890   77.72280  150.54880
 6925.00000  -10.95500  110.29550    9.23540    9.36840   74.37450   -9999.25   -9999.25   -9999.25   12.98770    2.73510    1.99250    0.12860    0.33160    0.29860   80.51180  150.74800
 6925.50000  -10.53920  115.42440    9.30520    9.03220 1063.69340   -9999.25   -9999.25   -9999.25   11.76150    3.23370    2.16180    0.15490    0.30670    0.29830   82.45970  150.22440
 6926.00000  -10.12380  116.47930   10.19810    7.62100  906.14900   -9999.25   -9999.25   -9999.25   11.01020    3.60200    2.68470    0.14970    0.30040    0.19470   81.23770  149.22830
 6926.50000   -9.72800  116.95700   10.58660    5.41460   93.75040   -9999.25   -9999.25   -9999.25   10.95480    3.56480    2.66440    0.10120    0.27290    0.02140   80.01620  148.78870
 6927.00000   -9.34170  118.08830   11.72730    5.78710   14.95320   -9999.25   -9999.25   -9999.25   10.94890    3.53480    2.67880    0.06870    0.26360    0.02340   78.79430  148.67800
 6927.50000   -8.91330  119.00080   11.72090    6.26700   12.99140   -9999.25   -9999.25   -9999.25   10.95580    3.52110    2.66690    0.04260    0.25420    0.02530   77.57030  148.56740
 6928.00000   -8.45250  119.04580   11.92640    8.70800   11.12140   -9999.25   -9999.25   -9999.25   10.94660    3.54330    2.68830    0.01700    0.24300    0.01670   76.43010  148.46460
 6928.50000   -8.09120  118.57460   12.10190    8.54660    9.32600   -9999.25   -9999.25   -9999.25   10.94410    3.66880    2.70120    0.01440    0.24420    0.00810   77.49330  148.99800
 6929.00000   -7.93800  118.01600   12.29940    8.38690    8.19380   -9999.25   -9999.25   -9999.25   10.94230    3.67200    2.69620    0.01270    0.24540    0.00880   78.48400  150.83860
 6929.50000   -7.92940  117.59720   12.02920    8.23020    7.91820   -9999.25   -9999.25   -9999.25   10.93940    3.62860    2.69070    0.01290    0.24180    0.00990   79.47590  153.83770
 6930.00000   -7.92150  117.74610   11.51310    8.09420    8.03840   -9999.25   -9999.25   -9999.25   10.93700    3.51010    2.68480    0.01280    0.23570    0.01280   80.35430  153.03840
 6930.50000   -7.86740  118.73920   11.25800    8.09540    7.87870   -9999.25   -9999.25   -9999.25   10.93410    3.40290    2.68390    0.01320    0.22730    0.01510   77.20470  151.62520
 6931.00000   -7.81470  120.20090   11.16090    8.86860    8.02900   -9999.25   -9999.25   -9999.25   10.93130    3.39360    2.69010    0.01430    0.22340    0.01250   78.13390  150.41040
 6931.50000   -7.78520  121.66870   11.11810    8.82980    7.98560   -9999.25   -9999.25   -9999.25   10.92840    3.43560    2.69500    0.01450    0.21940    0.00990   78.28570  153.36820
 6932.00000   -7.75300  123.17200   11.05280    8.78100    7.99950   -9999.25   -9999.25   -9999.25   10.92550    3.55200    2.70080    0.01210    0.21930    0.01050   78.00110  155.51640
 6932.50000   -7.70800  124.59890   10.98780    8.73240    8.01350   -9999.25   -9999.25   -9999.25   10.92270    3.65280    2.69200    0.00080    0.22180    0.01320   77.71650  150.77170
 6933.00000   -7.66620  125.14120   10.92320    8.68410    8.02750   -9999.25   -9999.25   -9999.25   10.91980    3.78810    2.67750    0.00550    0.22420    0.01600   78.47240  149.29320
