~Version ---------------------------------------------------
VERS.   2.0 : CWLS log ASCII Standard -VERSION 2.0
WRAP.    NO : One line per depth step
DLM . SPACE : Column Data Section Delimiter
~Well ------------------------------------------------------
STRT .FT                5249.0 : START DEPTH
STOP .FT                6226.0 : STOP DEPTH
STEP .FT                   0.5 : STEP
NULL .                -9999.25 : NULL VALUE
COMP .                         : COMPANY
WELL .                         : WELL
FLD  .                         : FIELD
LOC  .                         : LOCATION
PROV .                         : PROVINCE
CNTY .                         : COUNTY
STAT .                         : STATE
CTRY .                         : COUNTRY
SRVC .                         : SERVICE COMPANY
DATE .                         : DATE
UWI  .                         : UNIQUE WELL ID
API  .                         : API NUMBER
SLAT .WGS84 7.1761008739440015 : SURFACE LATITUDE
SLON .WGS84  6.222574757162008 : SURFACE LONGITUDE
DATUM.F                 3348.7 : DEPTH DATUM ELEV
~Curve Information -----------------------------------------
DEPT   .FT    : 
DTCO   .US/F  : DELTA-T COMPRESSIONAL
DTSM   .US/F  : DELTA-T SHEAR
GRD    .GAPI  : GAMMA RAY FROM DENSITY LOG
NPHI_LS.DEC   : NEUTRON POROSITY LIMESTONE
~Params ----------------------------------------------------
~Other -----------------------------------------------------
~ASCII -----------------------------------------------------
# ...
 5964.00000   57.21140  120.91930   90.72690    0.06560
 5964.50000   57.65250  122.62210   99.36900    0.07950
 5965.00000   58.20400  124.17850   95.44910    0.06430
 5965.50000   58.44380  123.85880   81.48760    0.03990
 5966.00000   58.48820  124.01870   73.70840    0.02780
 5966.50000   58.71030  124.17850   84.80020    0.03320
 5967.00000   58.84350  124.09860   99.76890    0.04460
 5967.50000   58.19260  123.62780  141.82250    0.05440
 5968.00000   57.30670  122.47320  150.66000    0.06120
 5968.50000   57.21680  121.43400  148.66710    0.05960
 5969.00000   57.07830  120.66130  152.57490    0.04810
 5969.50000   56.67860  120.76120  164.21830    0.03350
 5970.00000   56.54530  120.78010  168.22940    0.02720
 5970.50000   56.54530  120.20920  150.21260    0.02740
 5971.00000   56.74520  120.44980  120.83580    0.02820
 5971.50000   57.01160  121.59910  100.24830    0.03450
 5972.00000   57.14490  121.48590   74.15720    0.05470
 5972.50000   57.07830  120.58430   76.06120    0.07780
 5973.00000   56.47880  119.77300   81.60250    0.07450
 5973.50000   56.34550  119.27340   75.10880    0.05030
 5974.00000   56.39540  119.26800   61.62740    0.02910
 5974.50000   56.47870  119.28330   49.05580    0.01620
 5975.00000   56.54530  119.37840   52.80330    0.01620
 5975.50000   56.63420  119.79270   63.37730    0.02160
 5976.00000   56.74520  120.20690   77.57990    0.02990
 5976.50000   56.54540  119.02000   95.26120    0.04340
 5977.00000   56.07910  117.72080  100.14590    0.05200
 5977.50000   56.01240  118.25720  122.71410    0.05100
 5978.00000   56.81170  120.03030  127.10240    0.04230
 5978.50000   57.14490  121.22740  136.00700    0.03070
 5979.00000   57.07830  121.29400  146.22930    0.02210
 5979.50000   57.07830  121.29400  147.58990    0.02020
 5980.00000   57.20910  121.29400  134.89950    0.02840
 5980.50000   57.26730  121.29400  120.96940    0.04680
 5981.00000   57.40630  121.29400  113.90740    0.06750
 5981.50000   57.43380  121.29400  106.84530    0.07180
 5982.00000   57.03890  121.17830  111.71720    0.06140
 5982.50000   56.46820  120.24050  127.33450    0.05110
 5983.00000   56.15140  119.22420  144.26430    0.04300
 5983.50000   56.60930  120.17770  145.22490    0.03550
 5984.00000   57.35360  121.09960  142.12260    0.02830
 5984.50000   57.78820  122.02150  153.66900    0.02440
 5985.00000   58.02720  122.95820  171.39880    0.02160
 5985.50000   58.16780  123.58560  186.65150    0.01910
 5986.00000   57.75770  124.26120  173.30430    0.01810
 5986.50000   57.14900  124.40160  148.88840    0.02160
 5987.00000   56.93950  125.08190  129.66990    0.03550
 5987.50000   56.59460  125.76230  123.10470    0.06400
 5988.00000   56.45160  126.39740  120.05860    0.07300
 5988.50000   56.37530  127.12360  104.90520    0.05050
 5989.00000   56.89920  127.44520   91.05750    0.02470
 5989.50000   57.23820  127.82750   77.63480    0.00920
 5990.00000   57.57790  128.18230   74.08970    0.00460
 5990.50000   57.74440  128.47510   86.87540    0.00590
 5991.00000   57.85600  128.71490  100.14660    0.00910
 5991.50000   57.71880  128.67270  133.99940    0.01270
 5992.00000   57.58170  128.61990  134.39880    0.01680
 5992.50000   57.44460  128.52830  116.78810    0.02200
 5993.00000   57.01160  127.42760  100.24720    0.02790
 5993.50000   56.31220  126.15930   78.96820    0.03670
 5994.00000   55.73760  125.15880   84.84750    0.07160
 5994.50000   55.44620  124.79120   87.78640    0.16540
 5995.00000   55.55720  125.19090   78.56640    0.28710
 5995.50000   55.71260  126.29000   64.42620    0.38040
 5996.00000   56.04570  126.39710   60.26220    0.44640
 5996.50000   56.64520  126.50420   69.34240    0.48550
 5997.00000   57.51110  126.57240   84.96130    0.46380
 5997.50000   58.21070  126.26290   94.19280    0.41990
 5998.00000   58.59930  125.92370   96.92720    0.37820
 5998.50000   58.57710  125.33980   95.78670    0.35410
 5999.00000   58.31050  123.64930   94.78770    0.34170
 5999.50000   58.24400  121.76110   94.64920    0.37150
 6000.00000   58.24400  120.02800   96.45550    0.44540
 6000.50000   58.17740  118.29490   98.29380    0.47550
 6001.00000   57.77770  115.69540   94.64330    0.40520
 6001.50000   57.57790  112.79640   85.89110    0.30050
 6002.00000   57.71100  108.73140   76.96830    0.16350
 6002.50000   57.97760  103.20070   78.41490    0.11130
 6003.00000   58.11070   99.57790   87.59090    0.13480
 6003.50000   58.07080   96.10690   95.70600    0.14800
 6004.00000   57.97760   94.16750   95.90590    0.12140
 6004.50000   57.24480   93.60730   89.16620    0.08640
 6005.00000   57.21150   93.60730   77.06080    0.05230
 6005.50000   57.44470   93.85480   65.89500    0.03700
 6006.00000   57.71100   93.80420   67.09700    0.04640
 6006.50000   57.95750   93.97750   92.82280    0.08460
 6007.00000   58.14630   94.79710  127.25660    0.13170
 6007.50000   58.26400   94.82840  153.28410    0.17880
 6008.00000   58.00730   94.34860  155.20800    0.21430
 6008.50000   57.76530   93.93480  138.96810    0.23320
 6009.00000   57.52330   93.17860  122.72840    0.23930
 6009.50000   57.24480   92.39790  106.48870    0.24620
 6010.00000   56.67860   92.28900   85.63760    0.29980
 6010.50000   56.30110   91.73280   69.52020    0.41840
 6011.00000   56.07900   91.27170   61.98720    0.53860
 6011.50000   55.87930   90.81050   68.86180    0.59880
 6012.00000   56.22890   91.23520   86.44930    0.55770
 6012.50000   56.44540   91.28860  100.13860    0.50090
 6013.00000   55.87930   90.61430  159.93680    0.44300
 6013.50000   56.41200   91.96770  187.00990    0.44250
 6014.00000   58.67700   94.18220  197.11050    0.45690
 6014.50000   58.67700   95.44810  174.86910    0.43950
 6015.00000   58.27740   94.24550  139.91690    0.38060
 6015.50000   57.74440   94.04020  116.35380    0.30740
 6016.00000   57.74440   93.94610  107.11150    0.29970
 6016.50000   57.61110   93.85200  105.06780    0.41170
 6017.00000   56.74520   93.09680  104.70820    0.48400
 6017.50000   56.07910   91.91150  103.07250    0.46290
 6018.00000   56.21230   91.53160  100.75320    0.44460
 6018.50000   56.29000   94.61040  101.29780    0.46680
 6019.00000   56.34550   99.36140  106.61670    0.52390
 6019.50000   56.41200  103.03310  113.48540    0.52330
 6020.00000   56.77730  103.41120  118.97470    0.50320
 6020.50000   57.13530  103.11910  120.97540    0.49670
 6021.00000   57.59150  102.82700  120.70620    0.54820
 6021.50000   57.84840  102.45810  119.87890    0.61650
 6022.00000   57.70400  101.57390  118.37720    0.63480
 6022.50000   57.22860   99.62630  113.51070    0.49820
 6023.00000   56.48520   97.58090  104.71470    0.33580
 6023.50000   55.94240   95.75070  100.08360    0.15310
 6024.00000   55.79950   94.88250   78.68980    0.07240
 6024.50000   55.85490   94.82210   74.76020    0.10470
 6025.00000   56.24540   94.51730   77.55980    0.24860
 6025.50000   56.63520   93.73990   78.44600    0.30000
 6026.00000   56.35900   92.96240   72.44580    0.31350
 6026.50000   56.45950   92.77410   63.72730    0.18410
 6027.00000   56.93790   92.71160   60.45060    0.16530
 6027.50000   56.99490   91.80680   66.63470    0.24390
 6028.00000   56.58530   92.48910   76.20210    0.30040
 6028.50000   56.37500   93.75370   84.74140    0.32450
 6029.00000   56.29860   96.35270   93.79210    0.30060
 6029.50000   56.50170  102.24690   99.90220    0.22520
 6030.00000   56.61250  106.31080  127.06090    0.28450
 6030.50000   56.51190  110.37480  133.74210    0.42250
 6031.00000   55.97920  113.96980  130.43940    0.50730
 6031.50000   55.54910  116.95670  126.49940    0.54610
 6032.00000   55.09490  118.76170  128.26770    0.53400
 6032.50000   54.58030  120.56660  131.65840    0.51280
 6033.00000   55.04650  121.18810  135.04900    0.48850
 6033.50000   55.51270  115.94300  136.31510    0.46340
 6034.00000   56.00570  111.49580  134.85940    0.44750
 6034.50000   56.37210   97.64080  126.66340    0.43460
 6035.00000   56.25880   89.77400  117.74910    0.42170
