~Version ---------------------------------------------------
VERS.   2.0 : CWLS log ASCII Standard -VERSION 2.0
WRAP.    NO : One line per depth step
DLM . SPACE : Column Data Section Delimiter
~Well ------------------------------------------------------
STRT .FT                5249.0 : START DEPTH
STOP .FT                6226.0 : STOP DEPTH
STEP .FT                   0.5 : STEP
NULL .                -9999.25 : NULL VALUE
COMP .                         : COMPANY
WELL .                         : WELL
FLD  .                         : FIELD
LOC  .                         : LOCATION
PROV .                         : PROVINCE
CNTY .                         : COUNTY
STAT .                         : STATE
CTRY .                         : COUNTRY
SRVC .                         : SERVICE COMPANY
DATE .                         : DATE
UWI  .                         : UNIQUE WELL ID
API  .                         : API NUMBER
SLAT .WGS84 7.1761008739440015 : SURFACE LATITUDE
SLON .WGS84  6.222574757162008 : SURFACE LONGITUDE
DATUM.F                 3348.7 : DEPTH DATUM ELEV
~Curve Information -----------------------------------------
DEPT   .FT    : 
DTCO   .US/F  : DELTA-T COMPRESSIONAL
DTSM   .US/F  : DELTA-T SHEAR
GRD    .GAPI  : GAMMA RAY FROM DENSITY LOG
NPHI_LS.DEC   : NEUTRON POROSITY LIMESTONE
~Params ----------------------------------------------------
~Other -----------------------------------------------------
~ASCII -----------------------------------------------------
# ...
 6035.50000   55.84590   87.11560  111.81980    0.41090
 6036.00000   55.51270   86.78200  110.26400    0.40580
 6036.50000   55.91240   86.71490  111.18360    0.42370
 6037.00000   56.41200   87.66920  109.73410    0.46330
 6037.50000   56.91160   89.05650  107.03140    0.50380
 6038.00000   57.11150   89.61140  105.12940    0.50150
 6038.50000   57.04490   89.53570  107.21960    0.48160
 6039.00000   56.77850   89.31040  118.75440    0.49300
 6039.50000   56.64520   89.40970  143.43740    0.52960
 6040.00000   56.57870   90.09760  174.73850    0.56180
 6040.50000   56.71180   91.04080  199.84550    0.57720
 6041.00000   57.44470   94.53750  199.94790    0.57520
 6041.50000   57.99230  106.90670  172.48140    0.53300
 6042.00000   58.51030  113.08520  137.92690    0.46820
 6042.50000   58.51030  112.96050  110.89990    0.42130
 6043.00000   58.44380  110.82070   94.86390    0.43030
 6043.50000   58.97680  108.68090   86.80120    0.44620
 6044.00000   59.24320  106.54110   84.39810    0.41560
 6044.50000   59.46520  104.39430   81.84900    0.37220
 6045.00000   59.50960  101.93880   77.81440    0.41250
 6045.50000   59.04330   98.26660   72.48860    0.50760
 6046.00000   57.82520   93.67130   67.94310    0.60340
 6046.50000   56.37880   89.13020   65.74420    0.67040
 6047.00000   56.31210   87.26760   68.27550    0.65470
 6047.50000   56.77850   85.40500   74.16630    0.58400
 6048.00000   57.31130   82.84400   78.87190    0.51550
 6048.50000   57.24480   80.80760   82.77150    0.46350
 6049.00000   56.97840   80.20760   83.42410    0.43210
 6049.50000   56.91160   80.00740   79.82050    0.42480
 6050.00000   56.54580   80.00690   71.90280    0.52590
 6050.50000   56.34540   80.05990   61.73760    0.67830
 6051.00000   56.83250   80.62620   55.83100    0.70070
 6051.50000   57.64440   81.72530   59.84790    0.70060
 6052.00000   57.32460   83.22410   66.65650    0.67470
 6052.50000   57.88420   85.62220   70.46560    0.56300
 6053.00000   58.84340   90.24090   68.77490    0.46970
 6053.50000   58.52370   90.28530   66.38220    0.39350
 6054.00000   57.96410   87.48750   65.37700    0.39420
 6054.50000   57.40460   86.84800   66.39180    0.41210
 6055.00000   56.92490   86.44840   68.64460    0.47480
 6055.50000   56.84500   86.36840   71.19720    0.44670
 6056.00000   56.92490   90.11400   72.66810    0.37100
 6056.50000   55.65150   97.47960   72.07720    0.33090
 6057.00000   53.66700   98.43890   71.64050    0.38530
 6057.50000   51.61570   97.63950   74.23190    0.48340
 6058.00000   49.65070   94.60190   80.03500    0.57320
 6058.50000   46.75300   85.80890   85.92150    0.62990
 6059.00000   46.41990   84.21010   89.46240    0.63140
 6059.50000   48.79590   87.59410   90.62340    0.60730
 6060.00000   51.34940   92.51130   90.58800    0.57090
 6060.50000   54.45800  100.04380   89.04420    0.55250
 6061.00000   58.61020  107.57630   86.62750    0.57210
 6061.50000   63.10660  113.29370   84.47520    0.59560
 6062.00000   62.67380  116.03150   83.57430    0.58890
 6062.50000   58.01070  115.29870   83.04010    0.56190
 6063.00000   56.12330  113.15830   83.36690    0.53490
 6063.50000   54.88000  106.76280   84.94220    0.50790
 6064.00000   55.87920   98.97160   86.97640    0.47440
 6064.50000   57.87760   93.59370   88.18680    0.43930
 6065.00000   55.27960   89.48590   86.87010    0.40410
 6065.50000   60.64870   96.01410   85.29680    0.36900
 6066.00000   76.86250  114.07980   85.85010    0.35450
 6066.50000   78.20830  131.13300   87.73830    0.43400
 6067.00000   73.08830  123.45900   87.56810    0.54870
 6067.50000   64.55490  107.76920   82.36860    0.63620
 6068.00000   57.27810  102.73370   78.16800    0.61170
 6068.50000   56.50080   99.23870   76.99940    0.54010
 6069.00000   55.57940   96.15020   78.39890    0.48560
 6069.50000   55.07980   93.78800   78.92870    0.44560
 6070.00000   54.09250   91.90990   78.47560    0.44910
 6070.50000   53.00480   90.03180   78.34430    0.46580
 6071.00000   52.72770   87.47390   78.73060    0.46410
 6071.50000   53.11750   83.89640   79.96630    0.43660
 6072.00000   53.90690   80.63930   82.51580    0.39870
 6072.50000   54.44970   78.48020   85.59260    0.36390
 6073.00000   54.88690   78.87140   85.39870    0.36240
 6073.50000   54.81170   80.62420   80.59070    0.39360
 6074.00000   55.06550   82.61900   75.21550    0.45570
 6074.50000   55.58860   89.55910   73.23260    0.56480
 6075.00000   56.24470  102.52330   74.84870    0.64710
 6075.50000   56.68900  103.81380   75.57160    0.64060
 6076.00000   56.49190  103.93920   74.40760    0.50680
 6076.50000   55.21700  104.89690   73.47360    0.36110
 6077.00000   54.20780  108.48480   73.80480    0.29950
 6077.50000   54.34780  109.37650   74.33760    0.25060
 6078.00000   55.08720  108.51830   75.43800    0.38520
 6078.50000   55.67630  104.16310   77.38090    0.45100
 6079.00000   56.16520   99.68120   80.60290    0.45710
 6079.50000   56.78870   96.67590   83.62330    0.43470
 6080.00000   56.84500   94.21290   84.19650    0.41520
 6080.50000   56.51190   89.59100   80.48030    0.44680
 6081.00000   56.24550   88.50670   76.13450    0.49350
 6081.50000   55.84580   90.27580   75.62860    0.53290
 6082.00000   55.44610   92.50020   77.94470    0.52980
 6082.50000   55.24630   94.72450   79.14820    0.49050
 6083.00000   55.77920   98.66190   76.97000    0.43830
 6083.50000   57.15150  103.50150   76.29820    0.36640
 6084.00000   56.72130  106.73230   79.09280    0.30390
 6084.50000   56.29110  108.33100   82.38980    0.30340
 6085.00000   55.92240  110.56920   81.75660    0.39770
 6085.50000   56.22970  113.99120   78.95290    0.51940
 6086.00000   56.29110  117.29710   77.86860    0.61570
 6086.50000   56.16490  119.49540   79.58840    0.61510
 6087.00000   55.95450  118.79590   79.37290    0.56660
 6087.50000   55.91240  114.01220   76.84000    0.51720
 6088.00000   56.11230  108.07940   73.41910    0.47590
 6088.50000   56.25500  100.91010   69.16120    0.48060
 6089.00000   56.30260   97.32960   68.08160    0.53020
 6089.50000   56.31210   96.71340   68.44030    0.57900
 6090.00000   56.11230   97.91250   68.10460    0.62470
 6090.50000   56.17870  104.89950   68.28050    0.66120
 6091.00000   56.77830  111.10710   69.50520    0.69300
 6091.50000   57.31120  114.40610   71.46810    0.69990
 6092.00000   57.11130  114.64590   72.83510    0.66950
 6092.50000   56.37860  114.24200   74.31860    0.60190
 6093.00000   56.18830  113.66660   77.62300    0.58820
 6093.50000   56.11210  111.54160   82.36710    0.61600
 6094.00000   56.81160  108.60390   87.29340    0.61670
 6094.50000   57.24460  106.62090   90.00690    0.56270
 6095.00000   56.97810  105.81380   90.97830    0.51900
 6095.50000   56.51180  104.90690   93.01010    0.51640
 6096.00000   56.51180  103.80770   96.12070    0.56550
 6096.50000   56.51180   99.64100   96.55360    0.62570
 6097.00000   56.17870   94.79490   94.04120    0.66250
 6097.50000   55.64580   89.95870   92.01240    0.63260
 6098.00000   55.29060   85.79980   94.16330    0.57650
 6098.50000   55.25950   84.19000   97.16190    0.53300
 6099.00000   55.31280   84.42990   99.18180    0.51340
 6099.50000   55.44600   84.66970  100.19070    0.52330
 6100.00000   55.24610   84.66970   98.25010    0.53860
 6100.50000   55.04650   84.82970   94.02470    0.53710
 6101.00000   54.78010   85.30930   90.63990    0.51750
 6101.50000   54.78010   86.82810   90.36640    0.49200
 6102.00000   55.15310   88.10710   92.54910    0.46720
 6102.50000   55.15750   90.90490   94.93640    0.44730
 6103.00000   54.97990   97.35310   94.27650    0.43130
 6103.50000   54.91330  105.70210   90.74150    0.42180
 6104.00000   55.44620  110.00980   87.71520    0.41960
 6104.50000   56.21890  112.72760   86.83400    0.41980
 6105.00000   56.37880  112.48780   86.61670    0.42490
 6105.50000   56.51200  109.69830   84.79120    0.45040
 6106.00000   56.57860  102.20310   82.26690    0.49040
 6106.50000   56.41210   94.19440   79.43270    0.52190
