~Version ---------------------------------------------------
VERS.   2.0 : CWLS log ASCII Standard -VERSION 2.0
WRAP.    NO : One line per depth step
DLM . SPACE : Column Data Section Delimiter
~Well ------------------------------------------------------
STRT .FT                5249.0 : START DEPTH
STOP .FT                6226.0 : STOP DEPTH
STEP .FT                   0.5 : STEP
NULL .                -9999.25 : NULL VALUE
COMP .                         : COMPANY
WELL .                         : WELL
FLD  .                         : FIELD
LOC  .                         : LOCATION
PROV .                         : PROVINCE
CNTY .                         : COUNTY
STAT .                         : STATE
CTRY .                         : COUNTRY
SRVC .                         : SERVICE COMPANY
DATE .                         : DATE
UWI  .                         : UNIQUE WELL ID
API  .                         : API NUMBER
SLAT .WGS84 7.1761008739440015 : SURFACE LATITUDE
SLON .WGS84  6.222574757162008 : SURFACE LONGITUDE
DATUM.F                 3348.7 : DEPTH DATUM ELEV
~Curve Information -----------------------------------------
DEPT   .FT    : 
DTCO   .US/F  : DELTA-T COMPRESSIONAL
DTSM   .US/F  : DELTA-T SHEAR
GRD    .GAPI  : GAMMA RAY FROM DENSITY LOG
NPHI_LS.DEC   : NEUTRON POROSITY LIMESTONE
~Params ----------------------------------------------------
~Other -----------------------------------------------------
~ASCII -----------------------------------------------------
# ...
 5821.00000   -9999.25   -9999.25  200.32470    0.40210
 5821.50000   -9999.25   -9999.25  200.31540    0.40410
 5822.00000   -9999.25   -9999.25  200.30620    0.38790
 5822.50000   -9999.25   -9999.25  171.00220    0.32000
 5823.00000   -9999.25   -9999.25  110.48420    0.30040
 5823.50000   -9999.25   -9999.25   81.81210    0.15210
 5824.00000   -9999.25   -9999.25   65.10530    0.12450
 5824.50000   -9999.25   -9999.25   68.31320    0.16690
 5825.00000   -9999.25   -9999.25   79.76770    0.27210
 5825.50000   -9999.25   -9999.25   90.23320    0.37370
 5826.00000   -9999.25   -9999.25   87.82770    0.34290
 5826.50000   -9999.25   -9999.25   75.40610    0.30040
 5827.00000   -9999.25   -9999.25   64.53460    0.13150
 5827.50000   -9999.25   -9999.25   63.77000    0.10570
 5828.00000   -9999.25   -9999.25   78.09480    0.13610
 5828.50000   -9999.25   -9999.25   97.78280    0.16930
 5829.00000   -9999.25   -9999.25  113.41230    0.16890
 5829.50000   -9999.25   -9999.25  107.86570    0.13360
 5830.00000   -9999.25   -9999.25  100.44790    0.08370
 5830.50000   -9999.25   -9999.25   58.38820    0.04560
 5831.00000   -9999.25   -9999.25   45.02280    0.03570
 5831.50000   -9999.25   -9999.25   51.60550    0.05710
 5832.00000   -9999.25   -9999.25   75.23490    0.09760
 5832.50000   -9999.25   -9999.25   87.86020    0.13850
 5833.00000   -9999.25   -9999.25   94.85870    0.19640
 5833.50000   -9999.25   -9999.25  100.48270    0.26200
 5834.00000   -9999.25   -9999.25  105.72890    0.28760
 5834.50000   -9999.25   -9999.25  108.11060    0.26470
 5835.00000   -9999.25   -9999.25  108.46920    0.21400
 5835.50000   -9999.25   -9999.25  117.49120    0.24820
 5836.00000   -9999.25   -9999.25  134.56900    0.28800
 5836.50000   -9999.25   -9999.25  155.68080    0.32500
 5837.00000   -9999.25   -9999.25  172.38960    0.30940
 5837.50000   -9999.25   -9999.25  178.71940    0.27500
 5838.00000   -9999.25   -9999.25  163.75050    0.25420
 5838.50000   -9999.25   -9999.25  154.70000    0.23390
 5839.00000   -9999.25   -9999.25  150.45160    0.21630
 5839.50000   -9999.25   -9999.25  158.29130    0.24920
 5840.00000   -9999.25   -9999.25  173.42330    0.30040
 5840.50000   -9999.25   -9999.25  192.48260    0.45450
 5841.00000   -9999.25   -9999.25  200.37370    0.42620
 5841.50000   -9999.25   -9999.25  200.42250    0.37210
 5842.00000   -9999.25   -9999.25  200.48350    0.32050
 5842.50000   -9999.25   -9999.25  198.83720    0.27750
 5843.00000   -9999.25   -9999.25  152.17770    0.27690
 5843.50000   -9999.25   -9999.25  128.78040    0.29960
 5844.00000   -9999.25   -9999.25  117.33760    0.39020
 5844.50000   -9999.25   -9999.25  125.70660    0.43410
 5845.00000   -9999.25   -9999.25  143.25410    0.42420
 5845.50000   -9999.25   -9999.25  162.59400    0.39120
 5846.00000   -9999.25   -9999.25  185.57470    0.36220
 5846.50000   -9999.25   -9999.25  199.54360    0.34100
 5847.00000   -9999.25   -9999.25  200.49600    0.33110
 5847.50000   -9999.25   -9999.25  200.49600    0.33220
 5848.00000   -9999.25   -9999.25  200.18350    0.33190
 5848.50000   -9999.25   -9999.25  196.78770    0.32080
 5849.00000   -9999.25   -9999.25  200.44390    0.32250
 5849.50000   -9999.25   -9999.25  200.59750    0.34870
 5850.00000   -9999.25   -9999.25  200.63950    0.46540
 5850.50000   -9999.25   -9999.25  200.58620    0.51590
 5851.00000   -9999.25   -9999.25  200.37250    0.40510
 5851.50000   -9999.25   -9999.25  164.00520    0.30080
 5852.00000   -9999.25   -9999.25  109.21980    0.12170
 5852.50000   -9999.25   -9999.25   81.32080    0.11810
 5853.00000   -9999.25   -9999.25   89.54090    0.16180
 5853.50000   -9999.25   -9999.25   96.69170    0.19680
 5854.00000   -9999.25   -9999.25   89.27390    0.17210
 5854.50000   -9999.25   -9999.25   72.98230    0.11530
 5855.00000   -9999.25   -9999.25   58.19670    0.07530
 5855.50000   -9999.25   -9999.25   46.66900    0.04640
 5856.00000   -9999.25   -9999.25   39.56050    0.02870
 5856.50000   -9999.25   -9999.25   34.11200    0.01700
 5857.00000   -9999.25   -9999.25   32.68780    0.01070
 5857.50000   -9999.25   -9999.25   38.95100    0.01060
 5858.00000   -9999.25   -9999.25   54.80970    0.01530
 5858.50000   -9999.25   -9999.25   67.11950    0.01670
 5859.00000   -9999.25   -9999.25   74.53760    0.01970
 5859.50000   -9999.25   -9999.25   78.15250    0.03740
 5860.00000   -9999.25   -9999.25   82.44540    0.06520
 5860.50000   -9999.25   -9999.25   94.88740    0.08170
 5861.00000   -9999.25   -9999.25  100.07930    0.06400
 5861.50000   -9999.25   -9999.25  134.87590    0.03850
 5862.00000   -9999.25   -9999.25  133.13860    0.02700
 5862.50000   -9999.25   -9999.25  112.64480    0.02400
 5863.00000   -9999.25   -9999.25  100.19250    0.04650
 5863.50000   -9999.25   -9999.25   90.01550    0.12350
 5864.00000   -9999.25   -9999.25  100.17360    0.21730
 5864.50000   -9999.25   -9999.25  146.43830    0.25900
 5865.00000   -9999.25   -9999.25  146.10440    0.22900
 5865.50000   -9999.25   -9999.25  129.34740    0.10620
 5866.00000   -9999.25   -9999.25  126.25680    0.10230
 5866.50000   -9999.25   -9999.25  141.56060    0.14230
 5867.00000   -9999.25   -9999.25  155.86210    0.20360
 5867.50000   -9999.25   -9999.25  154.85980    0.28400
 5868.00000   -9999.25   -9999.25  141.32340    0.41240
 5868.50000   -9999.25   -9999.25  124.90400    0.37820
 5869.00000   -9999.25   -9999.25  106.22600    0.30080
 5869.50000   -9999.25   -9999.25   80.67880    0.13480
 5870.00000   -9999.25   -9999.25   66.64590    0.03570
 5870.50000   -9999.25   -9999.25   59.61670    0.04750
 5871.00000   -9999.25   -9999.25   67.66250    0.10530
 5871.50000   -9999.25   -9999.25   82.36120    0.24480
 5872.00000   -9999.25   -9999.25   91.87440    0.39360
 5872.50000   -9999.25   -9999.25   97.44290    0.36680
 5873.00000   -9999.25   -9999.25   93.63390    0.29990
 5873.50000   -9999.25   -9999.25   90.55990    0.12870
 5874.00000   -9999.25   -9999.25  100.25020    0.18020
 5874.50000   -9999.25   -9999.25  157.30160    0.28380
 5875.00000   -9999.25   -9999.25  192.08590    0.35790
 5875.50000   -9999.25   -9999.25  200.45680    0.41860
 5876.00000   -9999.25   -9999.25  200.37400    0.43340
 5876.50000   -9999.25   -9999.25  185.88950    0.41790
 5877.00000   -9999.25   -9999.25  127.53050    0.30070
 5877.50000   -9999.25   -9999.25  102.91930    0.15810
 5878.00000   -9999.25   -9999.25   57.92430    0.07000
 5878.50000   -9999.25   -9999.25   47.07830    0.03090
 5879.00000   -9999.25   -9999.25   56.53130    0.10490
 5879.50000   -9999.25   -9999.25   80.80270    0.25910
 5880.00000   -9999.25   -9999.25  100.19190    0.30070
 5880.50000   -9999.25   -9999.25  112.36180    0.33540
 5881.00000   -9999.25   -9999.25  104.32030    0.30060
 5881.50000   -9999.25   -9999.25   82.67210    0.06410
 5882.00000   -9999.25   -9999.25   78.52910    0.08360
 5882.50000   -9999.25   -9999.25   95.80500    0.17750
 5883.00000   -9999.25   -9999.25  138.81800    0.28210
 5883.50000   -9999.25   -9999.25  180.06180    0.38970
 5884.00000   -9999.25   -9999.25  200.30220    0.44120
 5884.50000   -9999.25   -9999.25  200.29970    0.40900
 5885.00000   -9999.25   -9999.25  178.19830    0.31720
 5885.50000   -9999.25   -9999.25  139.19980    0.20170
 5886.00000   -9999.25   -9999.25  100.20130    0.10630
 5886.50000   -9999.25   -9999.25   96.95700    0.07690
 5887.00000   -9999.25   -9999.25  100.23210    0.09390
 5887.50000   -9999.25   -9999.25  128.98390    0.12260
 5888.00000   -9999.25   -9999.25  134.40940    0.14440
 5888.50000   -9999.25   -9999.25  140.33000    0.20850
 5889.00000   -9999.25   -9999.25  148.84530    0.28500
 5889.50000   -9999.25   -9999.25  157.91700    0.43220
 5890.00000   -9999.25   -9999.25  165.12480    0.51240
 5890.50000   -9999.25   -9999.25  173.74240    0.50080
 5891.00000   -9999.25   -9999.25  185.58930    0.43180
 5891.50000   -9999.25   -9999.25  179.67270    0.34430
 5892.00000   -9999.25   -9999.25  162.08850    0.29950
