~Version ---------------------------------------------------
VERS.   2.0 : CWLS log ASCII Standard -VERSION 2.0
WRAP.    NO : One line per depth step
DLM . SPACE : Column Data Section Delimiter
~Well ------------------------------------------------------
STRT .FT                5249.0 : START DEPTH
STOP .FT                6226.0 : STOP DEPTH
STEP .FT                   0.5 : STEP
NULL .                -9999.25 : NULL VALUE
COMP .                         : COMPANY
WELL .                         : WELL
FLD  .                         : FIELD
LOC  .                         : LOCATION
PROV .                         : PROVINCE
CNTY .                         : COUNTY
STAT .                         : STATE
CTRY .                         : COUNTRY
SRVC .                         : SERVICE COMPANY
DATE .                         : DATE
UWI  .                         : UNIQUE WELL ID
API  .                         : API NUMBER
SLAT .WGS84 7.1761008739440015 : SURFACE LATITUDE
SLON .WGS84  6.222574757162008 : SURFACE LONGITUDE
DATUM.F                 3348.7 : DEPTH DATUM ELEV
~Curve Information -----------------------------------------
DEPT   .FT    : 
DTCO   .US/F  : DELTA-T COMPRESSIONAL
DTSM   .US/F  : DELTA-T SHEAR
GRD    .GAPI  : GAMMA RAY FROM DENSITY LOG
NPHI_LS.DEC   : NEUTRON POROSITY LIMESTONE
~Params ----------------------------------------------------
~Other -----------------------------------------------------
~ASCII -----------------------------------------------------
# ...
 5606.50000   -9999.25   -9999.25   50.74330    0.25390
 5607.00000   -9999.25   -9999.25   53.68380    0.27930
 5607.50000   -9999.25   -9999.25   54.91850    0.29590
 5608.00000   -9999.25   -9999.25   54.40770    0.28570
 5608.50000   -9999.25   -9999.25   52.33060    0.27300
 5609.00000   -9999.25   -9999.25   49.90860    0.27720
 5609.50000   -9999.25   -9999.25   49.30270    0.28530
 5610.00000   -9999.25   -9999.25   51.63110    0.29330
 5610.50000   -9999.25   -9999.25   54.68220    0.29980
 5611.00000   -9999.25   -9999.25   56.93700    0.35360
 5611.50000   -9999.25   -9999.25   60.04290    0.39220
 5612.00000   -9999.25   -9999.25   63.52060    0.43880
 5612.50000   -9999.25   -9999.25   65.73080    0.46540
 5613.00000   -9999.25   -9999.25   64.86330    0.46210
 5613.50000   -9999.25   -9999.25   60.84440    0.39330
 5614.00000   -9999.25   -9999.25   55.87930    0.32460
 5614.50000   -9999.25   -9999.25   51.10950    0.29980
 5615.00000   -9999.25   -9999.25   48.69180    0.26870
 5615.50000   -9999.25   -9999.25   50.18910    0.25810
 5616.00000   -9999.25   -9999.25   54.79210    0.26370
 5616.50000   -9999.25   -9999.25   60.16210    0.28620
 5617.00000   -9999.25   -9999.25   62.96590    0.29970
 5617.50000   -9999.25   -9999.25   60.34980    0.31870
 5618.00000   -9999.25   -9999.25   55.37570    0.29920
 5618.50000   -9999.25   -9999.25   51.85640    0.25850
 5619.00000   -9999.25   -9999.25   52.31780    0.26270
 5619.50000   -9999.25   -9999.25   56.55060    0.28900
 5620.00000   -9999.25   -9999.25   60.14440    0.34430
 5620.50000   -9999.25   -9999.25   64.21510    0.35100
 5621.00000   -9999.25   -9999.25   63.18220    0.33870
 5621.50000   -9999.25   -9999.25   60.33150    0.32470
 5622.00000   -9999.25   -9999.25   59.05550    0.31610
 5622.50000   -9999.25   -9999.25   60.41230    0.32820
 5623.00000   -9999.25   -9999.25   61.85340    0.34690
 5623.50000   -9999.25   -9999.25   61.35390    0.35970
 5624.00000   -9999.25   -9999.25   59.56510    0.35410
 5624.50000   -9999.25   -9999.25   57.59910    0.34530
 5625.00000   -9999.25   -9999.25   58.14960    0.34180
 5625.50000   -9999.25   -9999.25   59.82780    0.33960
 5626.00000   -9999.25   -9999.25   60.08280    0.33560
 5626.50000   -9999.25   -9999.25   56.31390    0.31570
 5627.00000   -9999.25   -9999.25   50.88800    0.29930
 5627.50000   -9999.25   -9999.25   46.37780    0.24300
 5628.00000   -9999.25   -9999.25   45.87870    0.23160
 5628.50000   -9999.25   -9999.25   49.61990    0.24810
 5629.00000   -9999.25   -9999.25   55.74180    0.29940
 5629.50000   -9999.25   -9999.25   62.47350    0.36000
 5630.00000   -9999.25   -9999.25   64.92510    0.37960
 5630.50000   -9999.25   -9999.25   63.15830    0.37880
 5631.00000   -9999.25   -9999.25   60.90680    0.36350
 5631.50000   -9999.25   -9999.25   59.90970    0.34230
 5632.00000   -9999.25   -9999.25   62.20210    0.32190
 5632.50000   -9999.25   -9999.25   65.02300    0.31050
 5633.00000   -9999.25   -9999.25   66.40140    0.30980
 5633.50000   -9999.25   -9999.25   65.60720    0.31470
 5634.00000   -9999.25   -9999.25   65.07310    0.33230
 5634.50000   -9999.25   -9999.25   64.98840    0.35440
 5635.00000   -9999.25   -9999.25   64.08970    0.37540
 5635.50000   -9999.25   -9999.25   60.34570    0.35270
 5636.00000   -9999.25   -9999.25   54.41350    0.30020
 5636.50000   -9999.25   -9999.25   51.03490    0.25740
 5637.00000   -9999.25   -9999.25   50.82790    0.25670
 5637.50000   -9999.25   -9999.25   52.79730    0.27080
 5638.00000   -9999.25   -9999.25   55.36570    0.29990
 5638.50000   -9999.25   -9999.25   59.81320    0.33220
 5639.00000   -9999.25   -9999.25   63.79190    0.35960
 5639.50000   -9999.25   -9999.25   67.35570    0.42850
 5640.00000   -9999.25   -9999.25   70.64280    0.49370
 5640.50000   -9999.25   -9999.25   75.26190    0.53360
 5641.00000   -9999.25   -9999.25   79.50050    0.55210
 5641.50000   -9999.25   -9999.25   82.70140    0.53860
 5642.00000   -9999.25   -9999.25   81.98440    0.47450
 5642.50000   -9999.25   -9999.25   79.30600    0.42440
 5643.00000   -9999.25   -9999.25   76.29040    0.39850
 5643.50000   -9999.25   -9999.25   75.83130    0.41050
 5644.00000   -9999.25   -9999.25   75.31090    0.43740
 5644.50000   -9999.25   -9999.25   73.47190    0.42750
 5645.00000   -9999.25   -9999.25   69.43650    0.39580
 5645.50000   -9999.25   -9999.25   64.37430    0.36810
 5646.00000   -9999.25   -9999.25   59.86860    0.38150
 5646.50000   -9999.25   -9999.25   54.80830    0.42110
 5647.00000   -9999.25   -9999.25   52.10870    0.44510
 5647.50000   -9999.25   -9999.25   51.77510    0.41220
 5648.00000   -9999.25   -9999.25   51.29910    0.35130
 5648.50000   -9999.25   -9999.25   48.59690    0.31370
 5649.00000   -9999.25   -9999.25   45.92380    0.28470
 5649.50000   -9999.25   -9999.25   44.77820    0.26970
 5650.00000   -9999.25   -9999.25   43.96220    0.24980
 5650.50000   -9999.25   -9999.25   42.70080    0.21050
 5651.00000   -9999.25   -9999.25   41.10760    0.18890
 5651.50000   -9999.25   -9999.25   40.81150    0.18330
 5652.00000   -9999.25   -9999.25   40.84150    0.17790
 5652.50000   -9999.25   -9999.25   39.39480    0.15980
 5653.00000   -9999.25   -9999.25   35.69750    0.14130
 5653.50000   -9999.25   -9999.25   32.13390    0.12890
 5654.00000   -9999.25   -9999.25   30.68630    0.13090
 5654.50000   -9999.25   -9999.25   32.84760    0.14630
 5655.00000   -9999.25   -9999.25   36.97690    0.19050
 5655.50000   -9999.25   -9999.25   43.70470    0.24700
 5656.00000   -9999.25   -9999.25   49.89170    0.29210
 5656.50000   -9999.25   -9999.25   53.47510    0.27720
 5657.00000   -9999.25   -9999.25   49.39450    0.24390
 5657.50000   -9999.25   -9999.25   43.97860    0.22420
 5658.00000   -9999.25   -9999.25   41.98070    0.23480
 5658.50000   -9999.25   -9999.25   46.87650    0.26560
 5659.00000   -9999.25   -9999.25   54.72110    0.29560
 5659.50000   -9999.25   -9999.25   62.14320    0.33950
 5660.00000   -9999.25   -9999.25   67.61320    0.37330
 5660.50000   -9999.25   -9999.25   69.18550    0.40310
 5661.00000   -9999.25   -9999.25   66.94460    0.41450
 5661.50000   -9999.25   -9999.25   62.89420    0.37050
 5662.00000   -9999.25   -9999.25   57.30320    0.29980
 5662.50000   -9999.25   -9999.25   47.37920    0.19670
 5663.00000   -9999.25   -9999.25   39.47700    0.17380
 5663.50000   -9999.25   -9999.25   37.09670    0.18010
 5664.00000   -9999.25   -9999.25   37.49490    0.19430
 5664.50000   -9999.25   -9999.25   39.02900    0.19690
 5665.00000   -9999.25   -9999.25   40.63480    0.18990
 5665.50000   -9999.25   -9999.25   41.94720    0.18450
 5666.00000   -9999.25   -9999.25   45.81910    0.18290
 5666.50000   -9999.25   -9999.25   51.39820    0.18860
 5667.00000   -9999.25   -9999.25   57.51100    0.20790
 5667.50000   -9999.25   -9999.25   62.34360    0.24550
 5668.00000   -9999.25   -9999.25   65.27480    0.28880
 5668.50000   -9999.25   -9999.25   68.84060    0.30010
 5669.00000   -9999.25   -9999.25   72.35660    0.34570
 5669.50000   -9999.25   -9999.25   75.43610    0.35450
 5670.00000   -9999.25   -9999.25   78.12650    0.35660
 5670.50000   -9999.25   -9999.25   79.11200    0.34730
 5671.00000   -9999.25   -9999.25   78.29670    0.35020
 5671.50000   -9999.25   -9999.25   76.85110    0.37990
 5672.00000   -9999.25   -9999.25   75.53050    0.40890
 5672.50000   -9999.25   -9999.25   74.37800    0.44280
 5673.00000   -9999.25   -9999.25   73.05430    0.43110
 5673.50000   -9999.25   -9999.25   69.90630    0.39490
 5674.00000   -9999.25   -9999.25   66.10540    0.36710
 5674.50000   -9999.25   -9999.25   62.96550    0.36980
 5675.00000   -9999.25   -9999.25   62.46580    0.37590
 5675.50000   -9999.25   -9999.25   62.66780    0.34970
 5676.00000   -9999.25   -9999.25   60.33360    0.30950
 5676.50000   -9999.25   -9999.25   55.96110    0.29960
 5677.00000   -9999.25   -9999.25   54.75140    0.33060
 5677.50000   -9999.25   -9999.25   58.36830    0.35070
