~Version ---------------------------------------------------
VERS.   2.0 : CWLS log ASCII Standard -VERSION 2.0
WRAP.    NO : One line per depth step
DLM . SPACE : Column Data Section Delimiter
~Well ------------------------------------------------------
STRT .FT                5249.0 : START DEPTH
STOP .FT                6226.0 : STOP DEPTH
STEP .FT                   0.5 : STEP
NULL .                -9999.25 : NULL VALUE
COMP .                         : COMPANY
WELL .                         : WELL
FLD  .                         : FIELD
LOC  .                         : LOCATION
PROV .                         : PROVINCE
CNTY .                         : COUNTY
STAT .                         : STATE
CTRY .                         : COUNTRY
SRVC .                         : SERVICE COMPANY
DATE .                         : DATE
UWI  .                         : UNIQUE WELL ID
API  .                         : API NUMBER
SLAT .WGS84 7.1761008739440015 : SURFACE LATITUDE
SLON .WGS84  6.222574757162008 : SURFACE LONGITUDE
DATUM.F                 3348.7 : DEPTH DATUM ELEV
~Curve Information -----------------------------------------
DEPT   .FT    : 
DTCO   .US/F  : DELTA-T COMPRESSIONAL
DTSM   .US/F  : DELTA-T SHEAR
GRD    .GAPI  : GAMMA RAY FROM DENSITY LOG
NPHI_LS.DEC   : NEUTRON POROSITY LIMESTONE
~Params ----------------------------------------------------
~Other -----------------------------------------------------
~ASCII -----------------------------------------------------
# ...
 5749.50000   -9999.25   -9999.25   86.47290    0.23120
 5750.00000   -9999.25   -9999.25   83.78290    0.22920
 5750.50000   -9999.25   -9999.25   82.11650    0.21660
 5751.00000   -9999.25   -9999.25   81.84320    0.19210
 5751.50000   -9999.25   -9999.25   83.64670    0.16440
 5752.00000   -9999.25   -9999.25   85.68020    0.14410
 5752.50000   -9999.25   -9999.25   87.08800    0.16440
 5753.00000   -9999.25   -9999.25   88.79520    0.21970
 5753.50000   -9999.25   -9999.25   90.79370    0.27920
 5754.00000   -9999.25   -9999.25   91.74110    0.30090
 5754.50000   -9999.25   -9999.25   90.24330    0.32060
 5755.00000   -9999.25   -9999.25   87.68400    0.31320
 5755.50000   -9999.25   -9999.25   88.20450    0.30630
 5756.00000   -9999.25   -9999.25   92.27960    0.30480
 5756.50000   -9999.25   -9999.25   96.12910    0.30040
 5757.00000   -9999.25   -9999.25   97.12050    0.27820
 5757.50000   -9999.25   -9999.25   96.15170    0.25730
 5758.00000   -9999.25   -9999.25   93.87970    0.24770
 5758.50000   -9999.25   -9999.25   94.48140    0.26000
 5759.00000   -9999.25   -9999.25   99.42680    0.27770
 5759.50000   -9999.25   -9999.25  109.86750    0.27770
 5760.00000   -9999.25   -9999.25  115.94900    0.23990
 5760.50000   -9999.25   -9999.25  116.66200    0.20080
 5761.00000   -9999.25   -9999.25  113.03130    0.19010
 5761.50000   -9999.25   -9999.25  106.62710    0.22240
 5762.00000   -9999.25   -9999.25  100.22290    0.27810
 5762.50000   -9999.25   -9999.25   96.99360    0.32820
 5763.00000   -9999.25   -9999.25   95.07860    0.32910
 5763.50000   -9999.25   -9999.25   93.59900    0.31750
 5764.00000   -9999.25   -9999.25   92.64140    0.30070
 5764.50000   -9999.25   -9999.25   92.19600    0.29030
 5765.00000   -9999.25   -9999.25   95.06980    0.28840
 5765.50000   -9999.25   -9999.25  100.28260    0.29190
 5766.00000   -9999.25   -9999.25  110.76650    0.29020
 5766.50000   -9999.25   -9999.25  121.54270    0.27510
 5767.00000   -9999.25   -9999.25  133.63880    0.25310
 5767.50000   -9999.25   -9999.25  140.42200    0.22520
 5768.00000   -9999.25   -9999.25  135.64390    0.19330
 5768.50000   -9999.25   -9999.25  115.92980    0.16310
 5769.00000   -9999.25   -9999.25  102.76490    0.13680
 5769.50000   -9999.25   -9999.25   98.67200    0.15060
 5770.00000   -9999.25   -9999.25  100.20920    0.19730
 5770.50000   -9999.25   -9999.25  125.21970    0.23810
 5771.00000   -9999.25   -9999.25  118.90460    0.22600
 5771.50000   -9999.25   -9999.25  100.02580    0.16860
 5772.00000   -9999.25   -9999.25   68.87920    0.09710
 5772.50000   -9999.25   -9999.25   45.73740    0.04110
 5773.00000   -9999.25   -9999.25   52.51580    0.04120
 5773.50000   -9999.25   -9999.25   67.45680    0.08320
 5774.00000   -9999.25   -9999.25   89.97810    0.14660
 5774.50000   -9999.25   -9999.25  107.76230    0.21850
 5775.00000   -9999.25   -9999.25  116.23290    0.26180
 5775.50000   -9999.25   -9999.25  124.47190    0.28010
 5776.00000   -9999.25   -9999.25  131.59880    0.28350
 5776.50000   -9999.25   -9999.25  135.10380    0.29390
 5777.00000   -9999.25   -9999.25  134.83760    0.31480
 5777.50000   -9999.25   -9999.25  130.50160    0.31980
 5778.00000   -9999.25   -9999.25  125.14600    0.31300
 5778.50000   -9999.25   -9999.25  120.74510    0.30510
 5779.00000   -9999.25   -9999.25  124.78840    0.30040
 5779.50000   -9999.25   -9999.25  134.59120    0.29530
 5780.00000   -9999.25   -9999.25  145.04940    0.30030
 5780.50000   -9999.25   -9999.25  152.55600    0.33650
 5781.00000   -9999.25   -9999.25  158.73540    0.35350
 5781.50000   -9999.25   -9999.25  164.37240    0.35880
 5782.00000   -9999.25   -9999.25  163.37740    0.35760
 5782.50000   -9999.25   -9999.25  160.67630    0.35210
 5783.00000   -9999.25   -9999.25  163.13820    0.34360
 5783.50000   -9999.25   -9999.25  171.74630    0.33700
 5784.00000   -9999.25   -9999.25  181.84230    0.34450
 5784.50000   -9999.25   -9999.25  188.18100    0.36080
 5785.00000   -9999.25   -9999.25  187.17880    0.37520
 5785.50000   -9999.25   -9999.25  180.10690    0.38000
 5786.00000   -9999.25   -9999.25  172.09370    0.36970
 5786.50000   -9999.25   -9999.25  168.73180    0.35280
 5787.00000   -9999.25   -9999.25  170.41710    0.34250
 5787.50000   -9999.25   -9999.25  176.81710    0.36130
 5788.00000   -9999.25   -9999.25  191.18570    0.39080
 5788.50000   -9999.25   -9999.25  200.09670    0.40610
 5789.00000   -9999.25   -9999.25  200.19260    0.42570
 5789.50000   -9999.25   -9999.25  200.12630    0.45730
 5790.00000   -9999.25   -9999.25  200.05790    0.46750
 5790.50000   -9999.25   -9999.25  199.16190    0.39400
 5791.00000   -9999.25   -9999.25  143.66690    0.30000
 5791.50000   -9999.25   -9999.25  110.33340    0.16370
 5792.00000   -9999.25   -9999.25  100.03320    0.12500
 5792.50000   -9999.25   -9999.25   80.35860    0.11520
 5793.00000   -9999.25   -9999.25   85.74960    0.10330
 5793.50000   -9999.25   -9999.25   93.99190    0.11080
 5794.00000   -9999.25   -9999.25   99.87300    0.14170
 5794.50000   -9999.25   -9999.25  108.78860    0.17250
 5795.00000   -9999.25   -9999.25  103.87700    0.18530
 5795.50000   -9999.25   -9999.25   85.80250    0.14640
 5796.00000   -9999.25   -9999.25   68.53340    0.10050
 5796.50000   -9999.25   -9999.25   53.64270    0.06130
 5797.00000   -9999.25   -9999.25   48.02930    0.05220
 5797.50000   -9999.25   -9999.25   54.57860    0.06360
 5798.00000   -9999.25   -9999.25   69.71540    0.09560
 5798.50000   -9999.25   -9999.25   95.81200    0.15780
 5799.00000   -9999.25   -9999.25  122.49000    0.22250
 5799.50000   -9999.25   -9999.25  141.20210    0.27180
 5800.00000   -9999.25   -9999.25  137.14250    0.30050
 5800.50000   -9999.25   -9999.25  125.46440    0.33930
 5801.00000   -9999.25   -9999.25  119.41670    0.37140
 5801.50000   -9999.25   -9999.25  119.15290    0.38890
 5802.00000   -9999.25   -9999.25  117.76470    0.35610
 5802.50000   -9999.25   -9999.25  116.51090    0.30980
 5803.00000   -9999.25   -9999.25  116.04110    0.27570
 5803.50000   -9999.25   -9999.25  115.20100    0.25590
 5804.00000   -9999.25   -9999.25  111.56470    0.23300
 5804.50000   -9999.25   -9999.25  104.04730    0.18290
 5805.00000   -9999.25   -9999.25  100.43880    0.11780
 5805.50000   -9999.25   -9999.25   96.78450    0.11920
 5806.00000   -9999.25   -9999.25  100.59380    0.15010
 5806.50000   -9999.25   -9999.25  110.99830    0.18220
 5807.00000   -9999.25   -9999.25  119.61930    0.20050
 5807.50000   -9999.25   -9999.25  127.71310    0.22950
 5808.00000   -9999.25   -9999.25  134.99020    0.27730
 5808.50000   -9999.25   -9999.25  133.05240    0.33750
 5809.00000   -9999.25   -9999.25  128.12950    0.39680
 5809.50000   -9999.25   -9999.25  121.92950    0.39760
 5810.00000   -9999.25   -9999.25  116.86540    0.37230
 5810.50000   -9999.25   -9999.25  109.94530    0.33760
 5811.00000   -9999.25   -9999.25  106.74970    0.30300
 5811.50000   -9999.25   -9999.25  116.71330    0.31450
 5812.00000   -9999.25   -9999.25  132.60650    0.36120
 5812.50000   -9999.25   -9999.25  146.30490    0.40300
 5813.00000   -9999.25   -9999.25  156.77800    0.40780
 5813.50000   -9999.25   -9999.25  155.20770    0.39980
 5814.00000   -9999.25   -9999.25  149.16220    0.38000
 5814.50000   -9999.25   -9999.25  140.12930    0.36020
 5815.00000   -9999.25   -9999.25  131.17070    0.33230
 5815.50000   -9999.25   -9999.25  122.50980    0.30440
 5816.00000   -9999.25   -9999.25  116.56210    0.30190
 5816.50000   -9999.25   -9999.25  111.81040    0.33510
 5817.00000   -9999.25   -9999.25  105.02080    0.42700
 5817.50000   -9999.25   -9999.25  100.44340    0.51200
 5818.00000   -9999.25   -9999.25   95.26290    0.54410
 5818.50000   -9999.25   -9999.25   98.82730    0.51010
 5819.00000   -9999.25   -9999.25  118.68810    0.46130
 5819.50000   -9999.25   -9999.25  150.36480    0.43210
 5820.00000   -9999.25   -9999.25  182.56310    0.41290
 5820.50000   -9999.25   -9999.25  200.33390    0.40570
