~Version ---------------------------------------------------
VERS.   2.0 : CWLS log ASCII Standard -VERSION 2.0
WRAP.    NO : One line per depth step
DLM . SPACE : Column Data Section Delimiter
~Well ------------------------------------------------------
STRT .FT                5249.0 : START DEPTH
STOP .FT                6226.0 : STOP DEPTH
STEP .FT                   0.5 : STEP
NULL .                -9999.25 : NULL VALUE
COMP .                         : COMPANY
WELL .                         : WELL
FLD  .                         : FIELD
LOC  .                         : LOCATION
PROV .                         : PROVINCE
CNTY .                         : COUNTY
STAT .                         : STATE
CTRY .                         : COUNTRY
SRVC .                         : SERVICE COMPANY
DATE .                         : DATE
UWI  .                         : UNIQUE WELL ID
API  .                         : API NUMBER
SLAT .WGS84 7.1761008739440015 : SURFACE LATITUDE
SLON .WGS84  6.222574757162008 : SURFACE LONGITUDE
DATUM.F                 3348.7 : DEPTH DATUM ELEV
~Curve Information -----------------------------------------
DEPT   .FT    : 
DTCO   .US/F  : DELTA-T COMPRESSIONAL
DTSM   .US/F  : DELTA-T SHEAR
GRD    .GAPI  : GAMMA RAY FROM DENSITY LOG
NPHI_LS.DEC   : NEUTRON POROSITY LIMESTONE
~Params ----------------------------------------------------
~Other -----------------------------------------------------
~ASCII -----------------------------------------------------
# ...
 5535.00000   -9999.25   -9999.25   65.09100    0.35840
 5535.50000   -9999.25   -9999.25   64.03790    0.39190
 5536.00000   -9999.25   -9999.25   60.97250    0.37100
 5536.50000   -9999.25   -9999.25   56.25990    0.32180
 5537.00000   -9999.25   -9999.25   51.73050    0.27800
 5537.50000   -9999.25   -9999.25   48.15630    0.24600
 5538.00000   -9999.25   -9999.25   51.96600    0.26210
 5538.50000   -9999.25   -9999.25   67.89810    0.30010
 5539.00000   -9999.25   -9999.25   89.18920    0.41420
 5539.50000   -9999.25   -9999.25  100.18690    0.54190
 5540.00000   -9999.25   -9999.25  116.80960    0.62840
 5540.50000   -9999.25   -9999.25  121.61700    0.68360
 5541.00000   -9999.25   -9999.25  124.30270    0.67950
 5541.50000   -9999.25   -9999.25  125.30680    0.60260
 5542.00000   -9999.25   -9999.25  121.27060    0.53360
 5542.50000   -9999.25   -9999.25  112.06470    0.49130
 5543.00000   -9999.25   -9999.25  102.13310    0.47200
 5543.50000   -9999.25   -9999.25   91.31260    0.48180
 5544.00000   -9999.25   -9999.25   86.12890    0.50340
 5544.50000   -9999.25   -9999.25   80.85940    0.52370
 5545.00000   -9999.25   -9999.25   75.46120    0.53450
 5545.50000   -9999.25   -9999.25   67.20020    0.53240
 5546.00000   -9999.25   -9999.25   57.41530    0.53990
 5546.50000   -9999.25   -9999.25   53.06540    0.56750
 5547.00000   -9999.25   -9999.25   52.71640    0.60130
 5547.50000   -9999.25   -9999.25   54.18680    0.63250
 5548.00000   -9999.25   -9999.25   55.13190    0.64770
 5548.50000   -9999.25   -9999.25   53.67340    0.63890
 5549.00000   -9999.25   -9999.25   52.43180    0.62500
 5549.50000   -9999.25   -9999.25   53.30910    0.61410
 5550.00000   -9999.25   -9999.25   55.36960    0.58810
 5550.50000   -9999.25   -9999.25   57.62960    0.53710
 5551.00000   -9999.25   -9999.25   59.67530    0.49230
 5551.50000   -9999.25   -9999.25   61.17610    0.47610
 5552.00000   -9999.25   -9999.25   61.53950    0.50090
 5552.50000   -9999.25   -9999.25   61.23730    0.53560
 5553.00000   -9999.25   -9999.25   61.31810    0.57920
 5553.50000   -9999.25   -9999.25   61.68130    0.61900
 5554.00000   -9999.25   -9999.25   61.07470    0.63360
 5554.50000   -9999.25   -9999.25   57.89670    0.60650
 5555.00000   -9999.25   -9999.25   53.91540    0.58110
 5555.50000   -9999.25   -9999.25   53.48120    0.56200
 5556.00000   -9999.25   -9999.25   57.01390    0.53720
 5556.50000   -9999.25   -9999.25   61.10920    0.47830
 5557.00000   -9999.25   -9999.25   62.55070    0.41860
 5557.50000   -9999.25   -9999.25   61.95160    0.38000
 5558.00000   -9999.25   -9999.25   59.78330    0.33350
 5558.50000   -9999.25   -9999.25   55.99750    0.31640
 5559.00000   -9999.25   -9999.25   50.63260    0.29990
 5559.50000   -9999.25   -9999.25   47.18370    0.29330
 5560.00000   -9999.25   -9999.25   45.94410    0.28570
 5560.50000   -9999.25   -9999.25   45.41150    0.27450
 5561.00000   -9999.25   -9999.25   44.48110    0.25830
 5561.50000   -9999.25   -9999.25   43.54790    0.24400
 5562.00000   -9999.25   -9999.25   43.54590    0.23600
 5562.50000   -9999.25   -9999.25   43.01690    0.22740
 5563.00000   -9999.25   -9999.25   41.01010    0.21300
 5563.50000   -9999.25   -9999.25   37.60970    0.20130
 5564.00000   -9999.25   -9999.25   35.13320    0.20750
 5564.50000   -9999.25   -9999.25   35.07310    0.22610
 5565.00000   -9999.25   -9999.25   36.80560    0.24320
 5565.50000   -9999.25   -9999.25   39.93810    0.25380
 5566.00000   -9999.25   -9999.25   43.72800    0.25450
 5566.50000   -9999.25   -9999.25   44.70220    0.25030
 5567.00000   -9999.25   -9999.25   44.06330    0.24480
 5567.50000   -9999.25   -9999.25   43.70680    0.24080
 5568.00000   -9999.25   -9999.25   44.70760    0.24090
 5568.50000   -9999.25   -9999.25   45.89520    0.24800
 5569.00000   -9999.25   -9999.25   46.80250    0.25840
 5569.50000   -9999.25   -9999.25   48.45750    0.26820
 5570.00000   -9999.25   -9999.25   51.60120    0.27880
 5570.50000   -9999.25   -9999.25   55.15140    0.29120
 5571.00000   -9999.25   -9999.25   58.45990    0.29970
 5571.50000   -9999.25   -9999.25   57.14680    0.30930
 5572.00000   -9999.25   -9999.25   54.28830    0.29990
 5572.50000   -9999.25   -9999.25   50.60390    0.27420
 5573.00000   -9999.25   -9999.25   47.23350    0.24060
 5573.50000   -9999.25   -9999.25   43.92260    0.20570
 5574.00000   -9999.25   -9999.25   39.79650    0.18790
 5574.50000   -9999.25   -9999.25   36.78380    0.18270
 5575.00000   -9999.25   -9999.25   35.53500    0.17360
 5575.50000   -9999.25   -9999.25   34.55410    0.16420
 5576.00000   -9999.25   -9999.25   33.41510    0.15530
 5576.50000   -9999.25   -9999.25   34.64030    0.15380
 5577.00000   -9999.25   -9999.25   37.97920    0.16770
 5577.50000   -9999.25   -9999.25   42.57270    0.18990
 5578.00000   -9999.25   -9999.25   45.54140    0.21600
 5578.50000   -9999.25   -9999.25   47.24500    0.23340
 5579.00000   -9999.25   -9999.25   48.58510    0.25210
 5579.50000   -9999.25   -9999.25   50.38770    0.27310
 5580.00000   -9999.25   -9999.25   52.56690    0.28040
 5580.50000   -9999.25   -9999.25   52.26720    0.26850
 5581.00000   -9999.25   -9999.25   50.98120    0.25940
 5581.50000   -9999.25   -9999.25   50.69050    0.26850
 5582.00000   -9999.25   -9999.25   52.11370    0.28700
 5582.50000   -9999.25   -9999.25   53.84370    0.29810
 5583.00000   -9999.25   -9999.25   54.27700    0.32060
 5583.50000   -9999.25   -9999.25   54.47840    0.35180
 5584.00000   -9999.25   -9999.25   55.30140    0.36140
 5584.50000   -9999.25   -9999.25   53.92290    0.31960
 5585.00000   -9999.25   -9999.25   50.63860    0.25710
 5585.50000   -9999.25   -9999.25   48.92920    0.20610
 5586.00000   -9999.25   -9999.25   54.49250    0.23090
 5586.50000   -9999.25   -9999.25   61.46180    0.26930
 5587.00000   -9999.25   -9999.25   66.11360    0.30000
 5587.50000   -9999.25   -9999.25   65.51500    0.40140
 5588.00000   -9999.25   -9999.25   62.96790    0.39930
 5588.50000   -9999.25   -9999.25   59.99670    0.34420
 5589.00000   -9999.25   -9999.25   57.14910    0.30020
 5589.50000   -9999.25   -9999.25   55.14420    0.29670
 5590.00000   -9999.25   -9999.25   55.98330    0.38310
 5590.50000   -9999.25   -9999.25   58.48450    0.46170
 5591.00000   -9999.25   -9999.25   59.92650    0.54510
 5591.50000   -9999.25   -9999.25   58.47450    0.58970
 5592.00000   -9999.25   -9999.25   55.99410    0.60180
 5592.50000   -9999.25   -9999.25   54.06120    0.58500
 5593.00000   -9999.25   -9999.25   53.48460    0.58270
 5593.50000   -9999.25   -9999.25   54.42170    0.58590
 5594.00000   -9999.25   -9999.25   56.05860    0.57770
 5594.50000   -9999.25   -9999.25   57.48150    0.55380
 5595.00000   -9999.25   -9999.25   57.38680    0.52200
 5595.50000   -9999.25   -9999.25   56.71990    0.49930
 5596.00000   -9999.25   -9999.25   55.80160    0.48600
 5596.50000   -9999.25   -9999.25   54.06140    0.48140
 5597.00000   -9999.25   -9999.25   52.66590    0.49680
 5597.50000   -9999.25   -9999.25   53.11890    0.53520
 5598.00000   -9999.25   -9999.25   54.14510    0.57560
 5598.50000   -9999.25   -9999.25   55.34190    0.61980
 5599.00000   -9999.25   -9999.25   56.20450    0.64060
 5599.50000   -9999.25   -9999.25   57.57840    0.61640
 5600.00000   -9999.25   -9999.25   59.83780    0.56390
 5600.50000   -9999.25   -9999.25   60.74690    0.55650
 5601.00000   -9999.25   -9999.25   59.57240    0.56150
 5601.50000   -9999.25   -9999.25   56.89100    0.52520
 5602.00000   -9999.25   -9999.25   53.85300    0.45620
 5602.50000   -9999.25   -9999.25   51.98060    0.40240
 5603.00000   -9999.25   -9999.25   50.91840    0.41460
 5603.50000   -9999.25   -9999.25   50.27260    0.44280
 5604.00000   -9999.25   -9999.25   49.94350    0.44060
 5604.50000   -9999.25   -9999.25   49.61440    0.37430
 5605.00000   -9999.25   -9999.25   48.16200    0.32070
 5605.50000   -9999.25   -9999.25   46.77650    0.26470
 5606.00000   -9999.25   -9999.25   47.74140    0.24090
