~Version ---------------------------------------------------
VERS.   2.0 : CWLS log ASCII Standard -VERSION 2.0
WRAP.    NO : One line per depth step
DLM . SPACE : Column Data Section Delimiter
~Well ------------------------------------------------------
STRT .FT                5249.0 : START DEPTH
STOP .FT                6226.0 : STOP DEPTH
STEP .FT                   0.5 : STEP
NULL .                -9999.25 : NULL VALUE
COMP .                         : COMPANY
WELL .                         : WELL
FLD  .                         : FIELD
LOC  .                         : LOCATION
PROV .                         : PROVINCE
CNTY .                         : COUNTY
STAT .                         : STATE
CTRY .                         : COUNTRY
SRVC .                         : SERVICE COMPANY
DATE .                         : DATE
UWI  .                         : UNIQUE WELL ID
API  .                         : API NUMBER
SLAT .WGS84 7.1761008739440015 : SURFACE LATITUDE
SLON .WGS84  6.222574757162008 : SURFACE LONGITUDE
DATUM.F                 3348.7 : DEPTH DATUM ELEV
~Curve Information -----------------------------------------
DEPT   .FT    : 
DTCO   .US/F  : DELTA-T COMPRESSIONAL
DTSM   .US/F  : DELTA-T SHEAR
GRD    .GAPI  : GAMMA RAY FROM DENSITY LOG
NPHI_LS.DEC   : NEUTRON POROSITY LIMESTONE
~Params ----------------------------------------------------
~Other -----------------------------------------------------
~ASCII -----------------------------------------------------
# ...
 6178.50000   77.36210  115.69840   36.56270    0.10020
 6179.00000   77.49530  114.57430   37.72460    0.09480
 6179.50000   77.16220  112.97550   41.16350    0.08960
 6180.00000   75.76330  110.66490   44.89490    0.08680
 6180.50000   73.14880  108.44410   48.66020    0.09030
 6181.00000   72.12180  106.24590   53.26010    0.09530
 6181.50000   72.23280  106.30580   60.92840    0.11060
 6182.00000   73.09880  109.66030   72.99330    0.15170
 6182.50000   77.48200  114.54930   86.24140    0.22230
 6183.00000   79.96000  119.22670   95.03270    0.28790
 6183.50000   82.55800  122.05230   97.88480    0.35710
 6184.00000   84.62300  124.87790   95.99260    0.36320
 6184.50000   85.32240  125.35750   96.20030    0.34230
 6185.00000   84.95610  125.27760   98.19070    0.31990
 6185.50000   85.42240  128.43930  100.05410    0.32110
 6186.00000   86.40820  140.25060   99.54790    0.33750
 6186.50000   87.67390  147.51660   96.26430    0.33200
 6187.00000   88.68650  150.29780   92.58070    0.30940
 6187.50000   88.02030  150.45770   90.13620    0.27060
 6188.00000   86.92120  150.44760   90.66370    0.25930
 6188.50000   85.91090  150.43080   91.44680    0.27340
 6189.00000   85.42240  150.41410   91.14240    0.29050
 6189.50000   85.08930  150.39730   89.85620    0.29830
 6190.00000   84.82270  150.38050   88.29320    0.29310
 6190.50000   84.42200  150.36070   88.45820    0.25230
 6191.00000   84.25900  150.33620   90.97450    0.22460
 6191.50000   84.35310  150.31170   92.99520    0.22940
 6192.00000   85.35110  150.28720   94.04440    0.24040
 6192.50000   85.82580  150.28290   95.92220    0.24160
 6193.00000   86.28150  150.35900   92.82940    0.23340
 6193.50000   86.55640  150.43520   89.88870    0.22450
 6194.00000   86.74560  150.46570   88.05110    0.21700
 6194.50000   86.98420  150.36470   88.68650    0.21040
 6195.00000   87.20960  149.66450   89.85010    0.20510
 6195.50000   87.62150  148.63130   90.65840    0.20610
 6196.00000   87.74020  147.36490   90.05130    0.20730
 6196.50000   87.33950  144.68630   88.74390    0.20840
 6197.00000   86.33910  141.58810   87.95050    0.21200
 6197.50000   85.53860  139.26810   89.96810    0.21420
 6198.00000   85.40430  137.46770   93.76870    0.21300
 6198.50000   85.80280  137.26720   97.25550    0.21180
 6199.00000   86.21090  138.06550   96.77660    0.21260
 6199.50000   86.73310  139.35950   94.35530    0.21270
 6200.00000   87.16940  140.34740   92.42220    0.21170
 6200.50000   87.55350  140.86140   92.42900    0.21560
 6201.00000   87.81910  140.53760   95.34970    0.22250
 6201.50000   87.61880  140.85290   97.83770    0.22600
 6202.00000   87.55080  141.32780   98.08570    0.22350
 6202.50000   87.71650  141.08430   96.94060    0.22080
 6203.00000   87.21610  140.38970   95.32880    0.22430
 6203.50000   86.68220  139.63510   94.41180    0.23630
 6204.00000   86.68150  139.16150   93.86910    0.24110
 6204.50000   86.93040  139.63810   94.50840    0.23270
 6205.00000   87.27920  140.58310   96.72620    0.22040
 6205.50000   87.27820  145.95020   98.60350    0.21920
 6206.00000   86.90630  155.97740  100.10540    0.22390
 6206.50000   86.47720  164.88880  101.42460    0.22840
 6207.00000   86.21010  165.49650  101.02000    0.23030
 6207.50000   86.20910  165.52300  100.21490    0.22540
 6208.00000   86.20870  165.54960   99.95010    0.21650
 6208.50000   85.91660  165.57610   93.53830    0.21340
 6209.00000   85.55230  165.60260   89.69850    0.21850
 6209.50000   85.40620  165.54220   86.29480    0.22220
 6210.00000   85.08220  165.34910   85.53210    0.21790
 6210.50000   -9999.25   -9999.25   86.46240    0.20780
 6211.00000   -9999.25   -9999.25   87.45980    0.20630
 6211.50000   -9999.25   -9999.25   88.05160    0.20490
 6212.00000   -9999.25   -9999.25   87.76910    0.20120
 6212.50000   -9999.25   -9999.25   86.68400    0.18840
 6213.00000   -9999.25   -9999.25   85.19920    0.19470
 6213.50000   -9999.25   -9999.25   85.27600    0.20630
 6214.00000   -9999.25   -9999.25   88.15910    0.21870
 6214.50000   -9999.25   -9999.25   93.72350    0.22900
 6215.00000   -9999.25   -9999.25   98.06810    0.23580
 6215.50000   -9999.25   -9999.25  100.05050    0.23910
 6216.00000   -9999.25   -9999.25  102.22960    0.23960
 6216.50000   -9999.25   -9999.25  103.06980    0.24510
 6217.00000   -9999.25   -9999.25  105.51150    0.26210
 6217.50000   -9999.25   -9999.25  108.48220    0.28570
 6218.00000   -9999.25   -9999.25  110.24520    0.28730
 6218.50000   -9999.25   -9999.25  109.13890    0.27910
 6219.00000   -9999.25   -9999.25  107.70030    0.27160
 6219.50000   -9999.25   -9999.25   -9999.25    0.27170
 6220.00000   -9999.25   -9999.25   -9999.25    0.26210
 6220.50000   -9999.25   -9999.25   -9999.25    0.22570
 6221.00000   -9999.25   -9999.25   -9999.25    0.20650
 6221.50000   -9999.25   -9999.25   -9999.25    0.20460
 6222.00000   -9999.25   -9999.25   -9999.25    0.21070
 6222.50000   -9999.25   -9999.25   -9999.25    0.21430
 6223.00000   -9999.25   -9999.25   -9999.25    0.21260
 6223.50000   -9999.25   -9999.25   -9999.25    0.20830
 6224.00000   -9999.25   -9999.25   -9999.25    0.20110
 6224.50000   -9999.25   -9999.25   -9999.25    0.19350
 6225.00000   -9999.25   -9999.25   -9999.25    0.18640
 6225.50000   -9999.25   -9999.25   -9999.25    0.18540
 6226.00000   -9999.25   -9999.25   -9999.25    0.18870
