~Version ---------------------------------------------------
VERS.   2.0 : CWLS log ASCII Standard -VERSION 2.0
WRAP.    NO : One line per depth step
DLM . SPACE : Column Data Section Delimiter
~Well ------------------------------------------------------
STRT .FT                5249.0 : START DEPTH
STOP .FT                6226.0 : STOP DEPTH
STEP .FT                   0.5 : STEP
NULL .                -9999.25 : NULL VALUE
COMP .                         : COMPANY
WELL .                         : WELL
FLD  .                         : FIELD
LOC  .                         : LOCATION
PROV .                         : PROVINCE
CNTY .                         : COUNTY
STAT .                         : STATE
CTRY .                         : COUNTRY
SRVC .                         : SERVICE COMPANY
DATE .                         : DATE
UWI  .                         : UNIQUE WELL ID
API  .                         : API NUMBER
SLAT .WGS84 7.1761008739440015 : SURFACE LATITUDE
SLON .WGS84  6.222574757162008 : SURFACE LONGITUDE
DATUM.F                 3348.7 : DEPTH DATUM ELEV
~Curve Information -----------------------------------------
DEPT   .FT    : 
DTCO   .US/F  : DELTA-T COMPRESSIONAL
DTSM   .US/F  : DELTA-T SHEAR
GRD    .GAPI  : GAMMA RAY FROM DENSITY LOG
NPHI_LS.DEC   : NEUTRON POROSITY LIMESTONE
~Params ----------------------------------------------------
~Other -----------------------------------------------------
~ASCII -----------------------------------------------------
# ...
 5392.00000   -9999.25   -9999.25   27.69880    0.12070
 5392.50000   -9999.25   -9999.25   28.67270    0.12760
 5393.00000   -9999.25   -9999.25   28.63250    0.13500
 5393.50000   -9999.25   -9999.25   28.79950    0.13820
 5394.00000   -9999.25   -9999.25   29.83180    0.13620
 5394.50000   -9999.25   -9999.25   31.60500    0.13600
 5395.00000   -9999.25   -9999.25   33.04880    0.13800
 5395.50000   -9999.25   -9999.25   33.65970    0.14050
 5396.00000   -9999.25   -9999.25   33.96760    0.14450
 5396.50000   -9999.25   -9999.25   34.08980    0.15120
 5397.00000   -9999.25   -9999.25   34.28390    0.15860
 5397.50000   -9999.25   -9999.25   33.89660    0.16060
 5398.00000   -9999.25   -9999.25   33.59620    0.15990
 5398.50000   -9999.25   -9999.25   33.95760    0.16070
 5399.00000   -9999.25   -9999.25   35.54240    0.16610
 5399.50000   -9999.25   -9999.25   38.27120    0.16740
 5400.00000   -9999.25   -9999.25   41.06650    0.15990
 5400.50000   -9999.25   -9999.25   41.72420    0.15160
 5401.00000   -9999.25   -9999.25   40.21080    0.15220
 5401.50000   -9999.25   -9999.25   37.98990    0.17070
 5402.00000   -9999.25   -9999.25   37.09990    0.19990
 5402.50000   -9999.25   -9999.25   39.33250    0.22450
 5403.00000   -9999.25   -9999.25   42.94900    0.23210
 5403.50000   -9999.25   -9999.25   45.90450    0.22630
 5404.00000   -9999.25   -9999.25   44.61340    0.21160
 5404.50000   -9999.25   -9999.25   42.19710    0.19030
 5405.00000   -9999.25   -9999.25   40.89670    0.18080
 5405.50000   -9999.25   -9999.25   42.19390    0.17670
 5406.00000   -9999.25   -9999.25   42.53180    0.17450
 5406.50000   -9999.25   -9999.25   41.88350    0.17090
 5407.00000   -9999.25   -9999.25   41.52040    0.16870
 5407.50000   -9999.25   -9999.25   42.44420    0.17410
 5408.00000   -9999.25   -9999.25   43.71190    0.18250
 5408.50000   -9999.25   -9999.25   42.27930    0.18750
 5409.00000   -9999.25   -9999.25   39.28060    0.18630
 5409.50000   -9999.25   -9999.25   36.46400    0.18310
 5410.00000   -9999.25   -9999.25   35.38010    0.18300
 5410.50000   -9999.25   -9999.25   35.38990    0.18600
 5411.00000   -9999.25   -9999.25   34.18690    0.18870
 5411.50000   -9999.25   -9999.25   32.19530    0.19030
 5412.00000   -9999.25   -9999.25   30.37660    0.19050
 5412.50000   -9999.25   -9999.25   30.64360    0.19200
 5413.00000   -9999.25   -9999.25   32.10960    0.19680
 5413.50000   -9999.25   -9999.25   31.85540    0.19870
 5414.00000   -9999.25   -9999.25   29.63860    0.19370
 5414.50000   -9999.25   -9999.25   25.99730    0.17990
 5415.00000   -9999.25   -9999.25   23.59340    0.16230
 5415.50000   -9999.25   -9999.25   23.83780    0.15150
 5416.00000   -9999.25   -9999.25   25.52960    0.16290
 5416.50000   -9999.25   -9999.25   27.56350    0.18100
 5417.00000   -9999.25   -9999.25   29.84630    0.20640
 5417.50000   -9999.25   -9999.25   34.03590    0.25040
 5418.00000   -9999.25   -9999.25   45.38900    0.29950
 5418.50000   -9999.25   -9999.25   61.51230    0.45950
 5419.00000   -9999.25   -9999.25   75.65730    0.54530
 5419.50000   -9999.25   -9999.25   86.26530    0.55080
 5420.00000   -9999.25   -9999.25   87.60680    0.52870
 5420.50000   -9999.25   -9999.25   87.14540    0.50280
 5421.00000   -9999.25   -9999.25   85.72480    0.50250
 5421.50000   -9999.25   -9999.25   83.28080    0.53480
 5422.00000   -9999.25   -9999.25   79.77120    0.57380
 5422.50000   -9999.25   -9999.25   77.22840    0.57450
 5423.00000   -9999.25   -9999.25   75.78420    0.52140
 5423.50000   -9999.25   -9999.25   74.33820    0.46230
 5424.00000   -9999.25   -9999.25   72.52830    0.43610
 5424.50000   -9999.25   -9999.25   70.80730    0.46840
 5425.00000   -9999.25   -9999.25   70.50510    0.50430
 5425.50000   -9999.25   -9999.25   72.10610    0.49840
 5426.00000   -9999.25   -9999.25   75.96220    0.46760
 5426.50000   -9999.25   -9999.25   80.11820    0.43410
 5427.00000   -9999.25   -9999.25   76.84910    0.37280
 5427.50000   -9999.25   -9999.25   67.82140    0.29980
 5428.00000   -9999.25   -9999.25   49.34280    0.22040
 5428.50000   -9999.25   -9999.25   34.70160    0.12300
 5429.00000   -9999.25   -9999.25   26.84340    0.09560
 5429.50000   -9999.25   -9999.25   22.82520    0.07790
 5430.00000   -9999.25   -9999.25   20.03460    0.06560
 5430.50000   -9999.25   -9999.25   18.94530    0.07230
 5431.00000   -9999.25   -9999.25   19.32650    0.08840
 5431.50000   -9999.25   -9999.25   21.65110    0.10600
 5432.00000   -9999.25   -9999.25   25.28070    0.11890
 5432.50000   -9999.25   -9999.25   29.06610    0.12520
 5433.00000   -9999.25   -9999.25   30.61220    0.13320
 5433.50000   -9999.25   -9999.25   31.47320    0.14420
 5434.00000   -9999.25   -9999.25   32.26570    0.15890
 5434.50000   -9999.25   -9999.25   33.75760    0.16830
 5435.00000   -9999.25   -9999.25   34.18250    0.16200
 5435.50000   -9999.25   -9999.25   32.76770    0.14070
 5436.00000   -9999.25   -9999.25   30.88730    0.11150
 5436.50000   -9999.25   -9999.25   28.91450    0.08720
 5437.00000   -9999.25   -9999.25   26.79970    0.06230
 5437.50000   -9999.25   -9999.25   23.33450    0.04700
 5438.00000   -9999.25   -9999.25   19.65070    0.04720
 5438.50000   -9999.25   -9999.25   17.38650    0.05910
 5439.00000   -9999.25   -9999.25   16.08450    0.07660
 5439.50000   -9999.25   -9999.25   16.43170    0.09110
 5440.00000   -9999.25   -9999.25   16.84110    0.09880
 5440.50000   -9999.25   -9999.25   17.06380    0.09200
 5441.00000   -9999.25   -9999.25   17.43330    0.08020
 5441.50000   -9999.25   -9999.25   17.83420    0.06930
 5442.00000   -9999.25   -9999.25   17.63640    0.06400
 5442.50000   -9999.25   -9999.25   17.30240    0.07050
 5443.00000   -9999.25   -9999.25   18.53790    0.09220
 5443.50000   -9999.25   -9999.25   21.68470    0.12060
 5444.00000   -9999.25   -9999.25   25.84450    0.14820
 5444.50000   -9999.25   -9999.25   29.37140    0.15860
 5445.00000   -9999.25   -9999.25   30.56430    0.14340
 5445.50000   -9999.25   -9999.25   28.56960    0.11610
 5446.00000   -9999.25   -9999.25   24.50270    0.07760
 5446.50000   -9999.25   -9999.25   20.24140    0.05870
 5447.00000   -9999.25   -9999.25   17.39410    0.05220
 5447.50000   -9999.25   -9999.25   16.66800    0.05720
 5448.00000   -9999.25   -9999.25   17.69900    0.06400
 5448.50000   -9999.25   -9999.25   18.90660    0.07140
 5449.00000   -9999.25   -9999.25   19.23740    0.07700
 5449.50000   -9999.25   -9999.25   18.45210    0.07660
 5450.00000   -9999.25   -9999.25   17.88820    0.07150
 5450.50000   -9999.25   -9999.25   18.36180    0.06510
 5451.00000   -9999.25   -9999.25   19.15030    0.06040
 5451.50000   -9999.25   -9999.25   18.54830    0.05790
 5452.00000   -9999.25   -9999.25   17.51100    0.05560
 5452.50000   -9999.25   -9999.25   16.88460    0.05190
 5453.00000   -9999.25   -9999.25   17.38820    0.04770
 5453.50000   -9999.25   -9999.25   18.95630    0.04570
 5454.00000   -9999.25   -9999.25   20.74690    0.04800
 5454.50000   -9999.25   -9999.25   22.25380    0.05290
 5455.00000   -9999.25   -9999.25   22.45780    0.05830
 5455.50000   -9999.25   -9999.25   22.62440    0.06460
 5456.00000   -9999.25   -9999.25   23.54310    0.07570
 5456.50000   -9999.25   -9999.25   24.77300    0.09170
 5457.00000   -9999.25   -9999.25   26.26350    0.10730
 5457.50000   -9999.25   -9999.25   29.14070    0.12340
 5458.00000   -9999.25   -9999.25   34.01420    0.15310
 5458.50000   -9999.25   -9999.25   39.87780    0.18940
 5459.00000   -9999.25   -9999.25   45.27310    0.23030
 5459.50000   -9999.25   -9999.25   47.84570    0.26540
 5460.00000   -9999.25   -9999.25   48.14270    0.28610
 5460.50000   -9999.25   -9999.25   48.34280    0.29060
 5461.00000   -9999.25   -9999.25   49.21880    0.29690
 5461.50000   -9999.25   -9999.25   50.95630    0.30000
 5462.00000   -9999.25   -9999.25   53.27320    0.30570
 5462.50000   -9999.25   -9999.25   54.43540    0.27440
 5463.00000   -9999.25   -9999.25   51.04320    0.22320
