~Version ---------------------------------------------------
VERS.   2.0 : CWLS log ASCII Standard -VERSION 2.0
WRAP.    NO : One line per depth step
DLM . SPACE : Column Data Section Delimiter
~Well ------------------------------------------------------
STRT .FT                5249.0 : START DEPTH
STOP .FT                6226.0 : STOP DEPTH
STEP .FT                   0.5 : STEP
NULL .                -9999.25 : NULL VALUE
COMP .                         : COMPANY
WELL .                         : WELL
FLD  .                         : FIELD
LOC  .                         : LOCATION
PROV .                         : PROVINCE
CNTY .                         : COUNTY
STAT .                         : STATE
CTRY .                         : COUNTRY
SRVC .                         : SERVICE COMPANY
DATE .                         : DATE
UWI  .                         : UNIQUE WELL ID
API  .                         : API NUMBER
SLAT .WGS84 7.1761008739440015 : SURFACE LATITUDE
SLON .WGS84  6.222574757162008 : SURFACE LONGITUDE
DATUM.F                 3348.7 : DEPTH DATUM ELEV
~Curve Information -----------------------------------------
DEPT   .FT    : 
DTCO   .US/F  : DELTA-T COMPRESSIONAL
DTSM   .US/F  : DELTA-T SHEAR
GRD    .GAPI  : GAMMA RAY FROM DENSITY LOG
NPHI_LS.DEC   : NEUTRON POROSITY LIMESTONE
~Params ----------------------------------------------------
~Other -----------------------------------------------------
~ASCII -----------------------------------------------------
 5249.00000   -9999.25   -9999.25   57.25440    0.46230
 5249.50000   -9999.25   -9999.25   54.97310    0.43760
 5250.00000   -9999.25   -9999.25   54.60740    0.41300
 5250.50000   -9999.25   -9999.25   55.04060    0.38830
 5251.00000   -9999.25   -9999.25   55.19370    0.35730
 5251.50000   -9999.25   -9999.25   54.16470    0.31660
 5252.00000   -9999.25   -9999.25   51.15760    0.26850
 5252.50000   -9999.25   -9999.25   45.81550    0.24560
 5253.00000   -9999.25   -9999.25   40.60400    0.24310
 5253.50000   -9999.25   -9999.25   40.23390    0.24400
 5254.00000   -9999.25   -9999.25   41.89390    0.24530
 5254.50000   -9999.25   -9999.25   42.62460    0.25520
 5255.00000   -9999.25   -9999.25   43.73030    0.27280
 5255.50000   -9999.25   -9999.25   46.99900    0.29030
 5256.00000   -9999.25   -9999.25   51.54500    0.29890
 5256.50000   -9999.25   -9999.25   53.60760    0.29450
 5257.00000   -9999.25   -9999.25   52.30910    0.28260
 5257.50000   -9999.25   -9999.25   50.57910    0.25770
 5258.00000   -9999.25   -9999.25   48.82320    0.23520
 5258.50000   -9999.25   -9999.25   47.35770    0.22620
 5259.00000   -9999.25   -9999.25   45.71140    0.22930
 5259.50000   -9999.25   -9999.25   43.92440    0.23370
 5260.00000   -9999.25   -9999.25   43.58790    0.23790
 5260.50000   -9999.25   -9999.25   44.81510    0.24840
 5261.00000   -9999.25   -9999.25   46.19220    0.27000
 5261.50000   -9999.25   -9999.25   47.51550    0.29360
 5262.00000   -9999.25   -9999.25   48.28410    0.29910
 5262.50000   -9999.25   -9999.25   49.12600    0.32300
 5263.00000   -9999.25   -9999.25   49.77460    0.33960
 5263.50000   -9999.25   -9999.25   50.11110    0.36080
 5264.00000   -9999.25   -9999.25   50.44770    0.38020
 5264.50000   -9999.25   -9999.25   50.94390    0.39830
 5265.00000   -9999.25   -9999.25   49.56030    0.42020
 5265.50000   -9999.25   -9999.25   46.81190    0.41910
 5266.00000   -9999.25   -9999.25   41.25080    0.34400
 5266.50000   -9999.25   -9999.25   33.88310    0.30070
 5267.00000   -9999.25   -9999.25   26.08510    0.12790
 5267.50000   -9999.25   -9999.25   20.20670    0.07770
 5268.00000   -9999.25   -9999.25   17.17810    0.07040
 5268.50000   -9999.25   -9999.25   16.04600    0.06870
 5269.00000   -9999.25   -9999.25   15.84200    0.05930
 5269.50000   -9999.25   -9999.25   16.02540    0.04820
 5270.00000   -9999.25   -9999.25   18.07810    0.04670
 5270.50000   -9999.25   -9999.25   21.73370    0.06120
 5271.00000   -9999.25   -9999.25   24.86030    0.08690
 5271.50000   -9999.25   -9999.25   25.06080    0.10540
 5272.00000   -9999.25   -9999.25   23.26400    0.11380
 5272.50000   -9999.25   -9999.25   21.52630    0.11700
 5273.00000   -9999.25   -9999.25   21.11750    0.11820
 5273.50000   -9999.25   -9999.25   22.25400    0.11340
 5274.00000   -9999.25   -9999.25   22.50080    0.10190
 5274.50000   -9999.25   -9999.25   22.48170    0.08820
 5275.00000   -9999.25   -9999.25   22.66300    0.08480
 5275.50000   -9999.25   -9999.25   22.70130    0.09010
 5276.00000   -9999.25   -9999.25   23.09540    0.09080
 5276.50000   -9999.25   -9999.25   24.15840    0.08630
 5277.00000   -9999.25   -9999.25   25.24580    0.08280
 5277.50000   -9999.25   -9999.25   25.68230    0.08170
 5278.00000   -9999.25   -9999.25   24.75150    0.08570
 5278.50000   -9999.25   -9999.25   24.85020    0.09270
 5279.00000   -9999.25   -9999.25   25.82830    0.09740
 5279.50000   -9999.25   -9999.25   26.75630    0.09370
 5280.00000   -9999.25   -9999.25   27.95580    0.08770
 5280.50000   -9999.25   -9999.25   29.19800    0.08740
 5281.00000   -9999.25   -9999.25   30.47790    0.09340
 5281.50000   -9999.25   -9999.25   30.20760    0.09640
 5282.00000   -9999.25   -9999.25   29.32210    0.09870
 5282.50000   -9999.25   -9999.25   28.68400    0.09980
 5283.00000   -9999.25   -9999.25   28.71670    0.09870
 5283.50000   -9999.25   -9999.25   30.43100    0.09890
 5284.00000   -9999.25   -9999.25   34.34860    0.10620
 5284.50000   -9999.25   -9999.25   39.86500    0.11870
 5285.00000   -9999.25   -9999.25   45.32490    0.12930
 5285.50000   -9999.25   -9999.25   50.68310    0.13270
 5286.00000   -9999.25   -9999.25   53.81420    0.13120
 5286.50000   -9999.25   -9999.25   55.73490    0.13320
 5287.00000   -9999.25   -9999.25   57.91530    0.13680
 5287.50000   -9999.25   -9999.25   61.49590    0.13810
 5288.00000   -9999.25   -9999.25   68.01450    0.13220
 5288.50000   -9999.25   -9999.25   73.42320    0.12130
 5289.00000   -9999.25   -9999.25   70.73030    0.11310
 5289.50000   -9999.25   -9999.25   59.97770    0.10570
 5290.00000   -9999.25   -9999.25   46.47130    0.10070
 5290.50000   -9999.25   -9999.25   37.62900    0.10980
 5291.00000   -9999.25   -9999.25   34.26500    0.12790
 5291.50000   -9999.25   -9999.25   35.27420    0.14330
 5292.00000   -9999.25   -9999.25   37.66950    0.15280
 5292.50000   -9999.25   -9999.25   40.10530    0.14650
 5293.00000   -9999.25   -9999.25   39.78200    0.13280
 5293.50000   -9999.25   -9999.25   37.47750    0.11760
 5294.00000   -9999.25   -9999.25   36.00720    0.10710
 5294.50000   -9999.25   -9999.25   37.62920    0.11180
 5295.00000   -9999.25   -9999.25   39.78600    0.11960
 5295.50000   -9999.25   -9999.25   40.71860    0.12670
 5296.00000   -9999.25   -9999.25   40.21760    0.13490
 5296.50000   -9999.25   -9999.25   40.19730    0.14540
 5297.00000   -9999.25   -9999.25   40.29760    0.15200
 5297.50000   -9999.25   -9999.25   40.10770    0.14920
 5298.00000   -9999.25   -9999.25   39.40360    0.14320
 5298.50000   -9999.25   -9999.25   38.74390    0.13790
 5299.00000   -9999.25   -9999.25   38.71160    0.13340
 5299.50000   -9999.25   -9999.25   39.21390    0.13510
 5300.00000   -9999.25   -9999.25   39.14770    0.14030
 5300.50000   -9999.25   -9999.25   37.78510    0.13960
 5301.00000   -9999.25   -9999.25   36.09190    0.13280
 5301.50000   -9999.25   -9999.25   34.92110    0.12310
 5302.00000   -9999.25   -9999.25   34.80410    0.11340
 5302.50000   -9999.25   -9999.25   35.33320    0.10760
 5303.00000   -9999.25   -9999.25   35.46050    0.10960
 5303.50000   -9999.25   -9999.25   35.12050    0.11150
 5304.00000   -9999.25   -9999.25   33.59610    0.10930
 5304.50000   -9999.25   -9999.25   31.78880    0.10650
 5305.00000   -9999.25   -9999.25   31.55990    0.11250
 5305.50000   -9999.25   -9999.25   32.85080    0.12360
 5306.00000   -9999.25   -9999.25   34.80960    0.13250
 5306.50000   -9999.25   -9999.25   36.18680    0.13910
 5307.00000   -9999.25   -9999.25   36.68210    0.14040
 5307.50000   -9999.25   -9999.25   38.46390    0.14130
 5308.00000   -9999.25   -9999.25   42.91990    0.14360
 5308.50000   -9999.25   -9999.25   46.81490    0.14540
 5309.00000   -9999.25   -9999.25   50.65080    0.14810
 5309.50000   -9999.25   -9999.25   52.25500    0.15220
 5310.00000   -9999.25   -9999.25   51.34610    0.15030
 5310.50000   -9999.25   -9999.25   47.37620    0.14140
 5311.00000   -9999.25   -9999.25   43.30680    0.13040
 5311.50000   -9999.25   -9999.25   42.57640    0.12690
 5312.00000   -9999.25   -9999.25   46.66840    0.13440
 5312.50000   -9999.25   -9999.25   52.13630    0.15520
 5313.00000   -9999.25   -9999.25   55.31640    0.16880
 5313.50000   -9999.25   -9999.25   55.24820    0.16910
 5314.00000   -9999.25   -9999.25   54.91940    0.15870
 5314.50000   -9999.25   -9999.25   53.22390    0.14830
 5315.00000   -9999.25   -9999.25   49.32570    0.13740
 5315.50000   -9999.25   -9999.25   44.68430    0.12730
 5316.00000   -9999.25   -9999.25   41.62090    0.12590
 5316.50000   -9999.25   -9999.25   38.73570    0.12980
 5317.00000   -9999.25   -9999.25   36.41290    0.12290
 5317.50000   -9999.25   -9999.25   35.61110    0.10560
 5318.00000   -9999.25   -9999.25   39.76190    0.09160
 5318.50000   -9999.25   -9999.25   44.61230    0.08450
 5319.00000   -9999.25   -9999.25   47.63660    0.07940
 5319.50000   -9999.25   -9999.25   46.72830    0.07730
 5320.00000   -9999.25   -9999.25   45.34780    0.08230
