~Version ---------------------------------------------------
VERS.   2.0 : CWLS log ASCII Standard -VERSION 2.0
WRAP.    NO : One line per depth step
DLM . SPACE : Column Data Section Delimiter
~Well ------------------------------------------------------
STRT .FT                5249.0 : START DEPTH
STOP .FT                6226.0 : STOP DEPTH
STEP .FT                   0.5 : STEP
NULL .                -9999.25 : NULL VALUE
COMP .                         : COMPANY
WELL .                         : WELL
FLD  .                         : FIELD
LOC  .                         : LOCATION
PROV .                         : PROVINCE
CNTY .                         : COUNTY
STAT .                         : STATE
CTRY .                         : COUNTRY
SRVC .                         : SERVICE COMPANY
DATE .                         : DATE
UWI  .                         : UNIQUE WELL ID
API  .                         : API NUMBER
SLAT .WGS84 7.1761008739440015 : SURFACE LATITUDE
SLON .WGS84  6.222574757162008 : SURFACE LONGITUDE
DATUM.F                 3348.7 : DEPTH DATUM ELEV
~Curve Information -----------------------------------------
DEPT   .FT    : 
DTCO   .US/F  : DELTA-T COMPRESSIONAL
DTSM   .US/F  : DELTA-T SHEAR
GRD    .GAPI  : GAMMA RAY FROM DENSITY LOG
NPHI_LS.DEC   : NEUTRON POROSITY LIMESTONE
~Params ----------------------------------------------------
~Other -----------------------------------------------------
~ASCII -----------------------------------------------------
# ...
 5892.50000   -9999.25   -9999.25  124.27490    0.16750
 5893.00000   -9999.25   -9999.25  100.53850    0.12060
 5893.50000   -9999.25   -9999.25   91.33390    0.19460
 5894.00000   -9999.25   -9999.25   95.05550    0.28230
 5894.50000   -9999.25   -9999.25  119.44210    0.42400
 5895.00000   -9999.25   -9999.25  149.16520    0.49310
 5895.50000   -9999.25   -9999.25  172.03260    0.48710
 5896.00000   -9999.25   -9999.25  185.73080    0.45070
 5896.50000   -9999.25   -9999.25  184.66040    0.37300
 5897.00000   56.22900  106.79430  178.10210    0.30060
 5897.50000   56.57110  107.50380  170.62560    0.23800
 5898.00000   56.61480  108.35530  164.41570    0.26430
 5898.50000   56.52420  107.94090  161.21840    0.29980
 5899.00000   56.53380  106.94180  161.61400    0.46240
 5899.50000   56.66740  107.38360  166.84280    0.50110
 5900.00000   56.77050  108.20430  179.21790    0.48720
 5900.50000   56.41200  107.04980  194.85200    0.45600
 5901.00000   56.15400  105.32760  200.39830    0.42730
 5901.50000   55.94580  105.96370  200.39780    0.41560
 5902.00000   56.14560  106.76620  199.92930    0.42850
 5902.50000   56.34550  107.69730  188.36730    0.44040
 5903.00000   56.94500  108.96620  190.05390    0.44180
 5903.50000   57.13150  109.63270  200.40130    0.45150
 5904.00000   57.19810  108.91200  200.40080    0.48070
 5904.50000   57.29140  109.94950  200.19960    0.46250
 5905.00000   57.31620  110.02800  199.66440    0.36030
 5905.50000   57.14490  109.94660  173.80500    0.31520
 5906.00000   56.67860  108.28910  114.01680    0.12310
 5906.50000   56.38250  107.22570  100.72150    0.11740
 5907.00000   56.01240  106.34500  118.31940    0.20060
 5907.50000   55.75330  104.45680  171.84880    0.30000
 5908.00000   55.54610  103.68400  200.60090    0.46930
 5908.50000   55.74600  104.18220  200.59920    0.48590
 5909.00000   57.07830  106.91850  200.58530    0.40980
 5909.50000   57.45570  109.87440  200.57140    0.33660
 5910.00000   57.37800  110.27280  200.55750    0.29900
 5910.50000   56.77590  109.70080  200.54350    0.29150
 5911.00000   56.44030  108.16630  200.52960    0.37720
 5911.50000   56.77110  107.69750  200.51570    0.44820
 5912.00000   56.96830  108.62750  200.50180    0.44160
 5912.50000   57.13230  109.69090  200.48790    0.38860
 5913.00000   57.24300  110.40770  200.47390    0.32320
 5913.50000   57.16080  109.58670  200.46000    0.24200
 5914.00000   57.02490  108.48020  197.26780    0.18980
 5914.50000   57.02260  109.34140  181.56020    0.16140
 5915.00000   56.75370  108.58200  186.43800    0.17950
 5915.50000   56.35140  107.11780  200.18190    0.22310
 5916.00000   56.41560  108.07140  200.32340    0.27070
 5916.50000   57.14580  109.37110  200.33800    0.29970
 5917.00000   57.60960  110.90250  200.39810    0.31660
 5917.50000   57.87340  112.43380  199.15220    0.29930
 5918.00000   58.31510  114.47960  152.75870    0.15630
 5918.50000   58.53490  115.49620  100.61960    0.12690
 5919.00000   58.13260  114.54950  100.21190    0.18000
 5919.50000   57.73030  112.38600  176.32900    0.25770
 5920.00000   57.12810  110.71220  192.92210    0.29980
 5920.50000   56.92610  108.46100  184.58480    0.33940
 5921.00000   56.99020  108.51050  200.27460    0.34160
 5921.50000   57.32070  109.92630  188.15480    0.33650
 5922.00000   57.05130  109.68870  168.13460    0.32310
 5922.50000   56.44950  107.34260  167.52410    0.30970
 5923.00000   55.98060  106.14800  184.49680    0.33650
 5923.50000   56.24460  106.62490  197.48660    0.41530
 5924.00000   57.03420  109.20840  190.00050    0.46700
 5924.50000   57.77200  111.52460  154.23250    0.40230
 5925.00000   58.10240  112.94580  118.46450    0.29910
 5925.50000   57.96680  113.92250  100.39330    0.13480
 5926.00000   57.69770  112.59110   87.53480    0.09630
 5926.50000   57.16280  111.18440   94.59010    0.09660
 5927.00000   57.16000  110.26050  130.86150    0.12870
 5927.50000   57.15750  110.20550  169.35280    0.18870
 5928.00000   56.98830  108.64090  200.14110    0.29960
 5928.50000   56.48300  106.57940  200.13490    0.37510
 5929.00000   56.33030  106.66750  200.13320    0.41500
 5929.50000   56.52790  107.53530  200.26520    0.42660
 5930.00000   56.45880  107.05760  191.84340    0.42510
 5930.50000   56.27670  106.74130  153.75000    0.39930
 5931.00000   56.47360  106.42500  122.10070    0.35550
 5931.50000   56.20470  106.09880  119.96380    0.31150
 5932.00000   57.17490  108.05980  129.37540    0.32310
 5932.50000   57.60700  111.88940  161.46380    0.38020
 5933.00000   57.64630  111.13700  193.55230    0.43640
 5933.50000   57.66050  110.41130  200.38680    0.42230
 5934.00000   57.39130  110.26100  200.38500    0.38330
 5934.50000   57.32350  110.14030  200.38500    0.34680
 5935.00000   57.31990  110.21310  200.38500    0.32090
 5935.50000   57.48380  110.33540  200.38500    0.29970
 5936.00000   57.84760  110.45780  200.38500    0.29320
 5936.50000   57.97860  111.18170  200.38500    0.30000
 5937.00000   57.37640  110.13620  200.38500    0.41460
 5937.50000   56.70770  108.28830  200.38500    0.50680
 5938.00000   56.25250  107.66510  200.38500    0.49130
 5938.50000   56.17050  107.68800  199.97000    0.39280
 5939.00000   56.24730  107.81240  154.38520    0.14220
 5939.50000   56.43140  107.93680  108.56830    0.05410
 5940.00000   56.29560  108.17920   59.47810    0.02130
 5940.50000   56.29350  107.65240   47.38070    0.01900
 5941.00000   56.55710  108.04990   51.40370    0.02630
 5941.50000   57.35390  111.59670   57.88730    0.03530
 5942.00000   57.55140  112.82530   58.88490    0.03870
 5942.50000   57.60240  112.01380   53.94090    0.03400
 5943.00000   57.73310  111.48380   53.69680    0.04690
 5943.50000   57.81030  112.43450   69.79630    0.08970
 5944.00000   57.54180  112.95740   91.91070    0.14280
 5944.50000   57.60560  112.64880  114.43350    0.16710
 5945.00000   57.67010  115.08040  110.37760    0.13970
 5945.50000   57.60100  118.01960   99.79500    0.10480
 5946.00000   56.95420  119.48100   83.59980    0.07650
 5946.50000   56.67430  120.35560   74.17560    0.06350
 5947.00000   56.72720  120.76390   76.39090    0.06250
 5947.50000   56.92460  120.76630   83.46540    0.06710
 5948.00000   56.98850  120.76870   90.81020    0.07360
 5948.50000   57.05280  120.77110   94.37300    0.07750
 5949.00000   56.71710  120.73340   92.83410    0.07500
 5949.50000   56.49230  119.73810   87.29190    0.06910
 5950.00000   56.34120  119.32640   81.36690    0.07040
 5950.50000   56.24340  119.21590   77.65950    0.08870
 5951.00000   56.08450  119.36460   80.01920    0.10540
 5951.50000   56.01630  119.51330   88.88350    0.11880
 5952.00000   56.17940  119.73570  100.04260    0.15900
 5952.50000   56.72810  120.20440  153.33540    0.29950
 5953.00000   57.11830  120.32340  191.57120    0.49820
 5953.50000   57.24060  120.87650  199.68490    0.56510
 5954.00000   57.36400  120.94470  186.45120    0.43680
 5954.50000   57.48750  121.04650  128.43560    0.16720
 5955.00000   58.14400  122.90440   99.96540    0.05370
 5955.50000   58.26780  123.68960   88.15780    0.04900
 5956.00000   57.45930  122.27040   99.71770    0.07700
 5956.50000   57.31480  121.00220  151.51190    0.09720
 5957.00000   56.49230  119.73390  146.06790    0.08170
 5957.50000   56.05080  119.22300  116.19670    0.05330
 5958.00000   56.01840  119.22300   99.68930    0.03720
 5958.50000   56.14230  119.22300   68.95450    0.03340
 5959.00000   56.33230  119.17230   66.70530    0.03550
 5959.50000   56.52160  119.07750   67.95270    0.03490
 5960.00000   56.57920  118.98270   66.24050    0.03110
 5960.50000   56.74510  119.76540   64.29670    0.02690
 5961.00000   56.74510  120.57460   65.81370    0.02930
 5961.50000   56.81170  121.25480   69.63240    0.03480
 5962.00000   57.07830  121.40410   72.26130    0.03700
 5962.50000   57.61110  122.60470   72.88210    0.03500
 5963.00000   58.54370  124.03180   73.70180    0.03610
 5963.50000   57.97090  122.50510   79.49740    0.04690
