~Version ---------------------------------------------------
VERS.   2.0 : CWLS log ASCII Standard -VERSION 2.0
WRAP.    NO : One line per depth step
DLM . SPACE : Column Data Section Delimiter
~Well ------------------------------------------------------
STRT .FT                5249.0 : START DEPTH
STOP .FT                6226.0 : STOP DEPTH
STEP .FT                   0.5 : STEP
NULL .                -9999.25 : NULL VALUE
COMP .                         : COMPANY
WELL .                         : WELL
FLD  .                         : FIELD
LOC  .                         : LOCATION
PROV .                         : PROVINCE
CNTY .                         : COUNTY
STAT .                         : STATE
CTRY .                         : COUNTRY
SRVC .                         : SERVICE COMPANY
DATE .                         : DATE
UWI  .                         : UNIQUE WELL ID
API  .                         : API NUMBER
SLAT .WGS84 7.1761008739440015 : SURFACE LATITUDE
SLON .WGS84  6.222574757162008 : SURFACE LONGITUDE
DATUM.F                 3348.7 : DEPTH DATUM ELEV
~Curve Information -----------------------------------------
DEPT   .FT    : 
DTCO   .US/F  : DELTA-T COMPRESSIONAL
DTSM   .US/F  : DELTA-T SHEAR
GRD    .GAPI  : GAMMA RAY FROM DENSITY LOG
NPHI_LS.DEC   : NEUTRON POROSITY LIMESTONE
~Params ----------------------------------------------------
~Other -----------------------------------------------------
~ASCII -----------------------------------------------------
# ...
 5463.50000   -9999.25   -9999.25   43.45630    0.18150
 5464.00000   -9999.25   -9999.25   35.12540    0.16240
 5464.50000   -9999.25   -9999.25   30.47350    0.16000
 5465.00000   -9999.25   -9999.25   30.67400    0.17350
 5465.50000   -9999.25   -9999.25   33.74390    0.18540
 5466.00000   -9999.25   -9999.25   36.77370    0.19300
 5466.50000   -9999.25   -9999.25   36.16510    0.19970
 5467.00000   -9999.25   -9999.25   34.70190    0.20670
 5467.50000   -9999.25   -9999.25   34.54330    0.21240
 5468.00000   -9999.25   -9999.25   36.21210    0.21600
 5468.50000   -9999.25   -9999.25   38.03850    0.21640
 5469.00000   -9999.25   -9999.25   38.15100    0.22220
 5469.50000   -9999.25   -9999.25   37.73830    0.23130
 5470.00000   -9999.25   -9999.25   38.52630    0.23110
 5470.50000   -9999.25   -9999.25   40.03700    0.21860
 5471.00000   -9999.25   -9999.25   41.31970    0.20220
 5471.50000   -9999.25   -9999.25   39.19050    0.18820
 5472.00000   -9999.25   -9999.25   35.28030    0.17460
 5472.50000   -9999.25   -9999.25   31.02540    0.16460
 5473.00000   -9999.25   -9999.25   28.48500    0.17110
 5473.50000   -9999.25   -9999.25   27.89440    0.18040
 5474.00000   -9999.25   -9999.25   28.53390    0.17990
 5474.50000   -9999.25   -9999.25   28.34210    0.17150
 5475.00000   -9999.25   -9999.25   28.24850    0.17040
 5475.50000   -9999.25   -9999.25   29.60660    0.18160
 5476.00000   -9999.25   -9999.25   31.74740    0.19200
 5476.50000   -9999.25   -9999.25   33.35050    0.18050
 5477.00000   -9999.25   -9999.25   33.07980    0.16560
 5477.50000   -9999.25   -9999.25   32.07740    0.15890
 5478.00000   -9999.25   -9999.25   30.53560    0.15620
 5478.50000   -9999.25   -9999.25   29.79710    0.15050
 5479.00000   -9999.25   -9999.25   28.66920    0.14380
 5479.50000   -9999.25   -9999.25   26.75670    0.14610
 5480.00000   -9999.25   -9999.25   25.62670    0.15490
 5480.50000   -9999.25   -9999.25   26.96510    0.16790
 5481.00000   -9999.25   -9999.25   29.82610    0.17600
 5481.50000   -9999.25   -9999.25   31.17920    0.17660
 5482.00000   -9999.25   -9999.25   29.58480    0.17030
 5482.50000   -9999.25   -9999.25   28.35640    0.16310
 5483.00000   -9999.25   -9999.25   29.33860    0.15790
 5483.50000   -9999.25   -9999.25   29.89210    0.14830
 5484.00000   -9999.25   -9999.25   28.73450    0.12300
 5484.50000   -9999.25   -9999.25   25.96260    0.10860
 5485.00000   -9999.25   -9999.25   24.11050    0.10450
 5485.50000   -9999.25   -9999.25   23.85760    0.11200
 5486.00000   -9999.25   -9999.25   23.43450    0.12090
 5486.50000   -9999.25   -9999.25   22.55350    0.11940
 5487.00000   -9999.25   -9999.25   21.54440    0.10290
 5487.50000   -9999.25   -9999.25   20.93700    0.08040
 5488.00000   -9999.25   -9999.25   22.12820    0.07160
 5488.50000   -9999.25   -9999.25   24.20650    0.08700
 5489.00000   -9999.25   -9999.25   25.99270    0.11170
 5489.50000   -9999.25   -9999.25   26.26050    0.12480
 5490.00000   -9999.25   -9999.25   24.54720    0.11380
 5490.50000   -9999.25   -9999.25   25.03160    0.10310
 5491.00000   -9999.25   -9999.25   25.71960    0.11930
 5491.50000   -9999.25   -9999.25   27.59470    0.15420
 5492.00000   -9999.25   -9999.25   29.71440    0.18660
 5492.50000   -9999.25   -9999.25   31.94040    0.20050
 5493.00000   -9999.25   -9999.25   34.13050    0.21090
 5493.50000   -9999.25   -9999.25   35.88390    0.21500
 5494.00000   -9999.25   -9999.25   36.65130    0.21260
 5494.50000   -9999.25   -9999.25   37.40940    0.21170
 5495.00000   -9999.25   -9999.25   37.74720    0.20860
 5495.50000   -9999.25   -9999.25   37.01420    0.19220
 5496.00000   -9999.25   -9999.25   32.55370    0.16510
 5496.50000   -9999.25   -9999.25   27.48590    0.14940
 5497.00000   -9999.25   -9999.25   25.02430    0.14830
 5497.50000   -9999.25   -9999.25   25.10190    0.15460
 5498.00000   -9999.25   -9999.25   26.25860    0.16320
 5498.50000   -9999.25   -9999.25   28.83190    0.17590
 5499.00000   -9999.25   -9999.25   31.74920    0.19610
 5499.50000   -9999.25   -9999.25   34.45330    0.21780
 5500.00000   -9999.25   -9999.25   36.68070    0.23500
 5500.50000   -9999.25   -9999.25   40.26720    0.24630
 5501.00000   -9999.25   -9999.25   44.34020    0.25760
 5501.50000   -9999.25   -9999.25   46.98880    0.27200
 5502.00000   -9999.25   -9999.25   47.22890    0.28070
 5502.50000   -9999.25   -9999.25   46.75620    0.27980
 5503.00000   -9999.25   -9999.25   47.79330    0.26980
 5503.50000   -9999.25   -9999.25   49.22290    0.26010
 5504.00000   -9999.25   -9999.25   48.23360    0.25390
 5504.50000   -9999.25   -9999.25   43.84560    0.25110
 5505.00000   -9999.25   -9999.25   37.88980    0.24170
 5505.50000   -9999.25   -9999.25   34.52750    0.22770
 5506.00000   -9999.25   -9999.25   36.12150    0.21480
 5506.50000   -9999.25   -9999.25   42.56950    0.21330
 5507.00000   -9999.25   -9999.25   46.71740    0.22170
 5507.50000   -9999.25   -9999.25   48.42090    0.23210
 5508.00000   -9999.25   -9999.25   48.12290    0.24770
 5508.50000   -9999.25   -9999.25   47.31430    0.27370
 5509.00000   -9999.25   -9999.25   44.95680    0.29200
 5509.50000   -9999.25   -9999.25   42.04200    0.30050
 5510.00000   -9999.25   -9999.25   39.99930    0.29010
 5510.50000   -9999.25   -9999.25   42.42200    0.27850
 5511.00000   -9999.25   -9999.25   45.79160    0.26850
 5511.50000   -9999.25   -9999.25   49.42150    0.26530
 5512.00000   -9999.25   -9999.25   50.08900    0.26890
 5512.50000   -9999.25   -9999.25   49.84860    0.27350
 5513.00000   -9999.25   -9999.25   48.72230    0.26950
 5513.50000   -9999.25   -9999.25   47.52640    0.26010
 5514.00000   -9999.25   -9999.25   46.47620    0.25480
 5514.50000   -9999.25   -9999.25   46.25700    0.25090
 5515.00000   -9999.25   -9999.25   46.54260    0.24490
 5515.50000   -9999.25   -9999.25   46.93140    0.24400
 5516.00000   -9999.25   -9999.25   45.88940    0.24550
 5516.50000   -9999.25   -9999.25   44.44630    0.24450
 5517.00000   -9999.25   -9999.25   41.75900    0.23860
 5517.50000   -9999.25   -9999.25   38.87930    0.22810
 5518.00000   -9999.25   -9999.25   37.43740    0.21980
 5518.50000   -9999.25   -9999.25   40.18910    0.22210
 5519.00000   -9999.25   -9999.25   43.82830    0.23530
 5519.50000   -9999.25   -9999.25   45.77720    0.24610
 5520.00000   -9999.25   -9999.25   45.84050    0.24940
 5520.50000   -9999.25   -9999.25   45.30570    0.24150
 5521.00000   -9999.25   -9999.25   44.74390    0.22350
 5521.50000   -9999.25   -9999.25   43.94010    0.20530
 5522.00000   -9999.25   -9999.25   43.58820    0.19230
 5522.50000   -9999.25   -9999.25   43.91380    0.19650
 5523.00000   -9999.25   -9999.25   43.86950    0.20530
 5523.50000   -9999.25   -9999.25   42.66060    0.21630
 5524.00000   -9999.25   -9999.25   40.37670    0.22680
 5524.50000   -9999.25   -9999.25   38.98160    0.23210
 5525.00000   -9999.25   -9999.25   40.19490    0.22760
 5525.50000   -9999.25   -9999.25   42.14140    0.21180
 5526.00000   -9999.25   -9999.25   43.61980    0.19400
 5526.50000   -9999.25   -9999.25   43.10120    0.18800
 5527.00000   -9999.25   -9999.25   42.09570    0.19340
 5527.50000   -9999.25   -9999.25   41.32790    0.19790
 5528.00000   -9999.25   -9999.25   41.85160    0.19410
 5528.50000   -9999.25   -9999.25   43.68620    0.19340
 5529.00000   -9999.25   -9999.25   47.11930    0.21200
 5529.50000   -9999.25   -9999.25   50.90290    0.23770
 5530.00000   -9999.25   -9999.25   54.25490    0.25430
 5530.50000   -9999.25   -9999.25   54.55330    0.24810
 5531.00000   -9999.25   -9999.25   53.81510    0.24190
 5531.50000   -9999.25   -9999.25   55.66020    0.26750
 5532.00000   -9999.25   -9999.25   59.85680    0.29920
 5532.50000   -9999.25   -9999.25   63.38380    0.41310
 5533.00000   -9999.25   -9999.25   65.08870    0.44660
 5533.50000   -9999.25   -9999.25   63.97330    0.40400
 5534.00000   -9999.25   -9999.25   63.67740    0.34530
 5534.50000   -9999.25   -9999.25   64.22880    0.33240
