~Version ---------------------------------------------------
VERS.   2.0 : CWLS log ASCII Standard -VERSION 2.0
WRAP.    NO : One line per depth step
DLM . SPACE : Column Data Section Delimiter
~Well ------------------------------------------------------
STRT .FT                5249.0 : START DEPTH
STOP .FT                6226.0 : STOP DEPTH
STEP .FT                   0.5 : STEP
NULL .                -9999.25 : NULL VALUE
COMP .                         : COMPANY
WELL .                         : WELL
FLD  .                         : FIELD
LOC  .                         : LOCATION
PROV .                         : PROVINCE
CNTY .                         : COUNTY
STAT .                         : STATE
CTRY .                         : COUNTRY
SRVC .                         : SERVICE COMPANY
DATE .                         : DATE
UWI  .                         : UNIQUE WELL ID
API  .                         : API NUMBER
SLAT .WGS84 7.1761008739440015 : SURFACE LATITUDE
SLON .WGS84  6.222574757162008 : SURFACE LONGITUDE
DATUM.F                 3348.7 : DEPTH DATUM ELEV
~Curve Information -----------------------------------------
DEPT   .FT    : 
DTCO   .US/F  : DELTA-T COMPRESSIONAL
DTSM   .US/F  : DELTA-T SHEAR
GRD    .GAPI  : GAMMA RAY FROM DENSITY LOG
NPHI_LS.DEC   : NEUTRON POROSITY LIMESTONE
~Params ----------------------------------------------------
~Other -----------------------------------------------------
~ASCII -----------------------------------------------------
# ...
 6107.00000   56.25890   86.95470   77.83740    0.50480
 6107.50000   56.23230   82.03190   77.81960    0.47930
 6108.00000   55.86250   82.51160   79.08240    0.46770
 6108.50000   55.04650   81.39240   80.19650    0.47110
 6109.00000   53.08140   81.87210   79.11190    0.47060
 6109.50000   53.96400   85.70900   78.05720    0.47700
 6110.00000   56.11230   88.26700   78.47250    0.50510
 6110.50000   55.64600   87.18780   78.78840    0.54590
 6111.00000   55.17970   89.06630   79.38770    0.55680
 6111.50000   54.55800   86.57050   81.17010    0.52710
 6112.00000   54.24710   83.68390   83.88790    0.49120
 6112.50000   54.31370   81.79210   86.12420    0.45930
 6113.00000   58.97670   90.84490   88.28240    0.46220
 6113.50000   71.56670  108.91730   90.77410    0.47120
 6114.00000   76.94070  120.50140   90.99170    0.45730
 6114.50000   75.34770  121.61660   89.33240    0.42840
 6115.00000   72.34790  120.09780   86.87170    0.39940
 6115.50000   69.13840  118.15000   84.81370    0.38070
 6116.00000   65.19400  114.48620   82.79890    0.40690
 6116.50000   58.31060  105.61320   80.75290    0.46060
 6117.00000   52.95930   95.30140   78.66900    0.53280
 6117.50000   52.04890   94.82180   78.31450    0.59260
 6118.00000   54.58020   97.85940   82.81370    0.60240
 6118.50000   57.79990  101.45650   90.29830    0.54550
 6119.00000   67.98290  110.50930   95.77470    0.47490
 6119.50000   84.12350  134.37440   96.03870    0.44680
 6120.00000   92.53030  149.09870   94.85660    0.45750
 6120.50000   92.12040  149.57830   94.88470    0.45670
 6121.00000   91.69020  147.05510   96.74280    0.43660
 6121.50000   91.93610  141.63340   98.89840    0.41770
 6122.00000   91.26000  137.58100  100.55870    0.41150
 6122.50000   86.87560  135.58260  102.32100    0.40900
 6123.00000   82.49130  135.15790  104.63430    0.39900
 6123.50000   81.29220  134.38350  109.47140    0.36270
 6124.00000   80.32630  133.36440  115.72580    0.31790
 6124.50000   79.82670  132.87150  122.00720    0.26610
 6125.00000   78.89410  130.96450  126.48080    0.23400
 6125.50000   75.15830  125.02630  128.04730    0.22590
 6126.00000   74.42080  123.83870  128.82610    0.22100
 6126.50000   75.50250  124.79790  129.84100    0.22780
 6127.00000   76.01870  125.67720  131.59180    0.24240
 6127.50000   76.92420  126.87630  133.34270    0.25750
 6128.00000   78.06620  125.22420  132.22170    0.27180
 6128.50000   79.61350  121.69360  127.35400    0.29170
 6129.00000   80.62610  115.12380  121.36500    0.33130
 6129.50000   80.62610  114.23940  118.23710    0.32970
 6130.00000   79.07170  114.03950  119.03690    0.30030
 6130.50000   77.29520  114.29930  121.10040    0.24840
 6131.00000   74.76100  117.63000  122.47630    0.20950
 6131.50000   72.63840  123.49200  123.95860    0.18930
 6132.00000   72.51910  130.48650  125.66580    0.20830
 6132.50000   73.73610  134.34230  124.00040    0.27710
 6133.00000   75.49670  136.10560  118.57370    0.29990
 6133.50000   76.63860  137.86890  114.10460    0.32410
 6134.00000   78.04460  139.82910  112.99370    0.29970
 6134.50000   79.29370  142.57700  120.63880    0.18920
 6135.00000   76.91770  137.93060  127.76490    0.16650
 6135.50000   72.13260  130.70630  134.33570    0.16890
 6136.00000   69.50140  124.59120  140.59240    0.17050
 6136.50000   69.99430  125.19070  145.52950    0.17360
 6137.00000   70.43400  127.01780  150.46660    0.19060
 6137.50000   71.49980  128.65940  151.64040    0.22520
 6138.00000   73.83130  133.96250  148.85820    0.25660
 6138.50000   77.11760  140.18100  130.92150    0.25410
 6139.00000   79.81550  142.86570  106.38430    0.21180
 6139.50000   82.42450  145.67450  100.13490    0.15980
 6140.00000   83.35710  147.23990   58.41480    0.12370
 6140.50000   84.37670  146.67370   45.87340    0.10760
 6141.00000   83.65260  143.37630   41.55390    0.10610
 6141.50000   81.59180  138.87990   40.32260    0.10450
 6142.00000   79.56010  133.18440   38.00760    0.09660
 6142.50000   78.06790  129.47300   35.23150    0.08890
 6143.00000   77.48170  126.22240   33.29220    0.08330
 6143.50000   77.29520  123.27900   32.96630    0.08470
 6144.00000   77.29520  122.87930   33.02670    0.08970
 6144.50000   76.29600  123.03920   32.51160    0.09420
 6145.00000   74.36420  123.27900   31.51870    0.09010
 6145.50000   75.01370  125.51320   30.51410    0.07630
 6146.00000   76.09620  127.27590   28.89390    0.06430
 6146.50000   74.98590  124.72030   27.28190    0.06180
 6147.00000   71.87730  120.59430   28.86400    0.06640
 6147.50000   70.70040  120.69430   31.79980    0.07090
 6148.00000   71.89950  124.10820   34.40150    0.07250
 6148.50000   72.85870  125.11580   35.13210    0.07200
 6149.00000   73.43160  125.74030   34.14730    0.07010
 6149.50000   74.88160  127.28900   33.22810    0.06910
 6150.00000   74.97380  125.69030   31.92240    0.06890
 6150.50000   72.99820  122.97750   31.58440    0.06930
 6151.00000   72.03270  121.12070   32.83440    0.07110
 6151.50000   72.29920  120.72100   34.62740    0.07380
 6152.00000   71.89950  120.48120   34.86070    0.07770
 6152.50000   71.73300  120.16150   32.55820    0.07970
 6153.00000   71.89950  119.44200   29.43450    0.07810
 6153.50000   72.89870  119.12230   27.33100    0.07850
 6154.00000   74.16440  119.68190   28.54860    0.08310
 6154.50000   74.63070  119.12230   31.18470    0.09090
 6155.00000   71.52200  114.86780   33.37900    0.08790
 6155.50000   67.61400  108.14960   33.87810    0.07580
 6156.00000   64.63860  105.85280   31.93590    0.05910
 6156.50000   64.79400  105.85280   29.02820    0.04500
 6157.00000   65.20480  105.21330   26.30010    0.04240
 6157.50000   65.77100  107.55590   24.58690    0.05080
 6158.00000   68.15580  112.07450   25.54300    0.07000
 6158.50000   72.45460  116.59310   28.04670    0.09020
 6159.00000   76.17610  119.85350   31.22380    0.09980
 6159.50000   78.35270  122.79940   34.63160    0.09720
 6160.00000   79.12710  123.99850   36.79040    0.08970
 6160.50000   78.21850  124.55800   37.66490    0.08120
 6161.00000   77.28260  124.79780   37.79300    0.07560
 6161.50000   76.72900  124.87780   37.68020    0.07240
 6162.00000   75.49670  124.59120   37.16520    0.07390
 6162.50000   73.96450  123.99160   35.78520    0.07960
 6163.00000   73.29840  122.91590   34.67900    0.08810
 6163.50000   73.43160  121.06740   33.77240    0.09490
 6164.00000   73.85350  120.88090   32.22400    0.09880
 6164.50000   74.29760  123.05520   31.18910    0.09980
 6165.00000   74.76390  124.83510   31.23670    0.10090
 6165.50000   75.23020  126.38040   32.63790    0.10020
 6166.00000   77.61160  127.44450   35.26240    0.09950
 6166.50000   79.22700  128.38820   37.62310    0.10000
 6167.00000   80.12630  130.38660   37.84840    0.10170
 6167.50000   80.49270  132.38500   36.28530    0.10320
 6168.00000   80.55930  134.38340   33.91990    0.10400
 6168.50000   80.55930  135.41600   33.48580    0.10110
 6169.00000   80.40390  134.08370   34.31910    0.09560
 6169.50000   80.37610  132.63160   34.90050    0.08890
 6170.00000   80.35950  132.92680   34.76030    0.08870
 6170.50000   80.27490  133.41880   34.64260    0.09870
 6171.00000   80.33550  133.91080   36.02160    0.11250
 6171.50000   79.78680  133.91080   37.94710    0.11740
 6172.00000   79.16070  132.38910   38.20110    0.11460
 6172.50000   79.56030  130.38680   37.45640    0.10920
 6173.00000   80.09320  129.18770   37.73210    0.10480
 6173.50000   79.69360  127.14360   38.95780    0.10430
 6174.00000   78.09480  124.39830   40.42210    0.10830
 6174.50000   76.42950  122.87950   42.13930    0.11130
 6175.00000   75.44930  126.99620   44.93200    0.11080
 6175.50000   74.83080  136.08900   49.30660    0.10750
 6176.00000   74.49770  141.90440   53.42740    0.10450
 6176.50000   74.65950  141.42480   53.16560    0.10530
 6177.00000   74.83080  135.48270   48.80930    0.10690
 6177.50000   75.01390  127.98870   43.51960    0.10850
 6178.00000   76.40730  117.37210   38.58340    0.10490
