~Version ---------------------------------------------------
VERS.   2.0 : CWLS log ASCII Standard -VERSION 2.0
WRAP.    NO : One line per depth step
DLM . SPACE : Column Data Section Delimiter
~Well ------------------------------------------------------
STRT .FT                5249.0 : START DEPTH
STOP .FT                6226.0 : STOP DEPTH
STEP .FT                   0.5 : STEP
NULL .                -9999.25 : NULL VALUE
COMP .                         : COMPANY
WELL .                         : WELL
FLD  .                         : FIELD
LOC  .                         : LOCATION
PROV .                         : PROVINCE
CNTY .                         : COUNTY
STAT .                         : STATE
CTRY .                         : COUNTRY
SRVC .                         : SERVICE COMPANY
DATE .                         : DATE
UWI  .                         : UNIQUE WELL ID
API  .                         : API NUMBER
SLAT .WGS84 7.1761008739440015 : SURFACE LATITUDE
SLON .WGS84  6.222574757162008 : SURFACE LONGITUDE
DATUM.F                 3348.7 : DEPTH DATUM ELEV
~Curve Information -----------------------------------------
DEPT   .FT    : 
DTCO   .US/F  : DELTA-T COMPRESSIONAL
DTSM   .US/F  : DELTA-T SHEAR
GRD    .GAPI  : GAMMA RAY FROM DENSITY LOG
NPHI_LS.DEC   : NEUTRON POROSITY LIMESTONE
~Params ----------------------------------------------------
~Other -----------------------------------------------------
~ASCII -----------------------------------------------------
# ...
 5678.00000   -9999.25   -9999.25   66.41270    0.36360
 5678.50000   -9999.25   -9999.25   70.59580    0.34290
 5679.00000   -9999.25   -9999.25   69.16770    0.31170
 5679.50000   -9999.25   -9999.25   62.39430    0.27060
 5680.00000   -9999.25   -9999.25   55.69880    0.22700
 5680.50000   -9999.25   -9999.25   54.62890    0.22440
 5681.00000   -9999.25   -9999.25   58.64200    0.26280
 5681.50000   -9999.25   -9999.25   64.40860    0.29980
 5682.00000   -9999.25   -9999.25   68.44260    0.36290
 5682.50000   -9999.25   -9999.25   69.88250    0.40700
 5683.00000   -9999.25   -9999.25   68.73480    0.42030
 5683.50000   -9999.25   -9999.25   67.15570    0.40310
 5684.00000   -9999.25   -9999.25   67.95700    0.37500
 5684.50000   -9999.25   -9999.25   70.32880    0.36860
 5685.00000   -9999.25   -9999.25   70.79340    0.38360
 5685.50000   -9999.25   -9999.25   69.24070    0.39910
 5686.00000   -9999.25   -9999.25   65.78680    0.37170
 5686.50000   -9999.25   -9999.25   58.36380    0.31250
 5687.00000   -9999.25   -9999.25   47.58930    0.21120
 5687.50000   -9999.25   -9999.25   39.25300    0.17580
 5688.00000   -9999.25   -9999.25   40.32780    0.21430
 5688.50000   -9999.25   -9999.25   49.90170    0.27510
 5689.00000   -9999.25   -9999.25   58.68820    0.34010
 5689.50000   -9999.25   -9999.25   65.68700    0.36830
 5690.00000   -9999.25   -9999.25   72.71990    0.38840
 5690.50000   -9999.25   -9999.25   79.17080    0.39410
 5691.00000   -9999.25   -9999.25   84.92730    0.40180
 5691.50000   -9999.25   -9999.25   85.28630    0.41910
 5692.00000   -9999.25   -9999.25   83.03420    0.45080
 5692.50000   -9999.25   -9999.25   80.18310    0.49780
 5693.00000   -9999.25   -9999.25   82.25460    0.50780
 5693.50000   -9999.25   -9999.25   85.57630    0.49150
 5694.00000   -9999.25   -9999.25   89.76430    0.46060
 5694.50000   -9999.25   -9999.25   94.30800    0.45500
 5695.00000   -9999.25   -9999.25   97.31800    0.47690
 5695.50000   -9999.25   -9999.25   98.32320    0.50030
 5696.00000   -9999.25   -9999.25   98.86510    0.49630
 5696.50000   -9999.25   -9999.25   99.96700    0.48210
 5697.00000   -9999.25   -9999.25  105.55610    0.48840
 5697.50000   -9999.25   -9999.25  110.01960    0.50250
 5698.00000   -9999.25   -9999.25  112.85090    0.51330
 5698.50000   -9999.25   -9999.25  113.11870    0.49880
 5699.00000   -9999.25   -9999.25  111.00880    0.48290
 5699.50000   -9999.25   -9999.25  108.11670    0.47340
 5700.00000   -9999.25   -9999.25  104.99220    0.46750
 5700.50000   -9999.25   -9999.25  101.38670    0.45160
 5701.00000   -9999.25   -9999.25  100.00020    0.42510
 5701.50000   -9999.25   -9999.25   97.22170    0.40380
 5702.00000   -9999.25   -9999.25   98.44850    0.42040
 5702.50000   -9999.25   -9999.25  100.15920    0.44770
 5703.00000   -9999.25   -9999.25  103.75720    0.47870
 5703.50000   -9999.25   -9999.25  100.65240    0.51070
 5704.00000   -9999.25   -9999.25   87.00880    0.52590
 5704.50000   -9999.25   -9999.25   80.36880    0.49430
 5705.00000   -9999.25   -9999.25   74.18790    0.45410
 5705.50000   -9999.25   -9999.25   70.84940    0.41850
 5706.00000   -9999.25   -9999.25   67.07190    0.41850
 5706.50000   -9999.25   -9999.25   62.98850    0.45820
 5707.00000   -9999.25   -9999.25   60.80280    0.51190
 5707.50000   -9999.25   -9999.25   61.82190    0.55930
 5708.00000   -9999.25   -9999.25   63.15900    0.60670
 5708.50000   -9999.25   -9999.25   62.66320    0.60450
 5709.00000   -9999.25   -9999.25   56.83250    0.50320
 5709.50000   -9999.25   -9999.25   47.91240    0.37730
 5710.00000   -9999.25   -9999.25   36.70990    0.30020
 5710.50000   -9999.25   -9999.25   28.81890    0.11910
 5711.00000   -9999.25   -9999.25   24.40820    0.08560
 5711.50000   -9999.25   -9999.25   22.06860    0.07130
 5712.00000   -9999.25   -9999.25   20.36390    0.06840
 5712.50000   -9999.25   -9999.25   18.01380    0.06400
 5713.00000   -9999.25   -9999.25   15.98810    0.05770
 5713.50000   -9999.25   -9999.25   15.20990    0.05260
 5714.00000   -9999.25   -9999.25   16.83510    0.06570
 5714.50000   -9999.25   -9999.25   19.76290    0.08110
 5715.00000   -9999.25   -9999.25   22.23830    0.08990
 5715.50000   -9999.25   -9999.25   22.26140    0.09400
 5716.00000   -9999.25   -9999.25   20.70140    0.09740
 5716.50000   -9999.25   -9999.25   19.16260    0.09570
 5717.00000   -9999.25   -9999.25   19.04730    0.08990
 5717.50000   -9999.25   -9999.25   19.24780    0.08190
 5718.00000   -9999.25   -9999.25   18.87000    0.07670
 5718.50000   -9999.25   -9999.25   19.29900    0.08010
 5719.00000   -9999.25   -9999.25   20.04720    0.08650
 5719.50000   -9999.25   -9999.25   20.95260    0.08990
 5720.00000   -9999.25   -9999.25   23.26840    0.09580
 5720.50000   -9999.25   -9999.25   28.40170    0.11130
 5721.00000   -9999.25   -9999.25   34.84540    0.12870
 5721.50000   -9999.25   -9999.25   40.09600    0.14360
 5722.00000   -9999.25   -9999.25   39.75150    0.13140
 5722.50000   -9999.25   -9999.25   36.81260    0.10620
 5723.00000   -9999.25   -9999.25   34.11060    0.09110
 5723.50000   -9999.25   -9999.25   36.00190    0.09790
 5724.00000   -9999.25   -9999.25   40.79010    0.11330
 5724.50000   -9999.25   -9999.25   45.33830    0.12500
 5725.00000   -9999.25   -9999.25   43.79480    0.11930
 5725.50000   -9999.25   -9999.25   37.53140    0.10320
 5726.00000   -9999.25   -9999.25   31.44210    0.08560
 5726.50000   -9999.25   -9999.25   28.93940    0.07430
 5727.00000   -9999.25   -9999.25   29.89780    0.06970
 5727.50000   -9999.25   -9999.25   31.18920    0.07030
 5728.00000   -9999.25   -9999.25   30.85110    0.07100
 5728.50000   -9999.25   -9999.25   30.27630    0.07190
 5729.00000   -9999.25   -9999.25   31.80910    0.07420
 5729.50000   -9999.25   -9999.25   35.03860    0.07990
 5730.00000   -9999.25   -9999.25   38.40350    0.08870
 5730.50000   -9999.25   -9999.25   43.13850    0.10550
 5731.00000   -9999.25   -9999.25   48.54070    0.12700
 5731.50000   -9999.25   -9999.25   56.21460    0.15680
 5732.00000   -9999.25   -9999.25   63.79940    0.18650
 5732.50000   -9999.25   -9999.25   68.96680    0.20460
 5733.00000   -9999.25   -9999.25   71.95850    0.21700
 5733.50000   -9999.25   -9999.25   73.00850    0.21430
 5734.00000   -9999.25   -9999.25   74.89810    0.20150
 5734.50000   -9999.25   -9999.25   78.04910    0.19760
 5735.00000   -9999.25   -9999.25   80.79700    0.21460
 5735.50000   -9999.25   -9999.25   81.40940    0.23540
 5736.00000   -9999.25   -9999.25   81.10510    0.25610
 5736.50000   -9999.25   -9999.25   81.00880    0.26540
 5737.00000   -9999.25   -9999.25   80.48140    0.25640
 5737.50000   -9999.25   -9999.25   79.54570    0.24820
 5738.00000   -9999.25   -9999.25   79.49710    0.26360
 5738.50000   -9999.25   -9999.25   82.36850    0.29340
 5739.00000   -9999.25   -9999.25   88.37750    0.32960
 5739.50000   -9999.25   -9999.25   95.64530    0.38180
 5740.00000   -9999.25   -9999.25   98.72950    0.41990
 5740.50000   -9999.25   -9999.25  100.15650    0.42920
 5741.00000   -9999.25   -9999.25  105.26080    0.41380
 5741.50000   -9999.25   -9999.25  108.73600    0.38960
 5742.00000   -9999.25   -9999.25  109.23740    0.36950
 5742.50000   -9999.25   -9999.25  107.90100    0.35210
 5743.00000   -9999.25   -9999.25  107.70080    0.33470
 5743.50000   -9999.25   -9999.25  108.43610    0.31740
 5744.00000   -9999.25   -9999.25  105.66960    0.30410
 5744.50000   -9999.25   -9999.25  100.21650    0.29990
 5745.00000   -9999.25   -9999.25   87.61540    0.22910
 5745.50000   -9999.25   -9999.25   82.32730    0.19190
 5746.00000   -9999.25   -9999.25   79.42490    0.16820
 5746.50000   -9999.25   -9999.25   79.04960    0.17080
 5747.00000   -9999.25   -9999.25   80.30880    0.18540
 5747.50000   -9999.25   -9999.25   83.57660    0.20160
 5748.00000   -9999.25   -9999.25   87.23800    0.21280
 5748.50000   -9999.25   -9999.25   88.53530    0.21960
 5749.00000   -9999.25   -9999.25   88.11020    0.22530
