~Version ---------------------------------------------------
VERS.   2.0 : CWLS log ASCII Standard -VERSION 2.0
WRAP.    NO : One line per depth step
DLM . SPACE : Column Data Section Delimiter
~Well ------------------------------------------------------
STRT .FT                5249.0 : START DEPTH
STOP .FT                6226.0 : STOP DEPTH
STEP .FT                   0.5 : STEP
NULL .                -9999.25 : NULL VALUE
COMP .                         : COMPANY
WELL .                         : WELL
FLD  .                         : FIELD
LOC  .                         : LOCATION
PROV .                         : PROVINCE
CNTY .                         : COUNTY
STAT .                         : STATE
CTRY .                         : COUNTRY
SRVC .                         : SERVICE COMPANY
DATE .                         : DATE
UWI  .                         : UNIQUE WELL ID
API  .                         : API NUMBER
SLAT .WGS84 7.1761008739440015 : SURFACE LATITUDE
SLON .WGS84  6.222574757162008 : SURFACE LONGITUDE
DATUM.F                 3348.7 : DEPTH DATUM ELEV
~Curve Information -----------------------------------------
DEPT   .FT    : 
DTCO   .US/F  : DELTA-T COMPRESSIONAL
DTSM   .US/F  : DELTA-T SHEAR
GRD    .GAPI  : GAMMA RAY FROM DENSITY LOG
NPHI_LS.DEC   : NEUTRON POROSITY LIMESTONE
~Params ----------------------------------------------------
~Other -----------------------------------------------------
~ASCII -----------------------------------------------------
# ...
 5320.50000   -9999.25   -9999.25   46.59230    0.08920
 5321.00000   -9999.25   -9999.25   48.26260    0.09330
 5321.50000   -9999.25   -9999.25   48.38720    0.09700
 5322.00000   -9999.25   -9999.25   45.10840    0.10300
 5322.50000   -9999.25   -9999.25   40.05390    0.10580
 5323.00000   -9999.25   -9999.25   36.58860    0.10450
 5323.50000   -9999.25   -9999.25   38.28360    0.10220
 5324.00000   -9999.25   -9999.25   42.08630    0.09950
 5324.50000   -9999.25   -9999.25   44.08280    0.09230
 5325.00000   -9999.25   -9999.25   42.33010    0.08610
 5325.50000   -9999.25   -9999.25   40.07410    0.08630
 5326.00000   -9999.25   -9999.25   40.25490    0.09270
 5326.50000   -9999.25   -9999.25   41.20380    0.10340
 5327.00000   -9999.25   -9999.25   40.30950    0.10690
 5327.50000   -9999.25   -9999.25   38.67490    0.10630
 5328.00000   -9999.25   -9999.25   36.47240    0.10510
 5328.50000   -9999.25   -9999.25   34.79450    0.10130
 5329.00000   -9999.25   -9999.25   33.08010    0.09550
 5329.50000   -9999.25   -9999.25   31.92460    0.08900
 5330.00000   -9999.25   -9999.25   32.00480    0.08240
 5330.50000   -9999.25   -9999.25   33.37020    0.08560
 5331.00000   -9999.25   -9999.25   35.27940    0.09240
 5331.50000   -9999.25   -9999.25   37.70380    0.09420
 5332.00000   -9999.25   -9999.25   40.59110    0.09380
 5332.50000   -9999.25   -9999.25   41.80510    0.09500
 5333.00000   -9999.25   -9999.25   40.77830    0.09810
 5333.50000   -9999.25   -9999.25   39.21800    0.09910
 5334.00000   -9999.25   -9999.25   38.63960    0.09870
 5334.50000   -9999.25   -9999.25   38.69350    0.09730
 5335.00000   -9999.25   -9999.25   37.50520    0.09450
 5335.50000   -9999.25   -9999.25   36.56540    0.08970
 5336.00000   -9999.25   -9999.25   36.57630    0.08480
 5336.50000   -9999.25   -9999.25   36.83890    0.08630
 5337.00000   -9999.25   -9999.25   36.88900    0.09330
 5337.50000   -9999.25   -9999.25   36.12290    0.09900
 5338.00000   -9999.25   -9999.25   35.88950    0.09750
 5338.50000   -9999.25   -9999.25   36.79570    0.09320
 5339.00000   -9999.25   -9999.25   38.39250    0.09470
 5339.50000   -9999.25   -9999.25   40.25770    0.10140
 5340.00000   -9999.25   -9999.25   40.41700    0.10310
 5340.50000   -9999.25   -9999.25   38.99550    0.09970
 5341.00000   -9999.25   -9999.25   37.31000    0.09580
 5341.50000   -9999.25   -9999.25   36.03240    0.09300
 5342.00000   -9999.25   -9999.25   36.62490    0.09370
 5342.50000   -9999.25   -9999.25   39.00430    0.09480
 5343.00000   -9999.25   -9999.25   42.62200    0.09710
 5343.50000   -9999.25   -9999.25   45.26300    0.10200
 5344.00000   -9999.25   -9999.25   46.43190    0.10790
 5344.50000   -9999.25   -9999.25   46.58580    0.11500
 5345.00000   -9999.25   -9999.25   46.53710    0.12200
 5345.50000   -9999.25   -9999.25   46.13860    0.12940
 5346.00000   -9999.25   -9999.25   45.00150    0.13740
 5346.50000   -9999.25   -9999.25   43.60750    0.14390
 5347.00000   -9999.25   -9999.25   41.96850    0.14180
 5347.50000   -9999.25   -9999.25   40.23430    0.13320
 5348.00000   -9999.25   -9999.25   39.57730    0.12390
 5348.50000   -9999.25   -9999.25   38.25330    0.11720
 5349.00000   -9999.25   -9999.25   37.52640    0.12140
 5349.50000   -9999.25   -9999.25   38.33210    0.13210
 5350.00000   -9999.25   -9999.25   39.99030    0.14320
 5350.50000   -9999.25   -9999.25   39.30270    0.15640
 5351.00000   -9999.25   -9999.25   36.81830    0.16550
 5351.50000   -9999.25   -9999.25   35.11170    0.17060
 5352.00000   -9999.25   -9999.25   42.40960    0.17380
 5352.50000   -9999.25   -9999.25   49.36950    0.18190
 5353.00000   -9999.25   -9999.25   56.32950    0.19590
 5353.50000   -9999.25   -9999.25   64.49600    0.21940
 5354.00000   -9999.25   -9999.25   81.85100    0.25440
 5354.50000   -9999.25   -9999.25   99.60760    0.29950
 5355.00000   -9999.25   -9999.25  111.20170    0.40030
 5355.50000   -9999.25   -9999.25  112.97700    0.45940
 5356.00000   -9999.25   -9999.25  108.09330    0.47560
 5356.50000   -9999.25   -9999.25  102.26230    0.47070
 5357.00000   -9999.25   -9999.25  101.06420    0.48340
 5357.50000   -9999.25   -9999.25  106.08140    0.51910
 5358.00000   -9999.25   -9999.25  113.56880    0.51700
 5358.50000   -9999.25   -9999.25  115.31130    0.48870
 5359.00000   -9999.25   -9999.25  106.63890    0.44510
 5359.50000   -9999.25   -9999.25  100.48470    0.41970
 5360.00000   -9999.25   -9999.25   73.34360    0.39220
 5360.50000   -9999.25   -9999.25   58.45370    0.34230
 5361.00000   -9999.25   -9999.25   47.17950    0.30520
 5361.50000   -9999.25   -9999.25   39.93890    0.26050
 5362.00000   -9999.25   -9999.25   36.16040    0.24550
 5362.50000   -9999.25   -9999.25   35.09480    0.24480
 5363.00000   -9999.25   -9999.25   35.85590    0.25210
 5363.50000   -9999.25   -9999.25   36.78380    0.26040
 5364.00000   -9999.25   -9999.25   37.84560    0.27810
 5364.50000   -9999.25   -9999.25   41.80180    0.29570
 5365.00000   -9999.25   -9999.25   45.60860    0.31140
 5365.50000   -9999.25   -9999.25   49.32700    0.29980
 5366.00000   -9999.25   -9999.25   48.78500    0.26320
 5366.50000   -9999.25   -9999.25   46.88950    0.25170
 5367.00000   -9999.25   -9999.25   46.09820    0.26270
 5367.50000   -9999.25   -9999.25   46.10460    0.27540
 5368.00000   -9999.25   -9999.25   46.79440    0.27270
 5368.50000   -9999.25   -9999.25   48.48660    0.26730
 5369.00000   -9999.25   -9999.25   51.10590    0.27690
 5369.50000   -9999.25   -9999.25   53.58690    0.29370
 5370.00000   -9999.25   -9999.25   54.44630    0.29960
 5370.50000   -9999.25   -9999.25   54.33250    0.29880
 5371.00000   -9999.25   -9999.25   53.25990    0.27540
 5371.50000   -9999.25   -9999.25   49.20500    0.24550
 5372.00000   -9999.25   -9999.25   42.54670    0.20270
 5372.50000   -9999.25   -9999.25   34.78480    0.14080
 5373.00000   -9999.25   -9999.25   29.30450    0.11000
 5373.50000   -9999.25   -9999.25   27.12610    0.11410
 5374.00000   -9999.25   -9999.25   28.02300    0.12420
 5374.50000   -9999.25   -9999.25   29.14360    0.12550
 5375.00000   -9999.25   -9999.25   29.77660    0.11260
 5375.50000   -9999.25   -9999.25   28.42310    0.09660
 5376.00000   -9999.25   -9999.25   26.81210    0.08470
 5376.50000   -9999.25   -9999.25   25.21360    0.07850
 5377.00000   -9999.25   -9999.25   23.21610    0.08380
 5377.50000   -9999.25   -9999.25   20.85080    0.09860
 5378.00000   -9999.25   -9999.25   19.96320    0.11400
 5378.50000   -9999.25   -9999.25   21.13120    0.11930
 5379.00000   -9999.25   -9999.25   23.49790    0.11110
 5379.50000   -9999.25   -9999.25   24.75820    0.09620
 5380.00000   -9999.25   -9999.25   25.21910    0.08190
 5380.50000   -9999.25   -9999.25   25.53200    0.07310
 5381.00000   -9999.25   -9999.25   27.38130    0.08270
 5381.50000   -9999.25   -9999.25   29.22900    0.09730
 5382.00000   -9999.25   -9999.25   29.93670    0.10880
 5382.50000   -9999.25   -9999.25   28.74960    0.10720
 5383.00000   -9999.25   -9999.25   26.28350    0.09070
 5383.50000   -9999.25   -9999.25   23.53350    0.07950
 5384.00000   -9999.25   -9999.25   20.89040    0.07840
 5384.50000   -9999.25   -9999.25   20.05090    0.08120
 5385.00000   -9999.25   -9999.25   21.54220    0.08230
 5385.50000   -9999.25   -9999.25   23.43190    0.08190
 5386.00000   -9999.25   -9999.25   24.39110    0.08590
 5386.50000   -9999.25   -9999.25   23.53750    0.09270
 5387.00000   -9999.25   -9999.25   22.36110    0.09710
 5387.50000   -9999.25   -9999.25   20.96950    0.09710
 5388.00000   -9999.25   -9999.25   20.26850    0.09860
 5388.50000   -9999.25   -9999.25   19.77850    0.10270
 5389.00000   -9999.25   -9999.25   20.08080    0.10960
 5389.50000   -9999.25   -9999.25   21.63840    0.11470
 5390.00000   -9999.25   -9999.25   23.30700    0.11470
 5390.50000   -9999.25   -9999.25   24.38950    0.11200
 5391.00000   -9999.25   -9999.25   25.01510    0.11300
 5391.50000   -9999.25   -9999.25   25.93160    0.11600
