~Version ---------------------------------------------------
VERS.   2.0 : CWLS log ASCII Standard -VERSION 2.0
WRAP.    NO : One line per depth step
DLM . SPACE : Column Data Section Delimiter
~Well ------------------------------------------------------
STRT .F               15482.0 : START DEPTH
STOP .F               18784.0 : STOP DEPTH
STEP .F                   0.5 : STEP
NULL .               -9999.25 : NULL VALUE
COMP .                        : COMPANY
WELL .                        : WELL
FLD  .                        : FIELD
LOC  .                        : LOCATION
PROV .                        : PROVINCE
CNTY .                        : COUNTY
STAT .                        : STATE
CTRY .                        : COUNTRY
SRVC .                        : SERVICE COMPANY
DATE .                        : DATE
UWI  .                        : UNIQUE WELL ID
API  .                        : API NUMBER
SLAT .WGS84 5.602469417573602 : SURFACE LATITUDE
SLON .WGS84 3.050184767117898 : SURFACE LONGITUDE
DATUM.F                   nan : DEPTH DATUM ELEV
~Curve Information -----------------------------------------
DEPT   .F     : 1 MEASURED DEPTH
ILD    .OHMM  : INDUCTION DEEP RESISTIVITY
SPR    .MV    : SPONTANEOUS POTENTIAL FROM RESISTIVITY LOG
ILM    .OHMM  : INDUCTION MEDIUM RESISTIVITY
SFLU   .OHMM  : SHALLOW FOCUSED RESISTIVITY (UNAVERAGED)
NPOR_LS.DEC   : NEUTRON POROSITY LIMESTONE
DPHI_LS.DEC   : DENSITY POROSITY LIMESTONE
GRD    .GAPI  : GAMMA RAY FROM DENSITY LOG
DRHO   .G/C3  : BULK DENSITY CORRECTION
RHOB   .G/C3  : BULK DENSITY
CALD   .IN    : CALIPER FROM DENSITY LOG
DTCO   .US/F  : DELTA-T COMPRESSIONAL
DTMD   .US/F  : DELTA-T MUD
DTSM   .US/F  : DELTA-T SHEAR
~Params ----------------------------------------------------
~Other -----------------------------------------------------
~ASCII -----------------------------------------------------
# ...
 18316.00000 1966.98730  -71.97390   54.61900  620.04680   -0.00870    0.00590   25.95860   -0.00420    2.69590    7.23800   48.25260  254.67770   92.28040
 18316.50000 1968.40340  -71.82710   52.18090  583.58830   -0.00730    0.00960   29.71890   -0.00670    2.69190    7.23980   48.53440  254.68600   92.28920
 18317.00000 1645.90100  -71.95870   49.85170  548.23070   -0.00540    0.01650   32.46010   -0.00960    2.68030    7.23810   48.51080  254.49630   92.56010
 18317.50000 1326.91480  -72.09020   48.55350  511.27960   -0.00290    0.02100   32.85520   -0.01330    2.67370    7.23760   48.38950  254.57600   92.46840
 18318.00000  713.43390  -72.37320   47.55110  476.81900   -0.00040    0.01920   33.73710   -0.01200    2.67490    7.23810   48.29140  256.33330   92.98790
 18318.50000  389.87120  -72.69670   46.56930  430.76100    0.00230    0.01700   35.46340   -0.00750    2.68040    7.23860   48.29150  256.95530   93.14220
 18319.00000  373.66510  -73.02010   45.60780  390.17500    0.00510    0.01540   37.84140   -0.00450    2.68230    7.23850   48.29150  256.41150   93.15620
 18319.50000  358.13270  -73.25850   44.66610  353.05920    0.00780    0.01440   39.39770   -0.00460    2.68410    7.23790   48.29160  255.52020   93.17020
 18320.00000  359.29160  -72.92150   45.18040  319.47380    0.01010    0.01400   39.61510   -0.00710    2.68510    7.23920   48.24790  254.68170   93.17400
 18320.50000  380.88000  -73.84610   47.17770  296.28700    0.01030    0.01610   39.30630   -0.00960    2.68230    7.24040   48.18910  253.88220   93.15620
 18321.00000  468.01600  -74.65880   49.26330  306.51460    0.01010    0.02170   37.20680   -0.01210    2.67250    7.23980   48.13070  253.08280   93.12660
 18321.50000  649.98400  -75.06590   51.02380  403.83730    0.00800    0.02490   33.82670   -0.01460    2.66630    7.23910   48.07220  252.78590   92.89540
 18322.00000  902.70210  -75.47290   50.69870  534.75120    0.00380    0.02330   29.00080   -0.01510    2.66960    7.23840   48.01380  252.95370   92.51910
 18322.50000 1246.04880  -74.72700   50.37570  531.06710   -0.00030    0.01980   26.36450   -0.01430    2.67590    7.23790   48.04340  253.49040   92.24820
 18323.00000 1525.65700  -74.35700   50.84110  479.30750   -0.00280    0.01660   25.79790   -0.01320    2.68030    7.23750   48.10960  254.13760   92.14160
 18323.50000 1818.41860  -73.93380   51.41310  432.59260   -0.00330    0.01610   26.20960   -0.01200    2.68060    7.23710   48.17570  254.73500   91.98820
 18324.00000 1990.82210  -73.30740   51.99160  411.79290   -0.00280    0.02000   27.48700   -0.01090    2.67660    7.23660   48.21280  255.21890   92.23790
 18324.50000 1994.28750  -72.59910   52.57650  454.61830   -0.00270    0.02280   28.98600   -0.01020    2.67230    7.23490   48.19390  255.70280   91.99920
 18325.00000 1997.76000  -71.89090   53.16810  506.99540   -0.00340    0.02100   29.21320   -0.00700    2.67290    7.23330   48.15330  255.24160   91.91860
 18325.50000 2001.23740  -71.18260   54.78260  534.68190   -0.00470    0.01410   28.68890   -0.00380    2.68060    7.23350   48.11270  254.62930   91.77320
 18326.00000 2004.72090  -69.84090   56.97410  498.85350   -0.00590    0.00670   25.17100   -0.00370    2.69730    7.23330   47.70650  253.95370   91.35680
 18326.50000 2008.21060  -70.12560   58.16100  480.13550   -0.00620    0.00390   22.56040   -0.00360    2.70100    7.23180   47.28000  253.59020   90.81550
 18327.00000 2011.70620  -70.76840   57.92460  486.26710   -0.00600    0.00760   25.79730   -0.00770    2.69450    7.23110   47.14410  253.25180   90.35700
 18327.50000 2015.20900  -70.29420   57.68900  509.99370   -0.00430    0.01560   32.78950   -0.01180    2.68350    7.23060   46.83430  253.19880   90.29290
 18328.00000 2018.71680  -69.35590   57.45450  523.30980   -0.00260    0.02410   37.22470   -0.01520    2.67050    7.23000   46.85770  253.39380   90.62850
 18328.50000 1809.74540  -68.86760   56.02420  483.05250   -0.00090    0.02890   37.18160   -0.01480    2.65970    7.23100   47.12010  252.80250   91.12600
 18329.00000 1704.75900  -68.08260   54.49130  426.23500    0.00070    0.02920   33.02020   -0.01370    2.66010    7.23760   47.53800  253.12510   91.62350
 18329.50000 1516.55150  -67.52480   52.37790  390.15470    0.00110    0.02310   28.79270   -0.01200    2.66800    7.24430   47.17450  253.47810   92.12100
 18330.00000 1039.71800  -67.27110   50.30290  398.08130    0.00080    0.01900   25.59020   -0.01020    2.67330    7.24740   45.96320  253.75700   92.06230
 18330.50000  708.00510  -67.17330   48.31020  443.63960   -0.00030    0.01850   24.27030   -0.01020    2.67570    7.24970   46.14780  253.94690   92.02780
 18331.00000  584.48030  -67.14350   46.58570  494.41220   -0.00140    0.02020   24.03220   -0.01020    2.67500    7.25210   46.33230  254.60400   91.93970
 18331.50000  557.82640  -67.11360   46.72660  534.20280   -0.00250    0.02200   24.02480   -0.01170    2.67150    7.25450   46.56060  255.28810   92.02190
 18332.00000  455.24720  -67.06950   46.86790  534.10640   -0.00270    0.02380   29.05070   -0.01320    2.66960    7.25970   47.12700  256.07860   91.92090
 18332.50000  396.53990  -67.19340   47.00960  445.16370   -0.00100    0.02460   36.46400   -0.01450    2.66750    7.26300   47.57430  256.91560   92.12170
 18333.00000  409.83510  -67.72040   47.15170  363.47770    0.00130    0.02400   43.35280   -0.01490    2.66780    7.26100   47.86910  256.21110   92.52390
 18333.50000  458.86460  -67.85400   47.29430  296.78070    0.00760    0.02240   43.87390   -0.01470    2.67150    7.26010   48.01910  255.15350   92.81600
 18334.00000  513.75980  -68.05070   47.43730  301.55300    0.00860    0.01890   39.75760   -0.01400    2.67740    7.26040   47.54860  254.18310   92.82070
 18334.50000  575.22200  -68.30340   47.58080  350.53670    0.00960    0.01430   33.02710   -0.01330    2.68370    7.26060   46.76350  254.56000   92.77620
 18335.00000  665.92610  -68.55610   47.72460  407.47700    0.00760    0.01450   28.91510   -0.01180    2.68420    7.26060   46.36640  255.34020   92.54730
 18335.50000  857.86180  -68.76170   47.86900  473.66680    0.00460    0.01750   24.43120   -0.00870    2.67940    7.26060   46.26600  255.83240   92.80300
 18336.00000 1085.62260  -69.00190   48.01370  487.44120    0.00160    0.02160   21.32420   -0.00560    2.67280    7.26270   46.32240  256.20510   92.89570
 18336.50000 1301.52670  -69.99980   48.13390  460.20970   -0.00190    0.02060   19.42440   -0.00250    2.67420    7.26610   46.68490  256.33600   92.89590
 18337.00000 1389.82950  -70.07160   47.57320  425.93800   -0.00270    0.01750   19.50850   -0.00220    2.67920    7.26560   46.98890  256.40520   92.71460
 18337.50000 1415.07280  -69.39450   47.01900  397.30010   -0.00230    0.01640   20.29220   -0.00280    2.68060    7.26510   47.15360  256.43850   92.41650
 18338.00000 1367.55520  -68.71730   46.47120  356.12040   -0.00190    0.01930   21.97440   -0.00420    2.67590    7.26460   47.04260  255.93300   92.19020
 18338.50000 1113.11500  -68.11830   45.92990  308.68200   -0.00130    0.02170   26.10270   -0.00560    2.67250    7.27040   47.08480  255.42750   92.39030
 18339.00000  894.82450  -67.51080   45.39480  290.08730    0.00170    0.02150   29.22920   -0.00690    2.67290    7.29160   47.17630  255.26130   92.59030
 18339.50000  675.14600  -66.94850   44.82960  271.37940    0.00450    0.02090   31.30700   -0.00530    2.67440    7.29970   47.66600  255.12450   92.75080
 18340.00000  586.71460  -67.06530   44.22740  244.80400    0.00730    0.02010   30.95990   -0.00290    2.67620    7.28730   47.82000  254.72710   92.84850
 18340.50000  512.77220  -67.32830   43.87240  220.83090    0.01020    0.01900   30.41000    0.00010    2.67790    7.27210   47.85530  254.32980   92.92820
 18341.00000  494.41460  -67.59130   43.94650  202.11110    0.01240    0.01970   30.85840   -0.00060    2.67610    7.25680   47.76920  254.32820   93.04810
 18341.50000  476.71430  -67.85440   44.02070  206.83000    0.01090    0.02170   32.21170   -0.00290    2.67300    7.25220   47.42930  255.22380   92.99010
