~Version ---------------------------------------------------
VERS.   2.0 : CWLS log ASCII Standard -VERSION 2.0
WRAP.    NO : One line per depth step
DLM . SPACE : Column Data Section Delimiter
~Well ------------------------------------------------------
STRT .F               15482.0 : START DEPTH
STOP .F               18784.0 : STOP DEPTH
STEP .F                   0.5 : STEP
NULL .               -9999.25 : NULL VALUE
COMP .                        : COMPANY
WELL .                        : WELL
FLD  .                        : FIELD
LOC  .                        : LOCATION
PROV .                        : PROVINCE
CNTY .                        : COUNTY
STAT .                        : STATE
CTRY .                        : COUNTRY
SRVC .                        : SERVICE COMPANY
DATE .                        : DATE
UWI  .                        : UNIQUE WELL ID
API  .                        : API NUMBER
SLAT .WGS84 5.602469417573602 : SURFACE LATITUDE
SLON .WGS84 3.050184767117898 : SURFACE LONGITUDE
DATUM.F                   nan : DEPTH DATUM ELEV
~Curve Information -----------------------------------------
DEPT   .F     : 1 MEASURED DEPTH
ILD    .OHMM  : INDUCTION DEEP RESISTIVITY
SPR    .MV    : SPONTANEOUS POTENTIAL FROM RESISTIVITY LOG
ILM    .OHMM  : INDUCTION MEDIUM RESISTIVITY
SFLU   .OHMM  : SHALLOW FOCUSED RESISTIVITY (UNAVERAGED)
NPOR_LS.DEC   : NEUTRON POROSITY LIMESTONE
DPHI_LS.DEC   : DENSITY POROSITY LIMESTONE
GRD    .GAPI  : GAMMA RAY FROM DENSITY LOG
DRHO   .G/C3  : BULK DENSITY CORRECTION
RHOB   .G/C3  : BULK DENSITY
CALD   .IN    : CALIPER FROM DENSITY LOG
DTCO   .US/F  : DELTA-T COMPRESSIONAL
DTMD   .US/F  : DELTA-T MUD
DTSM   .US/F  : DELTA-T SHEAR
~Params ----------------------------------------------------
~Other -----------------------------------------------------
~ASCII -----------------------------------------------------
# ...
 15716.00000    8.49570  -26.46880    9.72850   16.28680    0.09070    0.01890   39.37050    0.01140    2.67640    7.70560   58.62520  216.38270  110.46450
 15716.50000    9.87640  -26.41340   11.43260   13.71510    0.06690    0.01870   36.65760    0.00590    2.67500    7.70640   59.08320  216.33670  108.39330
 15717.00000   11.48160  -26.37150   11.98680   14.29480    0.05310    0.04410   31.05370    0.00040    2.64460    7.72190   58.35660  216.29080  106.38660
 15717.50000   11.49170  -26.09560   12.12270   15.75010    0.03970    0.06860   26.34860   -0.00510    2.59610    7.73880   57.16640  216.24480  106.25610
 15718.00000   11.00420  -25.81960   11.96690   17.47900    0.04850    0.09210   24.43570    0.01570    2.55810    7.75070   57.33980  216.19890  107.33300
 15718.50000   10.50790  -25.63010   11.30600   19.16450    0.06700    0.08230   28.50080    0.05110    2.56750    7.76530   58.36210  216.15910  111.81410
 15719.00000   10.03410  -25.63080   10.68160   20.56770    0.07190    0.06500   32.86010    0.03310    2.59710    7.78510   59.66290  216.17930  111.36850
 15719.50000    9.85730  -25.63160   10.17140   20.78210    0.06790    0.05540   33.82590    0.01190    2.60960    7.80480   59.65630  216.19940  111.46840
 15720.00000    9.85430  -25.44650   10.43020   15.86900    0.06230    0.05520   31.30780    0.00920    2.61090    7.82450   58.80710  216.22590  113.97190
 15720.50000    9.85120  -25.58340   11.24540   11.49740    0.05990    0.05700   28.78970    0.03310    2.61100    7.84410   58.01110  216.25350  116.46380
 15721.00000    9.84810  -26.21500   11.94880   10.13240    0.06360    0.05260   32.09210    0.05690    2.62060    7.86230   56.04340  216.26660  116.35620
 15721.50000    9.62720  -26.84650   11.05910   13.57340    0.07460    0.04180   35.91470    0.05690    2.63680    7.87120   54.10980  216.26610  117.45180
 15722.00000    9.15240  -27.29650    9.70730   19.06500    0.09420    0.03200   38.29510    0.04360    2.65560    7.80240   53.89520  216.26610  119.74480
 15722.50000    8.70110  -27.48680    8.48740   26.28940    0.09760    0.02020   36.60130    0.03090    2.67520    7.68440   54.58890  216.26640  121.63350
 15723.00000    8.27200  -27.92500    7.42080   24.65670    0.08100    0.01140   34.50200    0.02580    2.69080    7.64270   56.42620  216.26680  123.10390
 15723.50000    7.86410  -28.27100    6.48820   16.31890    0.05950    0.01780   32.07580    0.02080    2.67760    7.61770   57.61550  216.23320  124.16690
 15724.00000    7.47630  -28.56370    6.31020   10.80050    0.05400    0.02570   30.78820    0.01570    2.66230    7.61270   57.96680  216.18610  125.82800
 15724.50000    7.10760  -29.23420    8.60050    9.10950    0.05480    0.03100   29.84790    0.01490    2.65620    7.60700   59.89100  216.13890  130.48110
 15725.00000    7.01020  -29.76670    9.93140   12.66030    0.05830    0.02880   29.54820    0.02050    2.66200    7.59070   61.67630  216.09180  134.68490
 15725.50000    7.01330  -29.73190    9.13050   17.59520    0.06100    0.02010   29.24850    0.02610    2.67100    7.57450   62.04830  216.04460  132.22700
 15726.00000    6.97800  -29.80420    7.97900   16.91850    0.06480    0.00960   29.33400    0.03420    2.68760    7.56580   62.73950  216.04190  126.03020
 15726.50000    6.94300  -29.95800    7.45070   12.14220    0.07650    0.00380   33.81440    0.03410    2.70010    7.56500   63.41760  216.06820  122.24140
 15727.00000    6.90810  -30.29060    7.88140    9.71150    0.08450    0.00650   37.04450    0.01420    2.69750    7.56440   64.50580  216.09450  121.01500
 15727.50000    7.19610  -30.63840    8.96660   10.56240    0.09090    0.01020   37.93720   -0.00160    2.69270    7.56390   63.96690  216.12080  120.20020
 15728.00000    7.66590  -30.98620    9.93600   12.23410    0.09200    0.01320   36.99970   -0.01460    2.68720    7.55280   61.47650  216.10810  118.34990
 15728.50000    8.16650  -31.37270    9.82250   14.07140    0.09160    0.01500   34.97210   -0.01610    2.68340    7.50830   57.88170  216.03400  116.67740
 15729.00000    8.37410  -31.90370    9.71030   15.33400    0.09010    0.01680   37.30120   -0.01580    2.67940    7.47330   57.62320  215.95990  116.79380
 15729.50000    8.51080  -32.43470    9.59410   16.27340    0.08880    0.01890   39.93850   -0.01530    2.67640    7.46100   58.07250  215.88580  118.11040
 15730.00000    8.63690  -32.87620    9.45250   15.54590    0.09340    0.02110   42.38000   -0.01490    2.67210    7.46060   59.87510  215.81170  121.50600
 15730.50000    8.62570  -33.31090    9.31290   14.65270    0.10380    0.02200   43.13320   -0.01440    2.67030    7.46080   63.04090  215.74010  123.94940
 15731.00000    8.60100  -33.74560    9.17540   13.83950    0.10910    0.02020   43.70670   -0.01400    2.67270    7.45430   63.49380  215.68680  125.89970
 15731.50000    8.50860  -34.18040    9.04000   12.64100    0.11440    0.01850   45.62040   -0.01400    2.67620    7.44790   64.29020  215.63330  127.41720
 15732.00000    8.33980  -34.46670    8.90650   10.80090    0.11780    0.02300   48.40180   -0.01440    2.66840    7.44150   65.01710  215.60930  127.47430
 15732.50000    8.17450  -34.59180    8.78710    9.22900    0.11890    0.03530   51.38790   -0.01480    2.65410    7.43510   65.10070  215.60840  125.24010
 15733.00000    8.01240  -35.11530    8.73320    9.22900    0.12000    0.04440   51.95280   -0.01890    2.63780    7.42860   64.84930  215.60760  123.81270
 15733.50000    7.85350  -35.78950    8.67950    9.25790    0.11980    0.04440   52.16450   -0.02160    2.63000    7.42220   64.20640  215.60670  124.43110
 15734.00000    7.82520  -36.45310    8.62620    9.58550    0.11510    0.03980   51.08270   -0.02130    2.63640    7.41580   63.49390  215.63960  125.53700
 15734.50000    7.84960  -37.06290    8.57320    9.92460    0.10940    0.03490   49.26180   -0.02080    2.64650    7.42150   64.19510  215.75540  126.21700
 15735.00000    7.95330  -37.16370    8.52050   10.25790    0.10090    0.03610   47.48980   -0.02010    2.64540    7.43250   66.34270  215.87130  128.09800
 15735.50000    8.05830  -36.93660    8.36960   10.27240    0.09110    0.04010   46.38320   -0.01950    2.63750    7.44350   68.73290  215.98720  130.73080
 15736.00000    8.16470  -37.03590    7.79920   10.38040    0.08320    0.04260   45.27670   -0.00120    2.63640    7.45450   70.11460  216.10300  130.98450
 15736.50000    8.27260  -37.19280    7.26770   10.56680    0.08520    0.03270   43.09470    0.02780    2.64990    7.45720   70.61210  216.21510  131.92850
 15737.00000    8.38180  -37.39090    7.08590   11.12410    0.09000    0.02270   41.20850    0.06220    2.66600    7.44210   70.61210  216.23380  133.11330
 15737.50000    8.44250  -37.58890    7.16270   11.27670    0.09280    0.01830   40.56480    0.06210    2.67570    7.44040   69.52300  216.25250  132.84950
 15738.00000    8.44860  -37.65010    7.70750   11.04400    0.08900    0.02190   39.20600    0.04780    2.67330    7.43980   68.08940  216.10800  131.12340
 15738.50000    8.45470  -37.53940    8.29380   10.62950    0.08400    0.02620   36.79770    0.02350    2.66400    7.43870   66.65590  215.89480  129.39720
 15739.00000    8.46090  -37.51780    8.65660   10.62230    0.07890    0.02610   35.16030    0.02070    2.66310    7.43370   65.30250  215.68150  127.66670
 15739.50000    8.46700  -37.49820    8.66530   10.55450    0.07840    0.02460   35.15850    0.03610    2.66470    7.42870   64.49410  215.46820  126.05930
 15740.00000    8.47320  -37.52270    8.67410   10.54830    0.08150    0.02290   37.14380    0.05350    2.66850    7.42370   61.78560  215.48510  123.72890
 15740.50000    8.47930  -37.55970    8.68290   10.54370    0.08670    0.01940   39.05130    0.07210    2.67450    7.41860   61.70120  215.61050  120.66850
 15741.00000    8.48550  -37.59660    8.69170   10.53920    0.09170    0.01420   39.86320    0.06850    2.68260    7.38770   62.36370  215.73590  121.62720
 15741.50000    8.49170  -37.53070    8.70040   10.53460    0.09220    0.01030   39.16770    0.05930    2.69160    7.34960   63.02630  215.86130  122.49750
