~Version ---------------------------------------------------
VERS.   2.0 : CWLS log ASCII Standard -VERSION 2.0
WRAP.    NO : One line per depth step
DLM . SPACE : Column Data Section Delimiter
~Well ------------------------------------------------------
STRT .F               15482.0 : START DEPTH
STOP .F               18784.0 : STOP DEPTH
STEP .F                   0.5 : STEP
NULL .               -9999.25 : NULL VALUE
COMP .                        : COMPANY
WELL .                        : WELL
FLD  .                        : FIELD
LOC  .                        : LOCATION
PROV .                        : PROVINCE
CNTY .                        : COUNTY
STAT .                        : STATE
CTRY .                        : COUNTRY
SRVC .                        : SERVICE COMPANY
DATE .                        : DATE
UWI  .                        : UNIQUE WELL ID
API  .                        : API NUMBER
SLAT .WGS84 5.602469417573602 : SURFACE LATITUDE
SLON .WGS84 3.050184767117898 : SURFACE LONGITUDE
DATUM.F                   nan : DEPTH DATUM ELEV
~Curve Information -----------------------------------------
DEPT   .F     : 1 MEASURED DEPTH
ILD    .OHMM  : INDUCTION DEEP RESISTIVITY
SPR    .MV    : SPONTANEOUS POTENTIAL FROM RESISTIVITY LOG
ILM    .OHMM  : INDUCTION MEDIUM RESISTIVITY
SFLU   .OHMM  : SHALLOW FOCUSED RESISTIVITY (UNAVERAGED)
NPOR_LS.DEC   : NEUTRON POROSITY LIMESTONE
DPHI_LS.DEC   : DENSITY POROSITY LIMESTONE
GRD    .GAPI  : GAMMA RAY FROM DENSITY LOG
DRHO   .G/C3  : BULK DENSITY CORRECTION
RHOB   .G/C3  : BULK DENSITY
CALD   .IN    : CALIPER FROM DENSITY LOG
DTCO   .US/F  : DELTA-T COMPRESSIONAL
DTMD   .US/F  : DELTA-T MUD
DTSM   .US/F  : DELTA-T SHEAR
~Params ----------------------------------------------------
~Other -----------------------------------------------------
~ASCII -----------------------------------------------------
# ...
 16808.00000    7.39300  -32.17920    5.75500    5.85800    0.23850    0.13880   58.25270    0.08690    2.47290   11.03080   74.88530  221.58220  132.40890
 16808.50000    7.52260  -31.64340    5.96360    6.96350    0.21930    0.14060   61.46830    0.08820    2.47100   11.02740   75.00410  229.06210  132.54100
 16809.00000    7.65450  -31.39400    6.43440    8.27760    0.19230    0.13270   65.94320    0.09190    2.48080   11.01750   75.18300  236.06610  132.75230
 16809.50000    7.78870  -31.07890    6.94230    9.76710    0.16400    0.10340   66.79010    0.09570    2.52760   11.00480   75.36190  229.92700  132.93440
 16810.00000    7.92520  -31.04390    7.49040    9.77120    0.14090    0.07840   67.32940    0.09160    2.58200   10.68600   74.85720  218.52470  131.47710
 16810.50000    8.06420  -31.03920    7.77050    9.77530    0.11730    0.05850   68.28610    0.05630    2.60900   10.27080   74.17300  215.22670  130.45310
 16811.00000    8.20560  -30.80350    7.71040    9.77940    0.10490    0.05840   70.58260    0.01220    2.61010    9.78410   73.89520  215.31090  130.46290
 16811.50000    8.19260  -30.56780    7.65080    9.78360    0.09840    0.05970   73.28960   -0.00740    2.60740    9.29740   74.04430  215.39520  130.47260
 16812.00000    8.15090  -30.33200    7.59160    9.78770    0.09890    0.05920   74.80670   -0.01930    2.60760    9.02820   74.27590  215.50550  130.48240
 16812.50000    8.10950  -29.99400    7.53290    9.79180    0.10690    0.05720   73.73040   -0.02020    2.61140    9.00220   74.18320  215.67990  130.49220
 16813.00000    8.06830  -29.40520    7.47460    9.79600    0.11250    0.05480   71.37220   -0.01850    2.61560    9.00010   74.28620  215.80700  131.36810
 16813.50000    8.02720  -28.92570    7.35000    9.80010    0.11260    0.05240   67.88700   -0.01610    2.61950    8.99800   74.93110  216.16180  132.86610
 16814.00000    7.98640  -28.52640    7.17260    9.80800    0.11210    0.05110   65.15480   -0.01370    2.62110    8.99590   76.41400  204.02960  134.35590
 16814.50000    7.94580  -28.19040    6.99940    9.81900    0.11200    0.05030   63.88720   -0.01290    2.62190    8.99380   77.75500  195.35110  135.77370
 16815.00000    7.90540  -27.85450    6.87210    9.83000    0.11350    0.05090   63.78840   -0.01180    2.62260    8.98580   74.90730  203.84200  132.90660
 16815.50000    7.86520  -27.19330    6.84490    9.84100    0.11520    0.05130   63.36510   -0.01050    2.62260    8.97570   73.77540  212.83020  129.26090
 16816.00000    7.82520  -26.50000    6.81780    9.85200    0.11690    0.04990   61.97370   -0.00920    2.62350    8.96570   72.64360  215.35010  128.38710
 16816.50000    7.78550  -25.54140    6.79080    9.86310    0.11830    0.04930   60.28810   -0.00920    2.62450    8.96440   72.01560  215.80000  128.47870
 16817.00000    7.75490  -24.47490    6.76390    9.87410    0.11900    0.05120   58.81730   -0.00960    2.62140    8.96720   72.02540  215.93930  128.39360
 16817.50000    7.78730  -24.37280    6.77120    9.88520    0.11970    0.05410   55.54360   -0.01030    2.61720    8.97010   72.03520  216.07850  127.64550
 16818.00000    7.81980  -24.27060    6.79510    9.89620    0.12090    0.05410   55.06440   -0.01090    2.61750    8.97290   70.93340  216.15000  126.04760
 16818.50000    7.85250  -24.83080    6.81910    9.90730    0.12210    0.04890   55.91190   -0.00940    2.62670    8.97580   68.72810  216.20130  122.81750
 16819.00000    6.78750  -25.63270    6.84320    9.91840    0.12330    0.03890   57.79640   -0.00250    2.64280    8.97860   65.85460  216.20720  119.39410
 16819.50000    5.83860  -25.89470    6.86740    9.92950    0.12480    0.03610   59.29010    0.00030    2.64710    8.98150   64.88970  216.21310  117.92720
 16820.00000    5.12030  -26.11690    6.89170    9.94060    0.12630    0.04070   60.07800   -0.00290    2.63500    8.98440   65.96610  216.21900  120.74990
 16820.50000    4.62460  -26.33900    6.91610    9.92920    0.12710    0.05570   60.86600   -0.00930    2.61450    8.98720   66.63660  216.22480  121.85670
 16821.00000    4.63570  -26.56120    6.94050    9.80680    0.12710    0.06080   60.90510   -0.01300    2.60490    8.99010   67.80910  216.23070  122.70280
 16821.50000    4.64680  -26.96820    6.96510    9.40240    0.12490    0.06100   60.32940   -0.01440    2.60560    8.99290   68.57120  216.23660  122.89360
 16822.00000    4.65790  -27.61570    6.72360    7.44630    0.11710    0.05630   59.29100   -0.01450    2.61450    8.99580   68.88180  216.24250  123.12830
 16822.50000    4.66900  -27.63660    5.95950    5.86280    0.10910    0.04350   56.26460   -0.01200    2.63300    9.00160   68.48880  216.24840  123.12050
 16823.00000    4.68010  -27.50830    5.28210    5.78290    0.10230    0.04830   54.28270   -0.00950    2.63100    9.01280   66.99810  216.25430  122.52760
 16823.50000    4.69130  -27.31410    5.19090    5.79050    0.10270    0.07080   53.11390   -0.00010    2.59020    9.02390   65.00320  216.26010  121.17760
 16824.00000    4.70250  -26.95310    5.19980    5.79810    0.12050    0.09260   53.85130    0.04830    2.54950    9.23430   64.34670  216.51700  119.82760
 16824.50000    4.71380  -26.72280    5.20870    5.80570    0.14410    0.09210   55.89840    0.14890    2.55250    9.47630   64.07150  216.98970  119.12730
 16825.00000    4.72500  -26.72530    5.21760    5.81330    0.17180    0.08750   57.14060    0.20050    2.56360    9.77280   64.21700  218.72920  119.30640
 16825.50000    4.73630  -26.59400    5.22650    5.82090    0.22780    0.09270   58.02050    0.19980    2.54800    9.97150   64.15470  216.98160  119.86010
 16826.00000    4.74770  -26.15140    5.23540    5.82850    0.25990    0.11490   59.57210    0.16680    2.51740   10.11890   64.09820  214.74220  120.25540
 16826.50000    4.75900  -25.77100    5.24430    5.83620    0.24000    0.12260   63.80580    0.14050    2.50020   10.19190   64.03200  215.08520  120.74820
 16827.00000    4.77040  -25.70570    5.25330    5.84380    0.20600    0.12660   66.78920    0.12360    2.49270   10.24020   63.96540  215.38780  121.62750
 16827.50000    4.78180  -25.64050    5.26220    5.85150    0.18930    0.13310   68.88790    0.10800    2.48290   10.25450   64.00420  215.51960  121.71310
 16828.00000    4.79320  -25.57520    5.27120    5.85910    0.18980    0.14090   71.89630    0.08820    2.46780   10.25570   64.04760  215.57950  121.68050
 16828.50000    4.80470  -25.46930    5.28020    5.86680    0.19600    0.14900   75.05310    0.07570    2.45360   10.25570   64.02810  215.63100  121.98690
 16829.00000    4.81610  -25.28030    5.28920    5.87450    0.19900    0.15470   78.76210    0.07080    2.44520   10.25570   63.90650  215.68240  123.85550
 16829.50000    4.82770  -25.46040    5.29820    5.88220    0.20100    0.15760   80.63610    0.07170    2.44050   10.25570   63.67270  215.73380  125.90700
 16830.00000    4.83920  -25.46980    5.36320    5.88990    0.20150    0.15180   81.05810    0.08520    2.44680   10.25570   64.54020  215.78520  128.31870
 16830.50000    4.85080  -25.41780    5.43790    5.89760    0.20130    0.14690   80.80320    0.09580    2.45900   10.25580   67.08750  215.83670  132.73250
 16831.00000    4.86240  -25.36580    5.51360    5.90530    0.20090    0.14460   78.89100    0.09140    2.46110   10.28990   69.27940  215.88810  132.62370
 16831.50000    5.11070  -25.37350    5.59040    5.91310    0.19760    0.14730   75.41480    0.08370    2.45660   10.35700   69.71260  215.93950  129.83240
 16832.00000    6.44190  -25.68980    5.66590    5.92080    0.19410    0.14730   70.09010    0.07760    2.45630   10.55410   70.13320  215.99090  125.97610
 16832.50000    8.11980  -26.24660    5.73430    5.92860    0.19200    0.11100   65.59830    0.07400    2.51080   10.60280   70.55370  216.04240  125.73590
 16833.00000    9.58950  -26.25400    5.80360    5.93630    0.19770    0.07470   63.89780    0.07040    2.58590   10.46350   71.03420  216.09380  125.94330
 16833.50000    9.67810  -26.22730    5.87360    5.94410    0.20670    0.03710   63.82250    0.06640    2.64250   10.10260   71.56230  216.14520  126.24030
