~Version ---------------------------------------------------
VERS.   2.0 : CWLS log ASCII Standard -VERSION 2.0
WRAP.    NO : One line per depth step
DLM . SPACE : Column Data Section Delimiter
~Well ------------------------------------------------------
STRT .F               15482.0 : START DEPTH
STOP .F               18784.0 : STOP DEPTH
STEP .F                   0.5 : STEP
NULL .               -9999.25 : NULL VALUE
COMP .                        : COMPANY
WELL .                        : WELL
FLD  .                        : FIELD
LOC  .                        : LOCATION
PROV .                        : PROVINCE
CNTY .                        : COUNTY
STAT .                        : STATE
CTRY .                        : COUNTRY
SRVC .                        : SERVICE COMPANY
DATE .                        : DATE
UWI  .                        : UNIQUE WELL ID
API  .                        : API NUMBER
SLAT .WGS84 5.602469417573602 : SURFACE LATITUDE
SLON .WGS84 3.050184767117898 : SURFACE LONGITUDE
DATUM.F                   nan : DEPTH DATUM ELEV
~Curve Information -----------------------------------------
DEPT   .F     : 1 MEASURED DEPTH
ILD    .OHMM  : INDUCTION DEEP RESISTIVITY
SPR    .MV    : SPONTANEOUS POTENTIAL FROM RESISTIVITY LOG
ILM    .OHMM  : INDUCTION MEDIUM RESISTIVITY
SFLU   .OHMM  : SHALLOW FOCUSED RESISTIVITY (UNAVERAGED)
NPOR_LS.DEC   : NEUTRON POROSITY LIMESTONE
DPHI_LS.DEC   : DENSITY POROSITY LIMESTONE
GRD    .GAPI  : GAMMA RAY FROM DENSITY LOG
DRHO   .G/C3  : BULK DENSITY CORRECTION
RHOB   .G/C3  : BULK DENSITY
CALD   .IN    : CALIPER FROM DENSITY LOG
DTCO   .US/F  : DELTA-T COMPRESSIONAL
DTMD   .US/F  : DELTA-T MUD
DTSM   .US/F  : DELTA-T SHEAR
~Params ----------------------------------------------------
~Other -----------------------------------------------------
~ASCII -----------------------------------------------------
# ...
 18550.00000   -9999.25  -77.89760  103.95140 1770.13670   -0.01540    0.03660   15.00180   -0.01700    2.64760    7.15590   48.61730  250.55020   86.95670
 18550.50000   -9999.25  -77.50500   88.33280 1624.12050   -0.01500    0.04400   15.35880   -0.01850    2.63100    7.16480   48.90700  249.18300   87.12550
 18551.00000   -9999.25  -76.16430   79.19330 1494.15710   -0.01380    0.04960   15.90050   -0.02000    2.62280    7.16710   48.99190  247.81570   87.51930
 18551.50000   -9999.25  -74.92250   73.92050 1207.38620   -0.01270    0.05230   16.03010   -0.01620    2.61880    7.16870   49.39120  247.51350   87.97150
 18552.00000   -9999.25  -72.46650   70.96830  987.80850   -0.01160    0.05380   15.65420   -0.01090    2.61690    7.17030   49.78210  248.55330   88.47230
 18552.50000   -9999.25  -72.43050   68.40580  869.60880   -0.01050    0.05410   14.84650   -0.00940    2.61550    7.17210   50.17080  250.69280   88.96330
 18553.00000   -9999.25  -72.39450   67.08230  770.62230   -0.01040    0.05220   14.85330   -0.00980    2.62010    7.17390   50.55950  251.21070   89.45430
 18553.50000   -9999.25  -74.16060   67.08230  674.85690   -0.01120    0.04600   15.35620   -0.01030    2.63330    7.17560   50.85020  249.80330   89.94530
 18554.00000   -9999.25  -75.48920   71.41490  584.12840   -0.01210    0.04050   15.86190   -0.01130    2.64370    7.17720   50.96130  248.33520   90.01080
 18554.50000 1995.71560  -75.74010   75.82930  519.76460   -0.01310    0.03510   14.86730   -0.00920    2.64980    7.17870   51.28910  246.56370   90.06940
 18555.00000 1995.71560  -74.72030   75.76650  548.99750   -0.01380    0.03340   13.14910   -0.00310    2.65190    7.18020   51.46820  246.20750   90.12810
 18555.50000 1466.74600  -73.70050   75.70380  620.53880   -0.01360    0.02980   11.35130    0.00300    2.66070    7.18170   51.64720  246.61890   90.11330
 18556.00000 1431.77640  -72.68070   68.20720  780.35080   -0.01290    0.02830   11.21180    0.00350    2.66670    7.18320   51.82630  246.84520   90.05940
 18556.50000 1424.85740  -71.49120   60.57680 1084.48430   -0.01220    0.03580   12.95460   -0.00570    2.65060    7.18470   51.97570  246.43980   90.00550
 18557.00000 1462.20430  -70.22250   62.39030 1236.10750   -0.01170    0.04230   14.91630   -0.01480    2.63120    7.18630   52.09840  246.03450   89.94920
 18557.50000 1567.99580  -69.69150   70.29010 1151.77150   -0.01170    0.04250   15.26600   -0.02090    2.62820    7.18780   52.21320  245.62910   89.80950
 18558.00000 1582.53980  -70.15740   75.66450 1037.95970   -0.01200    0.04210   14.36650   -0.02340    2.63390    7.18930   52.29400  246.07070   89.66980
 18558.50000 1343.64620  -70.88030   73.12360  979.63290   -0.01250    0.04070   14.40010   -0.02340    2.63920    7.19080   52.46560  247.40000   89.53010
 18559.00000 1091.15060  -71.60310   69.55940  958.41860   -0.01240    0.03930   14.89250   -0.02260    2.64200    7.19230   52.90090  243.64520   89.68320
 18559.50000  885.82000  -72.11830   65.89470  937.66420   -0.01210    0.03810   14.61470   -0.02100    2.64370    7.19380   53.31150  243.41500   90.21260
 18560.00000  808.62920  -71.87450   64.10390  879.78870   -0.01180    0.03620   13.26380   -0.01940    2.64740    7.19530   53.47540  243.32100   90.25470
 18560.50000 1350.52450  -71.76470   62.60370  809.36820   -0.01160    0.03310   12.02580   -0.01810    2.65360    7.19680   53.44590  243.22710   90.24720
 18561.00000 1946.43490  -71.52260   63.76520  750.41350   -0.01170    0.03060   12.18260   -0.01750    2.65710    7.19270   52.98630  243.13310   90.16330
 18561.50000 1952.24370  -70.77480   65.47140  695.75270   -0.01200    0.02910   13.66380   -0.01730    2.65940    7.18710   52.48510  242.81750   90.07930
 18562.00000 1958.06970  -70.02710   67.22310  666.25560   -0.01180    0.03010   15.69010   -0.02020    2.65700    7.17970   52.17430  241.65400   89.99540
 18562.50000   -9999.25  -69.36710   69.02180  679.18090   -0.01170    0.03330   18.57660   -0.02270    2.65320    7.17010   51.56550  239.35360   89.91150
 18563.00000   -9999.25  -68.57490   67.76890  720.39020   -0.01160    0.02800   16.98680   -0.01950    2.65680    7.16130   51.18880  240.12190   89.82750
 18563.50000   -9999.25  -67.61760   66.09990  764.09940   -0.01150    0.02060   15.70970   -0.01390    2.66900    7.16230   50.96730  241.96100   89.74360
 18564.00000   -9999.25  -65.95630   64.47200  765.33110   -0.01170    0.02010   15.39830   -0.00800    2.67670    7.16340   50.74570  240.92790   89.65960
 18564.50000   -9999.25  -63.60980   62.88410  768.99600   -0.01220    0.02890   15.08690   -0.00720    2.66410    7.16450   50.52420  239.03180   89.57570
 18565.00000   -9999.25  -61.26330   60.93950  773.07820   -0.01330    0.04260   14.77550   -0.00900    2.63980    7.16560   50.30270  239.64080   89.22800
 18565.50000   -9999.25  -59.94120   57.79210  777.18190   -0.01470    0.04790   14.46410   -0.01120    2.62770    7.16520   49.98740  240.41660   88.38360
 18566.00000   -9999.25  -58.72510   54.80720  781.47020   -0.01610    0.04810   14.15970   -0.01330    2.62860    7.16920   49.34490  240.06620   87.41070
 18566.50000   -9999.25  -57.79380   51.97640  828.62100   -0.01540    0.04590   14.20380   -0.01550    2.63120    7.17330   49.37730  239.71580   87.24810
 18567.00000   -9999.25  -58.49140   51.23600  892.08810   -0.01360    0.04390   14.28730   -0.01680    2.63320    7.17170   49.28350  238.99040   87.89860
 18567.50000   -9999.25  -59.17790   50.53700  923.77190   -0.01170    0.04230   14.83810   -0.01670    2.63520    7.18310   49.36140  238.15280   88.47040
 18568.00000   -9999.25  -59.87030   49.84770  920.85740   -0.00990    0.04170   15.10190   -0.01450    2.63740    7.19450   49.48730  237.66160   89.19190
 18568.50000 1920.85970  -60.50470   46.93090  893.77340   -0.00890    0.04070   15.33770   -0.01180    2.64050    7.20600   49.95470  237.44000   89.91340
 18569.00000 1911.35270  -59.99820   43.71260  876.60720   -0.00930    0.03800   15.57350   -0.00900    2.64470    7.21550   50.42210  237.24030   90.63000
 18569.50000 1855.07540  -58.94940   40.71500  863.32560   -0.01040    0.03590   15.80940   -0.00830    2.64870    7.20710   50.67800  237.09440   90.97260
 18570.00000 1639.59180  -59.24350   39.14150  933.11660   -0.01150    0.03560   16.04520   -0.00920    2.64870    7.20600   50.67460  236.94850   90.84920
 18570.50000 1228.78150  -59.69500   42.33960 1049.81760   -0.01260    0.03620   15.90960   -0.01000    2.64740    7.20820   50.67120  236.58180   90.18680
 18571.00000  920.90190  -60.14640   52.26180 1064.41580   -0.01360    0.03660   15.73910   -0.00980    2.64670    7.21040   50.66780  235.60460   89.82210
 18571.50000  690.16400  -60.60190   64.34510  849.03340   -0.01370    0.03510   15.56860   -0.00950    2.65140    7.21260   50.66450  233.93070   89.45740
 18572.00000  533.65030  -61.56330   65.68160  666.43000   -0.01350    0.03070   15.29630   -0.00930    2.65820    7.21360   50.66110  231.42910   89.20450
 18572.50000  514.62190  -61.90580   59.49380  549.39670   -0.01310    0.03170   14.88010   -0.01080    2.65570    7.21370   50.65770  228.61740   89.42110
 18573.00000  633.97420  -61.15770   53.69120  618.21030   -0.01290    0.03810   14.46380   -0.01320    2.64510    7.21600   50.65430  231.11060   89.24980
 18573.50000  963.25930  -59.97940   47.48720  756.16580   -0.01270    0.05070   13.65310   -0.01550    2.62360    7.21220   50.65090  233.27410   89.00170
 18574.00000 1530.94780  -59.65750   44.31190  805.92850   -0.01230    0.05760   12.93480   -0.01630    2.61210    7.20830   50.64760  234.54430   88.75360
 18574.50000 1949.65060  -59.30320   42.55710  780.04750   -0.01190    0.05480   12.85520   -0.01560    2.61490    7.20450   50.64410  234.30250   88.50550
 18575.00000 1968.40340  -58.97070   42.89460  720.91880   -0.01150    0.05060   12.77560   -0.01340    2.62160    7.21310   50.64020  234.06070   88.03970
 18575.50000 1885.51070  -58.77800   43.85080  666.27230   -0.01070    0.04670   12.69600   -0.01090    2.62740    7.21860   50.10250  233.81890   87.12350
