~Version ---------------------------------------------------
VERS.   2.0 : CWLS log ASCII Standard -VERSION 2.0
WRAP.    NO : One line per depth step
DLM . SPACE : Column Data Section Delimiter
~Well ------------------------------------------------------
STRT .F               15482.0 : START DEPTH
STOP .F               18784.0 : STOP DEPTH
STEP .F                   0.5 : STEP
NULL .               -9999.25 : NULL VALUE
COMP .                        : COMPANY
WELL .                        : WELL
FLD  .                        : FIELD
LOC  .                        : LOCATION
PROV .                        : PROVINCE
CNTY .                        : COUNTY
STAT .                        : STATE
CTRY .                        : COUNTRY
SRVC .                        : SERVICE COMPANY
DATE .                        : DATE
UWI  .                        : UNIQUE WELL ID
API  .                        : API NUMBER
SLAT .WGS84 5.602469417573602 : SURFACE LATITUDE
SLON .WGS84 3.050184767117898 : SURFACE LONGITUDE
DATUM.F                   nan : DEPTH DATUM ELEV
~Curve Information -----------------------------------------
DEPT   .F     : 1 MEASURED DEPTH
ILD    .OHMM  : INDUCTION DEEP RESISTIVITY
SPR    .MV    : SPONTANEOUS POTENTIAL FROM RESISTIVITY LOG
ILM    .OHMM  : INDUCTION MEDIUM RESISTIVITY
SFLU   .OHMM  : SHALLOW FOCUSED RESISTIVITY (UNAVERAGED)
NPOR_LS.DEC   : NEUTRON POROSITY LIMESTONE
DPHI_LS.DEC   : DENSITY POROSITY LIMESTONE
GRD    .GAPI  : GAMMA RAY FROM DENSITY LOG
DRHO   .G/C3  : BULK DENSITY CORRECTION
RHOB   .G/C3  : BULK DENSITY
CALD   .IN    : CALIPER FROM DENSITY LOG
DTCO   .US/F  : DELTA-T COMPRESSIONAL
DTMD   .US/F  : DELTA-T MUD
DTSM   .US/F  : DELTA-T SHEAR
~Params ----------------------------------------------------
~Other -----------------------------------------------------
~ASCII -----------------------------------------------------
# ...
 15950.00000    6.90530  -35.01520    7.16510   10.15560    0.12560    0.03460   52.95800   -0.00640    2.65150    7.26760   64.54430  216.23040  123.71800
 15950.50000    6.82870  -35.00580    7.08350   10.53900    0.13140    0.03160   54.51510   -0.01130    2.65440    7.26960   64.74890  216.28570  124.01920
 15951.00000    6.60190  -34.99640    7.00270   10.80960    0.13210    0.03110   54.13010   -0.01320    2.65620    7.27160   64.95360  216.37770  124.43190
 15951.50000    6.38270  -34.98710    6.86760   11.04460    0.13250    0.03230   54.38730   -0.01060    2.65340    7.27870   64.89250  216.46960  124.32120
 15952.00000    6.17070  -34.97770    6.51340   11.21610    0.13160    0.03170   60.10130   -0.00120    2.65650    7.28770   64.82650  216.27270  124.31650
 15952.50000    5.96580  -34.96830    6.17750   10.85680    0.12910    0.02740   65.99220    0.02670    2.66380    7.29300   65.04300  216.10080  125.17340
 15953.00000    5.76770  -34.98150    6.02010   10.40480    0.12820    0.02310   67.39440    0.03460    2.66890    7.28420   65.91260  216.05740  126.96710
 15953.50000    5.57610  -35.18240    5.92750    8.80880    0.12870    0.02300   64.82510    0.04020    2.66810    7.28300   68.05390  216.01410  131.11750
 15954.00000    5.57200  -35.31390    5.83630    8.63360    0.13210    0.02630   60.98160    0.04350    2.66460    7.28570   69.55240  215.97610  132.02260
 15954.50000    5.58870  -35.36470    5.81910   10.99410    0.13580    0.02950   59.94790    0.04220    2.65540    7.29040   69.62330  215.96370  131.74950
 15955.00000    5.60550  -35.41550    6.00060   14.63110    0.13950    0.03490   61.32430    0.03940    2.64670    7.29510   69.50330  215.95130  131.49560
 15955.50000    5.81090  -35.46640    7.16800   19.47110    0.14330    0.04030   65.30780    0.03380    2.63460    7.29980   68.61130  215.93890  130.95200
 15956.00000    6.21640  -35.51720    8.69900   25.20240    0.14600    0.04610   73.05350    0.02100    2.62260    7.30450   67.22540  215.92650  129.43650
 15956.50000    6.65030  -35.56800   10.01140   26.94870    0.14460    0.05130   74.58710    0.01710    2.62160    7.31100   65.44530  215.96850  124.19740
 15957.00000    7.11450  -35.61890    9.96030   27.84260    0.13600    0.05040   72.40670    0.01410    2.62380    7.32160   64.92470  216.05680  120.54870
 15957.50000    7.61100  -35.66970    9.51230   26.47370    0.12410    0.04920   67.80690    0.01000    2.62640    7.30820   64.55130  216.14510  122.27810
 15958.00000    8.14220  -35.72050    9.08460   22.59620    0.11270    0.04920   64.40120    0.00180    2.62160    7.29490   65.02460  216.18850  124.60480
 15958.50000    8.33420  -35.77140    8.67600   18.39990    0.11130    0.06060   64.70020   -0.00630    2.60240    7.28160   65.63530  216.22180  125.49370
 15959.00000    8.12490  -35.56770    8.39890   15.88660    0.11070    0.07210   66.27980   -0.01130    2.58670    7.31400   65.04960  216.25020  125.27320
 15959.50000    7.72240  -35.70810    8.22260   13.99920    0.11900    0.07530   68.74080   -0.00740    2.58110    7.33540   64.09120  216.27810  125.21010
 15960.00000    7.33980  -35.59990    7.86110   10.86640    0.16430    0.07590   73.56990    0.01170    2.57950    7.48630   63.71080  216.30590  125.83390
 15960.50000    6.97610  -35.49170    7.44480    9.09470    0.22560    0.08730   78.57230    0.02990    2.54790    7.65360   63.75750  216.33380  126.68370
 15961.00000    6.63050  -35.38350    7.05060    8.22010    0.26280    0.12600   80.51150    0.03750    2.47660    7.94050   64.50760  216.36170  127.58080
 15961.50000    6.30200  -35.27520    6.67720    8.65860    0.28730    0.18610   79.92710    0.05460    2.40200    8.25280   65.80090  216.38960  128.47780
 15962.00000    5.98980  -35.41680    6.32350    9.52170    0.29040    0.22940   76.31040    0.09910    2.33180    8.52050   66.21030  216.41740  129.37480
 15962.50000    5.69300  -35.65630    5.98870    9.98340    0.25860    0.23800   72.55600    0.18290    2.29760    8.91250   66.04770  216.44530  130.27180
 15963.00000    5.41090  -35.51130    5.67150    8.47020    0.23510    0.22610   69.31560    0.23210    2.31570    9.29490   65.55930  216.47320  130.77130
 15963.50000    5.14290  -35.61220    5.37110    7.14860    0.21930    0.21160   66.66890    0.24880    2.33870    9.40100   66.23780  216.21060  131.18600
 15964.00000    4.88810  -35.87730    5.11880    6.39750    0.20660    0.19620   64.18500    0.24870    2.36490    9.45480   69.22990  216.16850  130.85690
 15964.50000    4.64590  -36.14240    4.91050    6.68820    0.20370    0.18860   62.63610    0.24860    2.38610    9.45780   70.05690  216.15230  129.79550
 15965.00000    4.51070  -36.45280    4.99100    6.93460    0.19980    0.18690   65.02570    0.24840    2.38840    9.45780   69.88140  216.13610  125.98340
 15965.50000    4.40370  -37.07410    5.23300    7.15870    0.19560    0.19490   69.05150    0.24870    2.38230    9.45790   68.17920  216.11990  122.63760
 15966.00000    4.29940  -37.55790    4.66220    6.56620    0.19260    0.19790   71.53190    0.24910    2.37670    9.48930   69.81320  216.10370  119.30090
 15966.50000    4.19750  -37.83380    3.88140    5.01350    0.19780    0.19560   69.64070    0.24940    2.37410    9.53580   67.61950  216.08750  115.07700
 15967.00000    4.04080  -37.63770    3.23140    4.24440    0.20480    0.19300   65.68690    0.24980    2.37770    9.58240   66.30310  216.07130  108.76260
 15967.50000    3.87230  -37.44160    3.18750    4.14200    0.20870    0.19060   61.78950    0.23470    2.38230    9.93790   65.73310  216.05500  105.78640
 15968.00000    3.71080  -37.17990    3.24660    4.08280    0.21220    0.17780   61.24010    0.21120    2.41050   10.34040   67.48010  216.03880  108.75750
 15968.50000    3.58530  -37.19450    3.23900    4.02440    0.21480    0.15680   63.06390    0.19060    2.44700   10.45280   69.18080  216.02260  112.56280
 15969.00000    3.49670  -37.63830    3.23140    3.96690    0.21490    0.14000   64.16080    0.17750    2.46300   10.21320   70.36230  216.00640  112.26460
 15969.50000    3.41030  -38.08200    3.22380    3.91020    0.21340    0.14760   64.24520    0.16500    2.46820    9.94310   70.35250  215.99020  111.18310
 15970.00000    3.32610  -38.52580    3.21620    3.85430    0.20800    0.16610   63.07150    0.15310    2.40930    9.75570   68.97280  215.59360  112.21240
 15970.50000    3.24390  -38.96960    3.20860    3.78160    0.20330    0.20570   61.85730    0.16180    2.35770    9.66210   69.96520  215.61960  115.72530
 15971.00000    3.19350  -39.41340    3.17510    3.74940    0.19860    0.21310   62.49340    0.18480    2.34420    9.80890   73.83680  215.64550  119.46310
 15971.50000    3.19180  -39.85720    3.13080    3.69930    0.19420    0.21900   64.60310    0.20870    2.33270    9.95910   78.75720  215.67140  123.21050
 15972.00000    3.19010  -40.30090    3.08700    3.66010    0.19110    0.23250   67.58130    0.16590    2.30900   10.00860   78.47480  215.69740  122.47710
 15972.50000    3.18840  -40.56470    3.04390    3.62900    0.19140    0.24850   70.16420    0.08030    2.27320    9.86500   77.62670  215.72330  119.19320
 15973.00000    3.18670  -40.48470    3.00130    3.62850    0.19960    0.26220   70.72830    0.02690    2.25970    9.76450   77.41320  215.74920  117.80120
 15973.50000    3.18500  -40.93400    2.95940    3.64040    0.21900    0.26320   70.20830   -0.01150    2.25840    9.76460   79.76090  215.77520  118.03740
 15974.00000    3.18320  -41.45360    2.91810    3.62640    0.24120    0.25760   69.22860   -0.02970    2.26870    9.76470   80.88550  215.80110  111.24520
 15974.50000    3.18150  -41.89150    2.87730    3.58180    0.23190    0.25290   68.20450   -0.03830    2.27880    9.76480   72.06740  215.82700   97.82570
 15975.00000    3.15760  -42.04380    2.87360    3.61560    0.19000    0.24970   66.99030   -0.04910    2.28040    9.76490   63.98700  215.85300   92.29070
 15975.50000    3.09610  -42.19620    2.87380    3.72440    0.13700    0.25130   63.98070   -0.05810    2.27890    9.76510   61.17870  215.88090   86.75560
