~Version ---------------------------------------------------
VERS.   2.0 : CWLS log ASCII Standard -VERSION 2.0
WRAP.    NO : One line per depth step
DLM . SPACE : Column Data Section Delimiter
~Well ------------------------------------------------------
STRT .F               15482.0 : START DEPTH
STOP .F               18784.0 : STOP DEPTH
STEP .F                   0.5 : STEP
NULL .               -9999.25 : NULL VALUE
COMP .                        : COMPANY
WELL .                        : WELL
FLD  .                        : FIELD
LOC  .                        : LOCATION
PROV .                        : PROVINCE
CNTY .                        : COUNTY
STAT .                        : STATE
CTRY .                        : COUNTRY
SRVC .                        : SERVICE COMPANY
DATE .                        : DATE
UWI  .                        : UNIQUE WELL ID
API  .                        : API NUMBER
SLAT .WGS84 5.602469417573602 : SURFACE LATITUDE
SLON .WGS84 3.050184767117898 : SURFACE LONGITUDE
DATUM.F                   nan : DEPTH DATUM ELEV
~Curve Information -----------------------------------------
DEPT   .F     : 1 MEASURED DEPTH
ILD    .OHMM  : INDUCTION DEEP RESISTIVITY
SPR    .MV    : SPONTANEOUS POTENTIAL FROM RESISTIVITY LOG
ILM    .OHMM  : INDUCTION MEDIUM RESISTIVITY
SFLU   .OHMM  : SHALLOW FOCUSED RESISTIVITY (UNAVERAGED)
NPOR_LS.DEC   : NEUTRON POROSITY LIMESTONE
DPHI_LS.DEC   : DENSITY POROSITY LIMESTONE
GRD    .GAPI  : GAMMA RAY FROM DENSITY LOG
DRHO   .G/C3  : BULK DENSITY CORRECTION
RHOB   .G/C3  : BULK DENSITY
CALD   .IN    : CALIPER FROM DENSITY LOG
DTCO   .US/F  : DELTA-T COMPRESSIONAL
DTMD   .US/F  : DELTA-T MUD
DTSM   .US/F  : DELTA-T SHEAR
~Params ----------------------------------------------------
~Other -----------------------------------------------------
~ASCII -----------------------------------------------------
# ...
 16366.00000    5.41250  -33.71970    4.79830    6.19940    0.10850    0.03040   62.87390   -0.00980    2.65700    7.95140   67.03110  216.81220  122.55000
 16366.50000    5.40520  -34.09130    4.80220    6.19500    0.10820    0.02760   61.73790   -0.00710    2.66010    7.99550   67.91240  216.31390  125.94450
 16367.00000    5.39800  -34.11780    4.80610    6.19070    0.10820    0.02740   60.56850   -0.00750    2.66260    8.03970   68.09410  215.90060  126.56620
 16367.50000    5.39080  -34.14420    4.81000    6.18630    0.10840    0.02750   59.39910   -0.00790    2.65980    8.05630   68.11710  215.82530  126.76940
 16368.00000    5.38360  -34.17060    4.81390    6.18200    0.10860    0.03140   58.56970   -0.00880    2.65140    8.05570   68.11710  215.75000  127.16630
 16368.50000    5.38980  -34.21200    4.78730    6.17760    0.10880    0.03920   61.44900   -0.01000    2.64010    8.04080   68.12380  215.73670  127.55440
 16369.00000    5.38100  -34.38080    4.76080    6.17330    0.10900    0.04730   66.64250   -0.01100    2.62810    8.01450   68.15810  215.79980  127.56900
 16369.50000    5.40580  -34.45830    4.73440    6.16890    0.10910    0.05130   72.29780   -0.01170    2.62330    7.98820   68.19240  215.86300  127.58350
 16370.00000    5.40560  -34.41890    4.70820    6.16460    0.10920    0.05000   76.12920   -0.01240    2.62530    7.98460   68.75290  215.63030  129.87460
 16370.50000    5.39620  -34.45480    4.68210    6.16030    0.10940    0.04390   78.57750   -0.01310    2.63190    8.01800   69.82790  215.37730  132.38290
 16371.00000    5.38680  -34.49060    4.65620    6.15600    0.10950    0.03870   78.02290   -0.01380    2.64090    8.18430   70.95900  215.30710  132.57590
 16371.50000    5.39760  -34.56770    4.63040    6.15160    0.10940    0.03350   76.14880   -0.00970    2.65000    8.31810   71.24470  215.23760  132.76360
 16372.00000    5.38890  -34.67020    4.60480    6.14730    0.10570    0.03040   73.70340   -0.00770    2.65680    8.49400   71.24460  215.71910  132.72590
 16372.50000    5.32870  -34.78040    4.58100    6.14300    0.10200    0.03380   72.00120   -0.00570    2.65110    8.60800   71.24440  216.57130  132.61830
 16373.00000    5.31260  -34.83180    4.55810    6.13870    0.10140    0.04350   71.33740   -0.00380    2.63460    8.69190   71.24430  216.24400  132.63500
 16373.50000    5.29650  -34.82340    4.53200    6.15440    0.10100    0.05250   69.17680   -0.00180    2.62490    8.77580   71.24410  215.78700  132.65170
 16374.00000    5.28050  -34.81500    4.50890    6.17250    0.10050    0.05170   67.37390    0.00610    2.61900    8.85970   71.26380  215.32990  132.63430
 16374.50000    5.25760  -34.82840    4.48890    6.10660    0.10010    0.04690   70.35720    0.02470    2.62650    8.90680   71.29640  214.87280  132.59510
 16375.00000    4.93200  -35.28500    4.46910    6.10660    0.10090    0.04420   74.19360    0.04630    2.63140    8.94930   71.32900  214.71620  132.64540
 16375.50000    4.61820  -35.34750    4.35170    6.10660    0.10180    0.04720   78.59580    0.05460    2.63070    8.94950   71.36160  215.14580  132.68320
 16376.00000    4.37480  -35.14440    3.82740    6.13470    0.10310    0.05260   79.86540    0.05650    2.61980    8.94970   71.39420  215.95350  132.85830
 16376.50000    4.38930  -35.02370    3.85290    6.15770    0.10450    0.05690   78.15120    0.05840    2.61190    8.94990   71.42680  216.33860  133.31680
 16377.00000    4.40390  -34.90300    3.87860    6.08880    0.10590    0.05660   75.54530    0.06290    2.61200    8.95010   72.06900  216.16150  133.79810
 16377.50000    4.41860  -34.78230    3.90440    5.75020    0.11860    0.05570   74.43260    0.07140    2.61300    8.95030   73.22010  215.87560  134.10600
 16378.00000    4.43630  -34.67100    3.91680    5.42820    0.14170    0.05550   73.36750    0.08000    2.61390    8.95050   74.47080  215.62420  134.64760
 16378.50000    4.49710  -34.56320    3.86160    5.14780    0.16300    0.05430   75.02710    0.08930    2.61530    8.95070   75.72160  215.61020  134.32620
 16379.00000    4.55870  -34.35830    3.80730    4.88190    0.17570    0.04970   77.72110    0.09860    2.62220    8.95090   76.97230  215.59630  133.72650
 16379.50000    4.62120  -34.49660    3.75370    4.73280    0.19070    0.04560   77.79880    0.10800    2.62960    8.95110   78.16430  215.58230  133.31690
 16380.00000    4.68450  -34.65060    3.70090    4.62130    0.19090    0.03980   75.63640    0.11680    2.64040    8.95130   77.98280  215.92020  132.40450
 16380.50000    4.74870  -34.63830    3.68980    4.53570    0.18560    0.03290   74.69870    0.12150    2.65510    8.95150   77.80140  218.26830  131.80430
 16381.00000    4.81370  -34.30390    3.68910    4.53840    0.18160    0.03150   74.02530    0.11560    2.65770    8.95170   77.61600  219.65200  131.74960
 16381.50000    4.81740  -34.09300    3.68830    4.54100    0.17980    0.04700   74.05390    0.08940    2.62830    8.95190   77.40330  218.50380  131.73790
 16382.00000    4.78440  -33.74840    3.68760    4.57470    0.17430    0.07470   73.37910    0.06440    2.58060    8.95210   77.30460  217.02690  131.75140
 16382.50000    4.64270  -33.22350    3.68680    4.55260    0.16550    0.09180   71.73230    0.06080    2.55090    9.07600   77.19910  215.90090  131.87470
 16383.00000    4.50510  -33.60740    3.68610    4.30510    0.15760    0.08390   70.50390    0.08470    2.56620    9.27430   77.20890  215.79560  132.24400
 16383.50000    4.42430  -33.99130    3.68530    4.13010    0.15200    0.07240   70.94640    0.11530    2.58510    9.47200   77.21870  215.69030  131.85230
 16384.00000    4.39860  -34.38640    3.68460    4.16820    0.15210    0.06040   73.23960    0.13540    2.61100    9.62470   77.22840  215.60710  131.89740
 16384.50000    4.37300  -34.83640    3.72040    4.28850    0.15450    0.05180   74.25970    0.14130    2.62220    9.70230   77.23820  215.64170  132.15370
 16385.00000    4.34750  -35.19070    3.75770    4.36760    0.15690    0.04530   73.04980    0.15160    2.63210    9.70480   77.24800  215.67630  132.83750
 16385.50000    4.32220  -35.21770    3.79530    4.42330    0.15920    0.03860   72.00760    0.16270    2.64160    9.70740   77.25780  215.71090  133.34750
 16386.00000    4.29710  -35.21480    3.83330    4.84150    0.16150    0.03190   72.32380    0.16890    2.64440    9.70750   77.26750  215.74540  139.79340
 16386.50000    4.30760  -35.15100    3.87170    5.14850    0.16260    0.03130   73.91460    0.17510    2.65370    9.70640   77.27730  215.76460  144.23290
 16387.00000    4.32840  -35.08710    3.91040    5.21230    0.15910    0.03100   75.51290    0.17590    2.65640    9.70530   77.28710  215.77300  150.41300
 16387.50000    4.34930  -34.97230    3.94960    5.23900    0.15560    0.03040   75.70230    0.17270    2.65730    9.70510   77.29690  215.78140  151.53970
 16388.00000    4.37030  -34.66540    3.99690    5.13110    0.15210    0.03100   74.81430    0.16930    2.65570    9.70720   77.25650  215.86230  151.52800
 16388.50000    4.39130  -34.22690    4.04710    5.01220    0.15030    0.03310   74.76670    0.16590    2.65200    9.70680   77.23540  215.97260  151.52710
 16389.00000    4.41250  -34.05710    4.00920    5.02180    0.15430    0.03490   78.44410    0.16110    2.64850    9.69700   77.29510  216.04560  151.53590
 16389.50000    4.43380  -34.03450    3.97760    5.15810    0.15870    0.03650   82.92570    0.15630    2.64530    9.68970   77.21890  216.10910  151.40860
 16390.00000    4.45530  -34.01200    3.98080    5.27170    0.15810    0.03890   85.27970    0.15140    2.64220    9.69400   77.21110  216.16890  151.27290
 16390.50000    4.47680  -33.93820    3.98410    5.34160    0.15580    0.04110   83.71510    0.14810    2.63900    9.69830   77.22260  216.21570  151.32920
 16391.00000    4.47900  -33.59520    3.97640    5.37240    0.15220    0.04130   81.77960    0.14560    2.63850    9.70260   77.29400  216.26250  151.51820
 16391.50000    4.46700  -33.25220    3.96620    5.40340    0.14880    0.04160   79.82180    0.14320    2.63830    9.70700   77.22120  216.08150  151.54100
