~Version ---------------------------------------------------
VERS.   2.0 : CWLS log ASCII Standard -VERSION 2.0
WRAP.    NO : One line per depth step
DLM . SPACE : Column Data Section Delimiter
~Well ------------------------------------------------------
STRT .F               15482.0 : START DEPTH
STOP .F               18784.0 : STOP DEPTH
STEP .F                   0.5 : STEP
NULL .               -9999.25 : NULL VALUE
COMP .                        : COMPANY
WELL .                        : WELL
FLD  .                        : FIELD
LOC  .                        : LOCATION
PROV .                        : PROVINCE
CNTY .                        : COUNTY
STAT .                        : STATE
CTRY .                        : COUNTRY
SRVC .                        : SERVICE COMPANY
DATE .                        : DATE
UWI  .                        : UNIQUE WELL ID
API  .                        : API NUMBER
SLAT .WGS84 5.602469417573602 : SURFACE LATITUDE
SLON .WGS84 3.050184767117898 : SURFACE LONGITUDE
DATUM.F                   nan : DEPTH DATUM ELEV
~Curve Information -----------------------------------------
DEPT   .F     : 1 MEASURED DEPTH
ILD    .OHMM  : INDUCTION DEEP RESISTIVITY
SPR    .MV    : SPONTANEOUS POTENTIAL FROM RESISTIVITY LOG
ILM    .OHMM  : INDUCTION MEDIUM RESISTIVITY
SFLU   .OHMM  : SHALLOW FOCUSED RESISTIVITY (UNAVERAGED)
NPOR_LS.DEC   : NEUTRON POROSITY LIMESTONE
DPHI_LS.DEC   : DENSITY POROSITY LIMESTONE
GRD    .GAPI  : GAMMA RAY FROM DENSITY LOG
DRHO   .G/C3  : BULK DENSITY CORRECTION
RHOB   .G/C3  : BULK DENSITY
CALD   .IN    : CALIPER FROM DENSITY LOG
DTCO   .US/F  : DELTA-T COMPRESSIONAL
DTMD   .US/F  : DELTA-T MUD
DTSM   .US/F  : DELTA-T SHEAR
~Params ----------------------------------------------------
~Other -----------------------------------------------------
~ASCII -----------------------------------------------------
# ...
 16600.00000    5.16190  -28.66300    6.18600    9.76730    0.19050    0.05110   72.60410    0.10670    2.62830    8.53260   65.96890  217.20090  128.30420
 16600.50000    5.17900  -28.54820    6.19650    9.77090    0.19630    0.04200   71.79840    0.05890    2.63740    8.36840   65.52920  217.24850  126.72240
 16601.00000    5.19620  -28.43340    6.19840    9.77450    0.19510    0.04710   70.90150    0.01580    2.62790    8.20410   65.18140  217.36690  125.10080
 16601.50000    5.21350  -28.31860    6.23620    9.77820    0.19230    0.05340   69.73770   -0.00490    2.61870    8.05690   64.96110  217.48520  122.93730
 16602.00000    5.21390  -28.20380    6.28030    9.78180    0.19030    0.05610   69.49660    0.00540    2.61500    7.98330   65.55320  217.42810  121.54240
 16602.50000    5.21350  -28.08900    6.32480    9.70020    0.19150    0.04450   70.88610    0.02670    2.63800    7.93040   66.88050  217.12280  120.85110
 16603.00000    5.21300  -27.97420    6.36960    9.37500    0.19340    0.02950   73.85000    0.04730    2.66100    7.93140   67.23630  217.05780  120.78370
 16603.50000    5.21250  -27.85950    6.41470    9.06070    0.19390    0.01600   75.76180    0.06140    2.68460    7.93240   67.29640  217.05250  120.74720
 16604.00000    5.49110  -27.74470    6.46010    8.79980    0.17690    0.00940   75.51960    0.06690    2.69770    7.95100   67.14230  217.04720  120.71070
 16604.50000    6.06130  -27.58030    6.50590    8.61480    0.15500    0.01650   75.18110    0.05600    2.68250    7.99370   67.20030  217.18010  120.67420
 16605.00000    6.69080  -27.38710    6.44750    8.61480    0.13400    0.02520   74.64900    0.04470    2.66520    7.97170   67.30900  217.32270  120.63770
 16605.50000    6.79960  -27.19390    6.30380    8.61480    0.11720    0.03200   74.11690    0.03350    2.65000    7.94960   67.27480  217.46540  120.60120
 16606.00000    6.76610  -27.01170    6.16330    8.55320    0.10640    0.03100   73.58470    0.02880    2.65320    7.93930   67.13060  217.60800  120.56390
 16606.50000    6.73280  -26.84480    6.04740    8.43010    0.10200    0.02330   73.16570    0.03770    2.66960    7.93850   67.13420  217.31450  120.51520
 16607.00000    6.67560  -26.67790    5.97300    8.16860    0.11170    0.01700   72.69800    0.05100    2.68360    7.94170   67.13790  215.19980  120.38210
 16607.50000    6.48760  -26.47710    5.89940    7.75760    0.13370    0.01260   73.08350    0.04930    2.68370    7.92700   67.14150  207.38710  120.17870
 16608.00000    6.30480  -26.21600    5.82670    7.25310    0.14930    0.02210   74.35710    0.04130    2.67020    7.92280   67.14900  198.62740  120.15520
 16608.50000    6.12720  -26.10640    5.75500    6.88140    0.15410    0.03350   74.70030    0.03320    2.65230    7.91860   67.09060  205.15910  120.41220
 16609.00000    5.95460  -26.00360    5.68410    6.85600    0.15760    0.04380   71.41740    0.02680    2.63100    7.91570   66.57330  213.35230  120.41220
 16609.50000    5.78820  -26.06440    5.61410    6.83060    0.16230    0.05510   68.13460    0.02690    2.60800    7.91640   66.18590  216.17610  120.60540
 16610.00000    5.62680  -26.22150    5.37330    7.09460    0.15940    0.07440   64.85170    0.03170    2.58390    7.98900   66.16290  215.78170  121.17400
 16610.50000    5.47000  -26.23670    5.10750    7.44530    0.15150    0.08560   63.16310    0.05320    2.56460    8.12420   66.22170  215.53740  121.61620
 16611.00000    5.31750  -26.02470    4.85480    7.68250    0.14910    0.08110   63.63220    0.08330    2.56670    8.25170   66.31810  215.58940  121.46900
 16611.50000    5.16920  -25.70500    4.73430    7.67630    0.14430    0.07300   65.35860    0.12710    2.58250    8.41390   66.43980  215.64150  121.13900
 16612.00000    5.02510  -25.51160    4.65890    7.67000    0.13700    0.06500   71.36570    0.17480    2.59780    8.77220   67.02870  215.69360  127.51500
 16612.50000    4.88500  -25.27860    4.58470    7.66380    0.12980    0.07000   74.83410    0.17600    2.58340    9.13040   70.02630  215.74570  135.29720
 16613.00000    4.78680  -24.83810    4.56240    7.37170    0.12630    0.08670   72.32290    0.15630    2.55910    9.34510   73.10790  215.76910  142.81930
 16613.50000    4.76750  -24.39760    4.55510    6.66990    0.12520    0.09910   69.47800    0.14160    2.54010    9.48580   72.97970  215.81990  146.80490
 16614.00000    4.74830  -24.12150    4.54790    5.82330    0.12340    0.10660   70.95600    0.13390    2.52640    9.58760   73.19070  215.87070  150.72800
 16614.50000    4.72920  -24.07210    4.54070    5.02200    0.12010    0.10060   73.44940    0.13500    2.53320    9.60970   73.11870  215.92150  153.32910
 16615.00000    4.71010  -24.30900    4.53350    4.85480    0.11640    0.09370   74.71120    0.14610    2.54610    9.63190   73.01950  215.97240  153.78840
 16615.50000    4.69120  -24.34080    4.52620    4.82170    0.11360    0.09360   75.20300    0.15030    2.54770    9.63800   72.92030  215.76500  153.77530
 16616.00000    4.67230  -24.09790    4.51910    4.78890    0.11610    0.10070   75.64770    0.14040    2.54230    9.63650   72.82110  215.48030  153.69270
 16616.50000    4.65350  -23.76960    4.51190    4.75620    0.12580    0.10560   76.04310    0.13290    2.53040    9.62760   72.72190  215.41400  153.73990
 16617.00000    4.63470  -23.77080    4.50470    4.75190    0.14290    0.10220   76.43850    0.12480    2.53130    9.55230   72.62270  215.47120  153.85360
 16617.50000    4.58560  -23.89590    4.37800    5.06510    0.16710    0.09730   76.25350    0.11580    2.53900    9.34630   72.52350  215.72610  153.74850
 16618.00000    4.51080  -24.02110    4.23040    5.29290    0.19360    0.09160   75.38260    0.10250    2.55300    9.32860   72.43670  215.98090  153.69840
 16618.50000    4.43730  -24.14620    4.08780    5.16470    0.20800    0.08120   74.00560    0.11570    2.56700    9.31100   72.36670  216.14110  153.76830
 16619.00000    4.36500  -24.27140    3.95000    4.64320    0.20620    0.06920   75.20110    0.14190    2.58730    9.29330   72.27430  215.99820  153.87900
 16619.50000    4.29390  -24.39650    3.81690    4.46070    0.19310    0.05330   76.47710    0.17960    2.61720    9.27560   72.18190  215.85540  153.89940
 16620.00000    4.22390  -24.52160    3.69730    4.45360    0.17900    0.04710   74.77660    0.20200    2.62800    9.25790   72.80170  215.71260  153.97500
 16620.50000    4.15510  -24.64680    3.72630    4.44650    0.16400    0.04690   69.71430    0.18260    2.63020    9.24020   74.03190  215.56980  154.06100
 16621.00000    4.08740  -24.77190    3.75550    4.43940    0.16130    0.04630   66.86210    0.15510    2.62930    9.15960   76.67480  215.42700  154.17970
 16621.50000    4.05430  -24.89700    3.78500    4.43230    0.16140    0.04120   66.41030    0.15510    2.63960    9.01570   78.04080  215.28420  154.60310
 16622.00000    4.08450  -25.02220    3.81470    4.44210    0.16290    0.02780   68.75820    0.16840    2.65930    9.02170   78.79650  215.14140  154.62050
 16622.50000    4.11500  -25.29290    3.84460    4.47450    0.16430    0.01760   71.47080    0.19680    2.67880    9.18930   79.05390  214.99860  154.62470
 16623.00000    4.14570  -25.51530    3.87470    4.45960    0.16560    0.01420   71.36020    0.21890    2.68390    9.26840   79.18430  207.42650  154.62900
 16623.50000    4.17670  -25.73770    3.90510    4.46000    0.16610    0.01280   69.49570    0.22590    2.68530    9.28820   79.31460  195.83510  154.63320
 16624.00000    4.20780  -25.96010    3.93570    4.46620    0.16480    0.01890   67.44700    0.21830    2.67620    9.29790   79.44500  199.90460  154.63750
 16624.50000    4.23920  -26.18250    3.96660    4.55060    0.16350    0.02880   66.80920    0.21110    2.66310    9.30710   79.45320  237.64690  154.64170
 16625.00000    4.27090  -26.40490    3.99770    4.65750    0.16220    0.03340   67.77800    0.21120    2.65080    9.30770   79.42870  231.52390  154.64600
 16625.50000    4.31160  -26.59030    4.06100    4.81790    0.16090    0.02680   69.06030    0.21200    2.65710    9.30820   79.41480  220.73330  154.65020
