~Version ---------------------------------------------------
VERS.   2.0 : CWLS log ASCII Standard -VERSION 2.0
WRAP.    NO : One line per depth step
DLM . SPACE : Column Data Section Delimiter
~Well ------------------------------------------------------
STRT .F               15482.0 : START DEPTH
STOP .F               18784.0 : STOP DEPTH
STEP .F                   0.5 : STEP
NULL .               -9999.25 : NULL VALUE
COMP .                        : COMPANY
WELL .                        : WELL
FLD  .                        : FIELD
LOC  .                        : LOCATION
PROV .                        : PROVINCE
CNTY .                        : COUNTY
STAT .                        : STATE
CTRY .                        : COUNTRY
SRVC .                        : SERVICE COMPANY
DATE .                        : DATE
UWI  .                        : UNIQUE WELL ID
API  .                        : API NUMBER
SLAT .WGS84 5.602469417573602 : SURFACE LATITUDE
SLON .WGS84 3.050184767117898 : SURFACE LONGITUDE
DATUM.F                   nan : DEPTH DATUM ELEV
~Curve Information -----------------------------------------
DEPT   .F     : 1 MEASURED DEPTH
ILD    .OHMM  : INDUCTION DEEP RESISTIVITY
SPR    .MV    : SPONTANEOUS POTENTIAL FROM RESISTIVITY LOG
ILM    .OHMM  : INDUCTION MEDIUM RESISTIVITY
SFLU   .OHMM  : SHALLOW FOCUSED RESISTIVITY (UNAVERAGED)
NPOR_LS.DEC   : NEUTRON POROSITY LIMESTONE
DPHI_LS.DEC   : DENSITY POROSITY LIMESTONE
GRD    .GAPI  : GAMMA RAY FROM DENSITY LOG
DRHO   .G/C3  : BULK DENSITY CORRECTION
RHOB   .G/C3  : BULK DENSITY
CALD   .IN    : CALIPER FROM DENSITY LOG
DTCO   .US/F  : DELTA-T COMPRESSIONAL
DTMD   .US/F  : DELTA-T MUD
DTSM   .US/F  : DELTA-T SHEAR
~Params ----------------------------------------------------
~Other -----------------------------------------------------
~ASCII -----------------------------------------------------
# ...
 17458.00000   55.64970  -38.32840   28.93190   95.35100    0.06360    0.06930   82.14570   -0.01170    2.59530    7.27860   63.07370  219.33640  104.38320
 17458.50000   49.18160  -38.24140   26.44960   77.47760    0.05800    0.05720  103.37640   -0.01410    2.61430    7.27770   63.03850  219.70990  104.35940
 17459.00000   47.50540  -38.15450   25.19320   71.14740    0.05210    0.04680  114.37650   -0.01630    2.62570    7.28550   62.95480  218.57330  103.97200
 17459.50000   46.85860  -38.06760   26.21750   64.33480    0.04610    0.03960  110.06170   -0.01520    2.63590    7.30360   62.87110  218.45090  103.58740
 17460.00000   46.40720  -37.71210   27.28340   59.43390    0.04020    0.03500   93.72180   -0.01160    2.64610    7.30560   61.81370  218.01910  100.02360
 17460.50000   46.48370  -37.34110   28.39270   56.37830    0.03430    0.03240   84.78120   -0.00810    2.65070    7.30310   59.84160  199.92950   97.56090
 17461.00000   46.73280  -36.97000   29.54700   57.72870    0.03050    0.03810   90.18550   -0.00850    2.64570    7.30060   57.86950  191.83660   95.77360
 17461.50000   46.66400  -36.59900   30.74830   63.11320    0.03380    0.05200   97.97480   -0.00980    2.62610    7.29810   57.39630  202.52690   97.29550
 17462.00000   43.91730  -36.22800   28.64880   85.75860    0.05400    0.06280  104.74400   -0.01050    2.60530    7.28050   59.24740  215.27710  102.96150
 17462.50000   41.23290  -35.85260   25.74620   85.75860    0.06890    0.06900  103.80860   -0.01130    2.59660    7.29550   62.55680  219.53560  105.92140
 17463.00000   38.71260  -35.46280   23.45540   69.44440    0.08390    0.07090  102.81160   -0.01200    2.59180    7.30430   63.76970  219.52210  105.94400
 17463.50000   34.88930  -35.07310   21.81640   52.94970    0.09120    0.07290  103.81600   -0.01270    2.58720    7.30210   64.08180  219.50320  105.96650
 17464.00000   31.34810  -34.68340   20.39440   44.05980    0.09300    0.07210  107.74420   -0.01340    2.58470    7.29980   64.35810  219.38190  106.63780
 17464.50000   28.16520  -34.29370   18.13660   37.63680    0.09290    0.06210  109.53140   -0.01400    2.59830    7.29750   64.03260  219.19940  104.93580
 17465.00000   26.18020  -34.09570   17.06080   31.82180    0.08930    0.05160  109.89910   -0.01460    2.61700    7.29530   62.83690  218.95120  103.04600
 17465.50000   25.42200  -34.09240   17.19350   29.42940    0.08400    0.04390  110.94030   -0.01500    2.63050    7.29300   60.26440  219.15570  101.15620
 17466.00000   24.68570  -34.12520   17.54060   31.62750    0.07470    0.04390  116.00360   -0.01020    2.63440    7.29250   58.01650  219.36010   99.26640
 17466.50000   22.87620  -34.15800   18.79600   36.79470    0.06810    0.04790  125.03200   -0.00780    2.62730    7.29440   58.61530  219.50590   98.90050
 17467.00000   22.03400  -34.19080   17.17950   42.80610    0.06790    0.05320  131.73870   -0.00780    2.61970    7.29630   59.34430  219.61200   99.14880
 17467.50000   21.47690  -34.22360   15.62230   45.37340    0.06930    0.05700  135.59020   -0.00740    2.61220    7.29830   59.74770  219.66510   99.40610
 17468.00000   20.93390  -34.25640   13.70880   36.41870    0.07560    0.05160  138.64840   -0.00620    2.61520    7.30050   59.75160  219.45770   99.50800
 17468.50000   20.79450  -34.28910   13.28860   29.17570    0.08270    0.04420  141.96070   -0.00170    2.62650    7.30300   59.45910  219.22000   98.12090
 17469.00000   21.07850  -34.32190   13.75690   23.37330    0.08600    0.04630  149.40140    0.00280    2.63290    7.31290   59.08930  219.21850   97.06200
 17469.50000   21.37720  -34.35470   14.24170   20.92030    0.08220    0.05510  152.66090    0.00490    2.62120    7.31150   58.75690  219.15190   96.89900
 17470.00000   21.68020  -34.38750   14.89550   23.27030    0.05820    0.06040  148.77210    0.00290    2.60720    7.31010   58.65300  219.03700   96.56680
 17470.50000   21.98750  -34.42030   15.47220   27.84000    0.03800    0.05510  126.56310   -0.00040    2.60950    7.30430   58.68040  202.98790   96.24410
 17471.00000   22.35910  -34.45310   15.82000   33.30700    0.01540    0.04810  111.11170   -0.00080    2.62310    7.28530   58.70490  193.50070   96.02860
 17471.50000   23.77460  -34.48580   16.15400   33.99320    0.00150    0.03940   98.57420   -0.00020    2.63940    7.23510   58.75800  200.28590   95.88790
 17472.00000   25.67570  -34.51860   16.64720   31.06400   -0.01010    0.03310   96.66450    0.00060    2.65220    7.16260   58.77090  216.73210   95.99250
 17472.50000   29.33400  -34.53130   17.88950   29.00820   -0.01520    0.02690   95.36410    0.00140    2.66400    7.09970   58.78570  219.57120   95.81010
 17473.00000   33.59250  -34.53670   19.13870   29.27910   -0.01530    0.02400   92.89400   -0.00050    2.66670    7.09870   58.80060  219.62100   95.35890
 17473.50000   38.46930  -34.54210   20.92430   30.27520   -0.01240    0.02560   85.22510   -0.00240    2.66580    7.09760   58.81550  219.67570   95.26270
 17474.00000   44.05410  -34.76700   25.46010   37.85360   -0.00960    0.02910   70.76420   -0.00440    2.66030    7.10660   58.83040  219.89820   94.15470
 17474.50000   50.44970  -34.95970   28.81170   51.58690   -0.00680    0.03230   59.57140   -0.00630    2.65340    7.12310   58.84520  219.25850   90.16960
 17475.00000   56.71650  -35.15030   30.81490   70.30280   -0.00590    0.03240   49.85940   -0.00830    2.65310    7.12790   58.86010  218.73380   89.89930
 17475.50000   72.63460  -35.41960   36.15780  125.52360   -0.00600    0.02910   45.24070   -0.00710    2.65650    7.12570   58.87500  219.31630   89.59370
 17476.00000  113.03490  -35.66650   39.93880  240.90230   -0.00600    0.02820   41.93900   -0.00440    2.65840    7.12250   58.88990  220.54470   89.38710
 17476.50000  175.90620  -35.91340   41.80770  418.54620   -0.00610    0.02820   38.50320   -0.00170    2.66070    7.11940   58.90470  220.36730   89.37090
 17477.00000  226.82240  -35.88670   42.77330  699.94120   -0.00620    0.02720   34.95380    0.00300    2.66110    7.11620   58.91960  219.47730   89.40150
 17477.50000  259.77380  -35.81130   44.17160 1010.35870   -0.00610    0.02060   33.04330    0.00790    2.66860    7.11300   58.93450  219.41620   89.42530
 17478.00000  273.67560  -35.67870   46.39420 1348.03270   -0.00420    0.01380   35.55040    0.01280    2.68070    7.10980   58.94940  219.35510   89.44450
 17478.50000  271.72550  -35.60080   47.17610 1600.22900   -0.00110    0.00690   39.60630    0.01580    2.69390    7.10650   58.96420  219.29400   89.42340
 17479.00000  265.74830  -35.86780   47.45610 1419.16020    0.00020    0.00190   40.11060    0.01840    2.70540    7.10550   58.97910  219.23300   89.40040
 17479.50000  259.38170  -36.13480   47.73780 1115.16760   -0.00160    0.00110   36.42980    0.01790    2.71130    7.10690   58.99400  219.28310   89.37280
 17480.00000  251.27190  -36.40170   48.02120  759.64630   -0.00330    0.00150   32.47790    0.01590    2.70930    7.10830   59.00890  219.26680   89.29930
 17480.50000  243.11570  -36.68180   48.30620  645.83460   -0.00510    0.00360   28.82600    0.01380    2.70340    7.10970   59.02370  218.41910   89.35220
 17481.00000  235.22430  -37.06290   48.80180  775.06950   -0.00690    0.00740   27.91000    0.01100    2.69750    7.10080   59.03860  218.31450   89.43810
 17481.50000  235.96950  -37.99950   49.47890 1106.28590   -0.00850    0.01460   28.13200    0.00790    2.68840    7.09740   59.05350  218.20990   89.64410
 17482.00000  236.74060  -38.88050   50.16530 1682.29650   -0.00650    0.02440   28.65520    0.00480    2.67140    7.09720   59.06830  218.18910   89.85910
 17482.50000  245.75230  -39.46930   51.39900 1564.62440   -0.00310    0.03720   33.87750    0.00170    2.65000    7.09680   59.08320  218.19060   90.07420
 17483.00000  259.52490  -39.74100   52.76880 1346.42110   -0.00160    0.04040   37.18260   -0.00140    2.64080    7.09630   59.09810  218.19220   90.28920
 17483.50000  275.58070  -40.01270   53.81040 1163.88950   -0.00340    0.04060   40.27480   -0.00460    2.64010    7.09590   59.11300  218.19370   90.39060
