~Version ---------------------------------------------------
VERS.   2.0 : CWLS log ASCII Standard -VERSION 2.0
WRAP.    NO : One line per depth step
DLM . SPACE : Column Data Section Delimiter
~Well ------------------------------------------------------
STRT .F               15482.0 : START DEPTH
STOP .F               18784.0 : STOP DEPTH
STEP .F                   0.5 : STEP
NULL .               -9999.25 : NULL VALUE
COMP .                        : COMPANY
WELL .                        : WELL
FLD  .                        : FIELD
LOC  .                        : LOCATION
PROV .                        : PROVINCE
CNTY .                        : COUNTY
STAT .                        : STATE
CTRY .                        : COUNTRY
SRVC .                        : SERVICE COMPANY
DATE .                        : DATE
UWI  .                        : UNIQUE WELL ID
API  .                        : API NUMBER
SLAT .WGS84 5.602469417573602 : SURFACE LATITUDE
SLON .WGS84 3.050184767117898 : SURFACE LONGITUDE
DATUM.F                   nan : DEPTH DATUM ELEV
~Curve Information -----------------------------------------
DEPT   .F     : 1 MEASURED DEPTH
ILD    .OHMM  : INDUCTION DEEP RESISTIVITY
SPR    .MV    : SPONTANEOUS POTENTIAL FROM RESISTIVITY LOG
ILM    .OHMM  : INDUCTION MEDIUM RESISTIVITY
SFLU   .OHMM  : SHALLOW FOCUSED RESISTIVITY (UNAVERAGED)
NPOR_LS.DEC   : NEUTRON POROSITY LIMESTONE
DPHI_LS.DEC   : DENSITY POROSITY LIMESTONE
GRD    .GAPI  : GAMMA RAY FROM DENSITY LOG
DRHO   .G/C3  : BULK DENSITY CORRECTION
RHOB   .G/C3  : BULK DENSITY
CALD   .IN    : CALIPER FROM DENSITY LOG
DTCO   .US/F  : DELTA-T COMPRESSIONAL
DTMD   .US/F  : DELTA-T MUD
DTSM   .US/F  : DELTA-T SHEAR
~Params ----------------------------------------------------
~Other -----------------------------------------------------
~ASCII -----------------------------------------------------
# ...
 15508.00000   79.11610  -58.25540  469.16070    9.37850    0.09040    0.05390   35.98090    0.06900    2.61110    7.66950   62.02160  216.02290  121.68220
 15508.50000   62.13290  -55.34870  747.07340   11.72300    0.09080    0.03840   36.64540    0.09510    2.63520    7.57820   62.74980  215.94020  121.71320
 15509.00000 1114.00320  -53.61340 1189.61070   12.85680    0.09000    0.02430   36.78750    0.09620    2.65850    7.58400   62.63450  215.90170  121.72930
 15509.50000 1873.27010  -52.17680 1894.28920   13.47880    0.08450    0.01860   37.62440    0.08990    2.67540    7.57500   62.34820  216.01590  121.72380
 15510.00000 1966.02860  -50.62540 2014.39270   15.01640    0.07820    0.02250   38.97230    0.05490    2.67260    7.56770   61.20690  216.13020  121.40410
 15510.50000 1154.95760  -49.12520 2013.66630   17.42970    0.07490    0.02630   39.88820    0.01240    2.66580    7.56410   59.88540  216.24450  120.83700
 15511.00000  617.73710  -47.62500 1648.96250   19.00480    0.07560    0.02680   40.15400   -0.00980    2.66300    7.56680   59.69820  216.35880  119.59580
 15511.50000   46.87730  -46.10860  795.97060   18.99790    0.07950    0.02510   40.44450   -0.01480    2.66470    7.57000   59.67360  216.43340  119.05580
 15512.00000   11.99910  -44.05130   50.75340   17.81670    0.08490    0.02340   41.39970   -0.01830    2.66650    7.57290   59.62790  216.26900  118.77480
 15512.50000   10.84040  -42.97030   12.86320   16.62360    0.09010    0.02280   42.69360   -0.01940    2.66890    7.58970   60.02850  216.10460  118.78970
 15513.00000   10.75730  -42.42470   11.99040   15.51040    0.09410    0.02600   43.76820   -0.02050    2.66610    7.60650   60.48070  216.09840  118.80460
 15513.50000   10.54390  -41.87910   13.72650   14.39280    0.09560    0.03220   44.08130   -0.02160    2.65710    7.61540   60.93300  216.10040  119.27330
 15514.00000    9.78950  -41.73730   12.61740   12.53170    0.09340    0.04260   44.47570   -0.02180    2.64060    7.59400   61.38520  216.05770  120.63430
 15514.50000    8.77980  -41.80980   10.76430   11.11950    0.09110    0.04480   45.59020   -0.02100    2.63290    7.57760   62.03780  215.95800  121.89060
 15515.00000    7.71830  -40.89560    9.18330   10.14590    0.09040    0.04190   47.32540   -0.02030    2.63510    7.57610   62.08970  215.89270  122.40230
 15515.50000    7.04520  -40.40550    7.83460    9.28260    0.09090    0.03740   49.23230   -0.01950    2.64330    7.56380   62.15470  215.98700  122.96050
 15516.00000    6.79930  -40.07570    6.81210    8.83250    0.09340    0.03170   48.64140   -0.01750    2.65200    7.56280   62.34530  216.08130  124.38650
 15516.50000    6.53150  -39.57310    6.24590    8.41080    0.09690    0.03330   47.69230   -0.01530    2.65010    7.56620   63.45600  216.15260  126.24390
 15517.00000    6.25570  -39.07050    5.98520    8.28070    0.09940    0.03590   46.87000   -0.01290    2.64550    7.56950   63.84110  216.21330  127.38490
 15517.50000    5.99150  -38.56790    5.88690    8.04830    0.10130    0.03550   47.48860   -0.01040    2.64310    7.56900   64.06370  216.27410  127.30350
 15518.00000    5.73840  -38.08540    5.79020    7.90600    0.10810    0.03120   48.57180   -0.00710    2.65350    7.56200   64.37860  216.33490  127.24710
 15518.50000    5.49610  -37.57790    5.69500    7.76630    0.11460    0.03010   49.05220   -0.00360    2.65930    7.55500   64.61120  216.39570  127.74560
 15519.00000    5.34990  -36.74310    5.60140    7.62900    0.12070    0.03320   48.50080   -0.00280    2.65240    7.55310   64.65490  216.45640  128.10170
 15519.50000    5.21040  -36.28280    5.50430    7.40930    0.12560    0.03870   47.63810   -0.00500    2.64300    7.55550   64.95450  216.51720  128.61790
 15520.00000    5.07460  -36.09060    5.28200    7.08360    0.13050    0.04480   47.72620   -0.00710    2.63440    7.55790   65.72140  216.57800  130.72560
 15520.50000    4.92030  -35.89850    5.09690    6.71080    0.13270    0.04660   51.35480   -0.00930    2.62940    7.56030   66.64280  216.63880  133.34400
 15521.00000    4.72530  -35.60510    4.93140    6.54880    0.13410    0.04520   53.73280   -0.01140    2.63040    7.56270   67.59630  216.61300  135.70700
 15521.50000    4.53810  -35.40590    4.77120    6.38750    0.13550    0.04210   56.22410   -0.01120    2.63440    7.56510   67.90640  216.57390  138.07000
 15522.00000    4.35820  -35.43520    4.61630    6.24700    0.13560    0.04080   58.71100   -0.01000    2.63980    7.56740   68.63090  216.53470  140.08020
 15522.50000    4.18550  -35.59520    4.46640    6.00140    0.13550    0.03960   59.35390   -0.00900    2.64270    7.56980   69.55830  216.40000  141.61060
 15523.00000    4.01970  -35.66970    4.26270    5.84210    0.13590    0.03950   59.40050   -0.00970    2.64230    7.57220   70.27870  216.24010  142.63530
 15523.50000    3.86040  -35.74410    4.05080    5.62940    0.13740    0.04170   60.43510   -0.01040    2.63920    7.57460   70.48080  216.17010  142.31450
 15524.00000    3.70740  -35.79730    3.88340    5.49250    0.14230    0.03970   63.60110   -0.01110    2.64440    7.57700   70.68280  216.27650  141.79020
 15524.50000    3.56050  -35.76090    3.73410    5.42390    0.13880    0.03010   66.69480   -0.01180    2.65900    7.57720   70.88490  216.38290  141.24180
 15525.00000    3.53940  -35.74460    3.69190    5.06850    0.11540    0.02010   63.75450   -0.01300    2.67330    7.57300   71.08700  216.40150  140.67790
 15525.50000    3.55350  -35.82390    3.69260    4.72410    0.08170    0.01540   54.94490   -0.01620    2.68100    7.56370   70.82120  216.41510  140.11410
 15526.00000    3.64790  -36.60340    3.87580    4.40310    0.05410    0.01490   46.41080   -0.02060    2.68440    7.55410   69.66480  216.31720  139.70260
 15526.50000    3.88920  -36.47600    4.42250    4.30900    0.02620    0.01510   36.71390   -0.02550    2.68460    7.54440   67.78820  216.02040  131.05730
 15527.00000    4.37410  -36.34860    5.24770    5.53250    0.02010    0.01360   31.60860   -0.02910    2.68470    7.54990   65.91170  215.88130  122.65950
 15527.50000    4.91940  -36.22120    6.22690    8.13350    0.02330    0.01300   31.86700   -0.02720    2.68430    7.56790   64.03510  215.87910  116.23510
 15528.00000    5.53270  -36.06760    7.38880   13.78970    0.03950    0.01640   35.02140   -0.02470    2.67990    7.58220   62.00110  215.87700  112.58320
 15528.50000    6.22250  -35.90280    8.76750   27.80740    0.06000    0.02140   40.19220   -0.02210    2.67320    7.59390   58.77860  216.18470  110.25230
 15529.00000    6.99820  -35.73800    9.95640   49.02340    0.08250    0.02750   43.70960   -0.02120    2.66440    7.60770   56.01100  216.51450  111.98940
 15529.50000    7.87070  -35.57320    9.83040   55.79940    0.09520    0.03200   45.02040   -0.02050    2.65700    7.62200   57.29930  216.72070  116.54680
 15530.00000    8.37390  -35.40830    8.81620   38.97730    0.10320    0.03560   46.32080   -0.01860    2.64680    7.63640   59.40430  216.18010  121.10410
 15530.50000    8.89850  -35.16120    7.90660   24.96810    0.10720    0.03770   50.58060   -0.01790    2.63960    7.65070   61.63030  216.16470  124.58520
 15531.00000    9.05510  -34.77640    7.09090   15.99410    0.11490    0.04700   54.36730   -0.01810    2.62870    7.65630   63.07420  216.32410  127.66920
 15531.50000    8.39740  -34.80510    6.35930   13.61320    0.13580    0.06440   54.72800   -0.00680    2.60330    7.68170   64.51810  216.47190  130.75320
 15532.00000    7.00470  -34.94920    5.70320   11.67550    0.14630    0.06590   48.73060    0.03160    2.60460    7.71460   65.61360  216.54110  133.55310
 15532.50000    5.84300  -35.09330    5.11480   10.53910    0.12250    0.02860   37.90830    0.06950    2.65600    7.75210   66.09190  216.35370  135.99650
 15533.00000    4.87390  -35.23730    4.58710   10.24510    0.08650    0.00220   27.59510    0.05070    2.69200    7.78960   66.30280  216.16630  137.04740
 15533.50000    4.72260  -35.38140    4.10430    9.95930    0.04520   -0.00020   17.58640    0.01610    2.70800    7.70900   66.25130  215.97890  133.70220
