~Version ---------------------------------------------------
VERS.   2.0 : CWLS log ASCII Standard -VERSION 2.0
WRAP.    NO : One line per depth step
DLM . SPACE : Column Data Section Delimiter
~Well ------------------------------------------------------
STRT .F               15482.0 : START DEPTH
STOP .F               18784.0 : STOP DEPTH
STEP .F                   0.5 : STEP
NULL .               -9999.25 : NULL VALUE
COMP .                        : COMPANY
WELL .                        : WELL
FLD  .                        : FIELD
LOC  .                        : LOCATION
PROV .                        : PROVINCE
CNTY .                        : COUNTY
STAT .                        : STATE
CTRY .                        : COUNTRY
SRVC .                        : SERVICE COMPANY
DATE .                        : DATE
UWI  .                        : UNIQUE WELL ID
API  .                        : API NUMBER
SLAT .WGS84 5.602469417573602 : SURFACE LATITUDE
SLON .WGS84 3.050184767117898 : SURFACE LONGITUDE
DATUM.F                   nan : DEPTH DATUM ELEV
~Curve Information -----------------------------------------
DEPT   .F     : 1 MEASURED DEPTH
ILD    .OHMM  : INDUCTION DEEP RESISTIVITY
SPR    .MV    : SPONTANEOUS POTENTIAL FROM RESISTIVITY LOG
ILM    .OHMM  : INDUCTION MEDIUM RESISTIVITY
SFLU   .OHMM  : SHALLOW FOCUSED RESISTIVITY (UNAVERAGED)
NPOR_LS.DEC   : NEUTRON POROSITY LIMESTONE
DPHI_LS.DEC   : DENSITY POROSITY LIMESTONE
GRD    .GAPI  : GAMMA RAY FROM DENSITY LOG
DRHO   .G/C3  : BULK DENSITY CORRECTION
RHOB   .G/C3  : BULK DENSITY
CALD   .IN    : CALIPER FROM DENSITY LOG
DTCO   .US/F  : DELTA-T COMPRESSIONAL
DTMD   .US/F  : DELTA-T MUD
DTSM   .US/F  : DELTA-T SHEAR
~Params ----------------------------------------------------
~Other -----------------------------------------------------
~ASCII -----------------------------------------------------
# ...
 18108.00000   -9999.25  -68.24110   46.59130  833.70540    0.00720   -0.00220   38.03480   -0.00580    2.71040    6.99710   51.33210  256.16420   88.96290
 18108.50000   -9999.25  -68.05380   46.56070  576.63680    0.00890   -0.00280   43.38560   -0.00560    2.71300    6.99130   51.29470  255.50300   89.36660
 18109.00000 1991.50740  -67.56200   46.53080  398.20370    0.01040    0.00080   45.69570   -0.00710    2.70760    6.98620   51.25720  254.46620   89.70830
 18109.50000 1982.70190  -66.93390   46.50100  390.92460    0.01010    0.00650   44.57310   -0.01100    2.69660    6.98730   51.21980  253.40780   89.22180
 18110.00000 1450.51320  -66.26540   46.12810  467.57860    0.00730    0.01370   40.89300   -0.01510    2.68750    6.98840   51.18230  252.93890   88.66460
 18110.50000  840.91250  -65.61830   45.29580  559.26290    0.00440    0.01590   35.58500   -0.01710    2.68280    6.98950   51.14490  253.35980   88.86650
 18111.00000  534.46250  -64.97130   44.47850  668.92540    0.00160    0.01330   30.48060   -0.01560    2.68640    6.99060   51.03460  254.68670   89.44020
 18111.50000  474.54080  -64.32430   44.23330  661.47000    0.00140    0.01140   25.78280   -0.01410    2.69040    6.99160   51.54980  255.13640   89.97420
 18112.00000  471.00610  -64.43620   44.04190  526.09610    0.00370    0.01230   26.64840   -0.01370    2.68920    6.99270   52.29830  253.10570   91.04500
 18112.50000  467.49800  -63.48380   43.98840  419.22390    0.00610    0.01490   28.48380   -0.01550    2.68310    6.99380   52.48070  251.93840   91.25910
 18113.00000  464.01580  -63.14420   44.12920  334.90650    0.00610    0.01680   30.31930   -0.01760    2.67980    6.99490   52.63720  252.08480   91.01640
 18113.50000  446.18790  -63.58540   44.27050  290.74780    0.00460    0.01950   31.06140   -0.01980    2.67650    6.99600   52.78270  252.23120   90.70350
 18114.00000  419.69020  -64.03500   46.37620  349.98280    0.00280    0.02440   30.32370   -0.02380    2.66610    6.99710   52.73640  253.55520   90.66030
 18114.50000  394.76620  -64.48460   48.91500  444.01540    0.00100    0.03360   29.46310   -0.02960    2.65260    6.99820   52.73600  254.22090   90.60570
 18115.00000  374.43950  -64.75530   48.87670  563.31240    0.00070    0.03640   28.76180   -0.02810    2.64870    6.99930   52.76220  254.13020   90.61480
 18115.50000  371.55920  -64.93130   48.83850  587.44460    0.00070    0.03280   28.06050   -0.02390    2.65080    7.00040   52.75580  254.23420   91.10140
 18116.00000  412.11990  -65.72260   48.80030  464.44780    0.00140    0.02650   29.08080   -0.02070    2.66380    7.00150   52.67640  255.00320   91.60210
 18116.50000  461.90660  -65.97590   48.76210  341.29070    0.00320    0.01750   31.81720   -0.01760    2.67980    7.00250   52.56460  255.81440   91.63790
 18117.00000  486.66130  -66.06410   49.02190  255.05780    0.00500    0.00970   32.12130   -0.01580    2.69140    7.00360   52.44000  256.67420   91.12290
 18117.50000  529.40610  -66.15240   49.85980  234.05000    0.00550    0.00640   32.08420   -0.01460    2.69840    7.00470   52.00020  257.02890   90.50020
 18118.00000  618.71720  -66.24060   50.71210  246.71370    0.00400    0.00850   31.24780   -0.01380    2.69580    7.00580   51.15660  254.95350   89.95530
 18118.50000  803.51810  -66.23910   51.22740  295.65660    0.00250    0.01260   29.85080   -0.01350    2.68740    7.00690   50.25740  253.91830   89.41050
 18119.00000 1043.51610  -66.07730   51.49430  367.15780    0.00100    0.01660   28.42540   -0.01320    2.68060    7.00800   49.50390  254.33280   89.08460
 18119.50000 1370.04990  -65.91550   51.87670  436.55090   -0.00180    0.02040   26.90270   -0.01290    2.67480    7.00880   48.68390  254.74730   89.23200
 18120.00000 1696.71730  -65.89990   52.50670  598.08870   -0.00360    0.02140   24.12710   -0.01260    2.67460    7.00680   48.49490  255.16180   89.37930
 18120.50000 1995.62460  -65.88210   53.14420  630.47390   -0.00360    0.01830   21.77130   -0.01240    2.68040    7.00490   50.12210  255.13890   89.52660
 18121.00000 2003.32920  -65.86440   53.35570  625.35250   -0.00340    0.01140   21.91350   -0.01210    2.69200    7.00300   49.68030  254.87890   89.65880
 18121.50000 2011.06240  -65.48380   53.56110  572.70780   -0.00330    0.00450   23.83160   -0.01180    2.70300    7.00100   49.23870  254.61880   89.79110
 18122.00000 2018.82540  -64.58000   53.65520  517.37210   -0.00320    0.00380   26.66810   -0.01150    2.70060    6.99910   49.81000  254.58950   90.60670
 18122.50000 2026.61840  -63.73650   53.55640  475.34130   -0.00180    0.00680   28.86880   -0.01180    2.69650    6.99720   50.88980  254.83350   92.16130
 18123.00000 1662.48320  -62.58050   53.24330  457.79070   -0.00000    0.01000   29.66840   -0.01250    2.69280    6.99520   50.94100  255.68820   93.73440
 18123.50000 1189.91580  -61.88900   51.91660  384.25040    0.00200    0.00930   31.39770   -0.01370    2.69590    6.99330   51.40720  256.47290   93.95670
 18124.00000  783.84530  -61.19760   50.62290  325.14480    0.00490    0.00240   33.78930   -0.01340    2.70490    6.99140   52.10750  253.74870   93.94140
 18124.50000  503.11670  -60.50610   49.36150  275.13100    0.00780   -0.00390   35.55620   -0.01210    2.71310    6.98940   52.23290  251.18540   94.02880
 18125.00000  413.32530  -59.81470   48.13150  242.43210    0.01060   -0.00320   35.92750   -0.01150    2.71290    6.98750   52.23090  248.76640   94.06360
 18125.50000  353.66620  -59.12330   46.93220  223.23340    0.01300    0.00180   36.33060   -0.01440    2.70600    6.98560   51.96850  247.32860   94.07420
 18126.00000  314.13220  -59.49490   45.82050  210.86340    0.01490    0.01110   38.06370   -0.01750    2.69210    6.98360   51.94620  251.05420   94.08020
 18126.50000  272.71830  -59.95180   44.73540  199.21020    0.01660    0.01980   39.43470   -0.02060    2.67050    6.98170   52.79920  252.87090   93.80610
 18127.00000  266.19750  -60.40860   43.96340  189.39270    0.01710    0.02680   38.83540   -0.02210    2.66440    6.97980   53.46210  253.72640   93.39380
 18127.50000  262.02870  -60.86550   43.46140  183.22510    0.01580    0.02660   37.47990   -0.02260    2.66350    6.97780   53.59820  254.58190   93.27350
 18128.00000  268.66950  -61.32240   42.96510  190.95830    0.01290    0.02040   35.90030   -0.02180    2.67420    6.97820   52.94950  255.43740   92.99430
 18128.50000  284.61000  -61.37780   43.03320  221.32900    0.01010    0.01320   34.61510   -0.02100    2.68910    6.97860   51.76630  256.29290   92.54950
 18129.00000  299.87410  -61.05300   43.11720  256.53020    0.00730    0.00600   33.50120   -0.02030    2.69510    6.97900   50.92070  256.72800   91.95000
 18129.50000  315.36540  -60.66460   43.20130  279.70290    0.00670    0.00210   32.06940   -0.02020    2.69950    6.97930   50.07510  256.47390   91.31110
 18130.00000  331.65710  -60.42890   43.28570  269.70210    0.00660    0.00330   30.95190   -0.01940    2.70050    6.97970   49.47430  256.21990   90.67210
 18130.50000  344.12140  -60.27520   43.39310  255.06140    0.00750    0.00490   31.47870   -0.01820    2.70040    6.98010   49.79690  256.15290   90.32600
 18131.00000  345.83800  -60.12140   43.66770  241.21550    0.00880    0.00650   32.50060   -0.02070    2.69490    6.98050   49.99990  256.14450   90.33890
 18131.50000  335.83280  -59.96770   43.78830  237.88010    0.01000    0.00810   34.07310   -0.01990    2.69240    6.98090   50.61910  256.06860   91.46530
 18132.00000  298.56030  -59.81390   42.74950  264.01420    0.01120    0.00720   35.33940   -0.01640    2.69700    6.98130   51.87850  255.71480   92.70690
 18132.50000  254.22340  -59.70110   41.73530  293.43610    0.01220    0.00200   35.14200   -0.00730    2.70840    6.98160   52.75030  255.38100   92.70280
 18133.00000  227.06720  -59.95020   41.08730  294.29690    0.01300    0.00120   34.10620   -0.00140    2.70870    6.98200   53.05350  255.09940   92.45930
 18133.50000  211.97660  -60.19940   41.24300  260.45770    0.01390    0.00290   33.44520   -0.00590    2.70500    6.98240   52.94330  254.81790   92.37820
