~Version ---------------------------------------------------
VERS.   2.0 : CWLS log ASCII Standard -VERSION 2.0
WRAP.    NO : One line per depth step
DLM . SPACE : Column Data Section Delimiter
~Well ------------------------------------------------------
STRT .F               15482.0 : START DEPTH
STOP .F               18784.0 : STOP DEPTH
STEP .F                   0.5 : STEP
NULL .               -9999.25 : NULL VALUE
COMP .                        : COMPANY
WELL .                        : WELL
FLD  .                        : FIELD
LOC  .                        : LOCATION
PROV .                        : PROVINCE
CNTY .                        : COUNTY
STAT .                        : STATE
CTRY .                        : COUNTRY
SRVC .                        : SERVICE COMPANY
DATE .                        : DATE
UWI  .                        : UNIQUE WELL ID
API  .                        : API NUMBER
SLAT .WGS84 5.602469417573602 : SURFACE LATITUDE
SLON .WGS84 3.050184767117898 : SURFACE LONGITUDE
DATUM.F                   nan : DEPTH DATUM ELEV
~Curve Information -----------------------------------------
DEPT   .F     : 1 MEASURED DEPTH
ILD    .OHMM  : INDUCTION DEEP RESISTIVITY
SPR    .MV    : SPONTANEOUS POTENTIAL FROM RESISTIVITY LOG
ILM    .OHMM  : INDUCTION MEDIUM RESISTIVITY
SFLU   .OHMM  : SHALLOW FOCUSED RESISTIVITY (UNAVERAGED)
NPOR_LS.DEC   : NEUTRON POROSITY LIMESTONE
DPHI_LS.DEC   : DENSITY POROSITY LIMESTONE
GRD    .GAPI  : GAMMA RAY FROM DENSITY LOG
DRHO   .G/C3  : BULK DENSITY CORRECTION
RHOB   .G/C3  : BULK DENSITY
CALD   .IN    : CALIPER FROM DENSITY LOG
DTCO   .US/F  : DELTA-T COMPRESSIONAL
DTMD   .US/F  : DELTA-T MUD
DTSM   .US/F  : DELTA-T SHEAR
~Params ----------------------------------------------------
~Other -----------------------------------------------------
~ASCII -----------------------------------------------------
# ...
 16158.00000   28.52420  -37.74840   20.35410   45.15810    0.06910    0.02510   34.63500   -0.01310    2.66860    6.80650   56.27420  215.82350  105.77460
 16158.50000   28.52560  -37.77390   21.17240   49.23530    0.06860    0.01790   33.49250   -0.01040    2.67910    6.80620   55.48970  215.85130  104.27430
 16159.00000   28.52710  -37.84610   22.32930   54.13280    0.06850    0.01160   32.63730   -0.00780    2.68860    6.80610   55.46880  215.89880  104.19330
 16159.50000   28.52850  -37.87560   23.19240   56.75350    0.06880    0.00720   32.60700   -0.00550    2.69460    6.80600   55.59050  215.94690  104.62620
 16160.00000   28.53000  -37.87380   22.46850   57.70540    0.06970    0.00300   32.64780   -0.00310    2.70220    6.83010   55.96160  215.99510  104.24020
 16160.50000   25.38450  -37.87200   21.18500   58.47720    0.07050    0.00690   31.87180   -0.00070    2.69720    6.83600   56.54660  216.04330  104.67480
 16161.00000   22.02990  -37.87030   19.97480   59.15080    0.07130    0.01540   31.90340   -0.00240    2.67710    6.83370   58.50440  216.09150  108.22740
 16161.50000   19.11860  -37.86850   19.68000   59.79990    0.07140    0.03220   34.11090   -0.01040    2.66140    6.83150   60.81510  216.13970  114.41040
 16162.00000   17.23110  -37.86670   19.43690   59.96740    0.07120    0.03210   39.85500   -0.01190    2.65350    6.82920   62.24090  216.18790  116.48780
 16162.50000   17.18740  -37.86500   19.10120   60.13540    0.07100    0.02810   44.56900   -0.01310    2.66030    6.82700   62.84650  216.23610  116.83170
 16163.00000   17.14390  -37.86320   17.16040   56.29110    0.07090    0.02420   44.69100   -0.00990    2.66610    6.82470   63.55490  216.28420  116.80700
 16163.50000   17.10050  -37.37930   15.41670   34.45480    0.07070    0.02300   43.84800   -0.00640    2.66910    6.82240   64.30290  216.33240  116.78080
 16164.00000   17.05720  -37.34520   13.85020   21.52320    0.07010    0.02250   43.24180   -0.00570    2.67000    6.82020   63.69350  216.38060  116.75470
 16164.50000   17.01400  -37.40920   12.24560   18.96280    0.06960    0.02170   43.64680   -0.00810    2.67080    6.82020   62.72880  216.42880  116.72850
 16165.00000   16.97100  -37.35370   11.34650   19.03210    0.07000    0.02260   44.34990   -0.00980    2.66910    6.82240   62.57650  216.47700  116.73900
 16165.50000   16.92800  -37.06050   10.86160   19.02930    0.07050    0.02730   44.15320   -0.01150    2.66340    6.82620   62.79440  216.52520  117.03650
 16166.00000   16.79380  -36.76730   10.31960   18.97470    0.07090    0.03310   42.18340   -0.01330    2.65050    6.83410   62.72750  216.75100  117.18460
 16166.50000   16.61850  -36.49220    9.87340   18.92090    0.07070    0.03870   40.11730   -0.01400    2.64400    6.84210   62.63250  216.91860  117.33260
 16167.00000   16.44500  -36.27280    9.83460   18.88650    0.06970    0.03870   38.98720   -0.01350    2.64340    6.95670   63.03100  216.82360  117.48070
 16167.50000   16.36880  -35.83140    9.79590   18.66450    0.06770    0.03680   39.64560   -0.01090    2.64480    7.11860   62.75880  216.72250  117.62870
 16168.00000   15.33430  -35.60710    9.75740   18.59310    0.06430    0.03440   41.49270   -0.00650    2.64950    7.28040   62.77760  216.62140  117.77680
 16168.50000   13.76430  -35.70430    9.71900   18.59320    0.06090    0.03360   43.07230   -0.00220    2.65040    7.44650   63.01860  216.52030  118.39170
 16169.00000   10.96110  -35.80830    9.68080   18.59330    0.05990    0.03890   43.34600   -0.00030    2.64490    7.52720   63.15110  216.41920  120.56540
 16169.50000    6.60650  -35.91230    9.64270   18.59340    0.06110    0.04690   43.32220    0.00070    2.62860    7.44570   63.68790  216.31810  122.73910
 16170.00000    4.43260  -36.01640    9.60480   18.55840    0.06770    0.05390   43.76110   -0.00480    2.62070    7.27160   64.29840  216.21700  124.91280
 16170.50000    4.44180  -36.12040    9.56700   18.50950    0.08180    0.05130   44.48940   -0.01020    2.62340    7.21720   65.18380  216.11590  127.15850
 16171.00000    4.45100  -36.22440    9.57790   18.15520    0.09690    0.04750   45.21760   -0.01180    2.62670    7.22190   67.21440  216.01480  129.57950
 16171.50000    4.45300  -36.32850    9.66310   16.64160    0.11020    0.04630   45.94590   -0.01380    2.62930    7.22670   69.13290  215.94250  130.82530
 16172.00000    4.45000  -36.43250    7.51200   10.14210    0.12340    0.04760   49.09820   -0.01640    2.62860    7.23150   69.61830  215.88930  129.46190
 16172.50000    4.44690  -36.53660    5.67320    6.54200    0.12970    0.05020   51.57490   -0.01880    2.62360    7.23630   68.14720  215.79410  128.09860
 16173.00000    4.44390  -36.64060    4.69300    5.99070    0.12420    0.05090   53.57220   -0.02200    2.62290    7.23460   67.40200  215.80000  127.72040
 16173.50000    4.44080  -36.74460    4.70960    5.88230    0.11750    0.05150   56.09670   -0.02530    2.62240    7.23020   67.78110  215.80360  127.77080
 16174.00000    4.43780  -36.67900    4.72640    5.87930    0.11540    0.05170   61.40300   -0.02540    2.62220    7.22850   68.12030  215.80720  129.09250
 16174.50000    4.45480  -36.51120    4.74310    5.89250    0.11570    0.04810   65.51600   -0.02220    2.62820    7.22750   68.74250  215.76020  130.56580
 16175.00000    4.48450  -36.64580    4.76000    5.90580    0.11700    0.04330   68.89410   -0.01740    2.63650    7.22660   69.69890  215.65570  132.85700
 16175.50000    4.51450  -36.78030    4.77690    5.91910    0.11830    0.04100   72.13370   -0.01420    2.63850    7.22570   70.61560  215.58490  135.14830
 16176.00000    4.54470  -36.91480    4.79390    5.93240    0.12000    0.04230   75.23940   -0.01520    2.63440    7.22620   71.17240  215.58330  136.37320
 16176.50000    4.57510  -37.06890    4.81090    5.94580    0.12140    0.04560   73.21580   -0.01680    2.63010    7.22990   71.44550  215.59710  136.39350
 16177.00000    4.59150  -37.21590    4.82800    5.95920    0.12180    0.04750   70.52970   -0.01830    2.62740    7.22980   71.04750  215.68650  136.52660
 16177.50000    4.59750  -37.32150    4.84510    5.97260    0.12360    0.04900   68.26840   -0.01950    2.62490    7.22940   71.19940  215.77590  136.59780
 16178.00000    4.59130  -37.55730    4.86230    5.98220    0.12540    0.04900   68.64070   -0.01910    2.62640    7.22900   71.94600  215.81460  138.60410
 16178.50000    4.58510  -37.78280    4.87960    5.98010    0.12620    0.04690   72.88970   -0.01810    2.63000    7.22840   73.71950  215.84250  140.81990
 16179.00000    4.57900  -38.00830    4.89690    5.97790    0.12570    0.04350   74.15490   -0.01720    2.63490    7.22700   74.00600  215.87040  141.52510
 16179.50000    4.57280  -38.13880    4.91430    5.98430    0.12500    0.04160   73.51030   -0.01670    2.63730    7.22570   74.13460  215.89830  141.65640
 16180.00000    4.56660  -38.11610    4.93180    5.98970    0.12640    0.04650   70.91590   -0.01990    2.62840    7.22630   74.73010  215.92630  141.81850
 16180.50000    4.56050  -38.09350    4.94930    5.99200    0.12990    0.05370   67.89030   -0.02150    2.61880    7.22770   75.51680  215.91970  141.85630
 16181.00000    4.55430  -38.05140    4.96680    5.99430    0.13360    0.05470   67.28240   -0.01970    2.61690    7.22910   75.55200  215.88480  140.92840
 16181.50000    4.54820  -38.00240    4.98450    5.99660    0.13850    0.05300   67.90070   -0.01730    2.61880    7.23050   75.21440  215.88900  137.33900
 16182.00000    4.54210  -37.95340    5.00220    5.99900    0.14340    0.05230   69.08190   -0.01650    2.61810    7.23130   74.50360  215.89240  136.59570
 16182.50000    4.53550  -37.94910    5.01990    6.00130    0.14450    0.05470   70.64760   -0.01880    2.61630    7.23180   73.79280  215.88640  136.46850
 16183.00000    4.52610  -38.05780    5.03780    6.00360    0.13480    0.05340   71.40870   -0.02110    2.62030    7.24740   73.11830  215.88030  136.48530
 16183.50000    4.53240  -38.22770    5.04320    6.00590    0.11980    0.04910   72.11630   -0.02020    2.62740    7.24530   72.95390  215.87430  136.44620
