~Version ---------------------------------------------------
VERS.   2.0 : CWLS log ASCII Standard -VERSION 2.0
WRAP.    NO : One line per depth step
DLM . SPACE : Column Data Section Delimiter
~Well ------------------------------------------------------
STRT .F               15482.0 : START DEPTH
STOP .F               18784.0 : STOP DEPTH
STEP .F                   0.5 : STEP
NULL .               -9999.25 : NULL VALUE
COMP .                        : COMPANY
WELL .                        : WELL
FLD  .                        : FIELD
LOC  .                        : LOCATION
PROV .                        : PROVINCE
CNTY .                        : COUNTY
STAT .                        : STATE
CTRY .                        : COUNTRY
SRVC .                        : SERVICE COMPANY
DATE .                        : DATE
UWI  .                        : UNIQUE WELL ID
API  .                        : API NUMBER
SLAT .WGS84 5.602469417573602 : SURFACE LATITUDE
SLON .WGS84 3.050184767117898 : SURFACE LONGITUDE
DATUM.F                   nan : DEPTH DATUM ELEV
~Curve Information -----------------------------------------
DEPT   .F     : 1 MEASURED DEPTH
ILD    .OHMM  : INDUCTION DEEP RESISTIVITY
SPR    .MV    : SPONTANEOUS POTENTIAL FROM RESISTIVITY LOG
ILM    .OHMM  : INDUCTION MEDIUM RESISTIVITY
SFLU   .OHMM  : SHALLOW FOCUSED RESISTIVITY (UNAVERAGED)
NPOR_LS.DEC   : NEUTRON POROSITY LIMESTONE
DPHI_LS.DEC   : DENSITY POROSITY LIMESTONE
GRD    .GAPI  : GAMMA RAY FROM DENSITY LOG
DRHO   .G/C3  : BULK DENSITY CORRECTION
RHOB   .G/C3  : BULK DENSITY
CALD   .IN    : CALIPER FROM DENSITY LOG
DTCO   .US/F  : DELTA-T COMPRESSIONAL
DTMD   .US/F  : DELTA-T MUD
DTSM   .US/F  : DELTA-T SHEAR
~Params ----------------------------------------------------
~Other -----------------------------------------------------
~ASCII -----------------------------------------------------
# ...
 18758.00000  103.52420  -41.87080   71.71630  151.39770    0.03870    0.01420   -9999.25    0.01720    2.67600    6.63840   -9999.25   -9999.25   -9999.25
 18758.50000   97.52130  -41.69580   63.17060  119.99390    0.03560    0.03480   -9999.25   -0.01030    2.64600    6.68910   -9999.25   -9999.25   -9999.25
 18759.00000   91.86640  -41.52080   76.75430   98.01510    0.03130    0.04660   -9999.25   -0.02780    2.62470    6.73980   -9999.25   -9999.25   -9999.25
 18759.50000   89.13120  -41.34580   82.78770   85.90430    0.02820    0.05040   -9999.25   -0.02950    2.62470    6.79050   -9999.25   -9999.25   -9999.25
 18760.00000   86.71760  -41.17080   67.81020   95.16070    0.02820    0.04110   -9999.25   -0.02360    2.63780    6.78270   -9999.25   -9999.25   -9999.25
 18760.50000   85.61750  -40.99580   55.54230  108.80990   -9999.25    0.03150   -9999.25   -0.01350    2.65540    6.76160   -9999.25   -9999.25   -9999.25
 18761.00000   85.16150  -40.82070   53.04450  110.75180   -9999.25    0.02560   -9999.25   -0.00400    2.66570    6.67780   -9999.25   -9999.25   -9999.25
 18761.50000   84.70800  -40.61730   51.94810  109.80850   -9999.25    0.02240   -9999.25    0.00550    2.66980    6.65360   -9999.25   -9999.25   -9999.25
 18762.00000   79.96600  -40.24570   49.09480  106.90070   -9999.25    0.02290   -9999.25    0.00690    2.66850    6.64080   -9999.25   -9999.25   -9999.25
 18762.50000   75.44270  -39.87400   47.30740  100.74630   -9999.25    0.02550   -9999.25    0.00390    2.66270    6.62800   -9999.25   -9999.25   -9999.25
 18763.00000   72.43280  -39.50230   47.83950   93.89880   -9999.25    0.03120   -9999.25   -0.00080    2.65350    6.61520   -9999.25   -9999.25   -9999.25
 18763.50000   72.43280  -39.15200   48.39560   87.54090   -9999.25    0.03670   -9999.25   -0.00540    2.64380    6.60130   -9999.25   -9999.25   -9999.25
 18764.00000   73.16820  -38.98190   48.51780   97.17710   -9999.25    0.04260   -9999.25   -0.00700    2.63260    6.58520   -9999.25   -9999.25   -9999.25
 18764.50000   74.37540  -38.81180   48.45510  127.65490   -9999.25    0.04850   -9999.25   -0.00530    2.62340    6.60120   -9999.25   -9999.25   -9999.25
 18765.00000   75.60260  -38.64170   48.39250  162.76210   -9999.25    0.05040   -9999.25    0.00240    2.62300    6.61730   -9999.25   -9999.25   -9999.25
 18765.50000   75.04830  -38.47160   48.32990  141.24040   -9999.25    0.04640   -9999.25    0.01120    2.63170    6.63330   -9999.25   -9999.25   -9999.25
 18766.00000   68.60420  -38.30150   47.16340   92.20550   -9999.25    0.04110   -9999.25    0.01900    2.64270    6.64940   -9999.25   -9999.25   -9999.25
 18766.50000   62.71350  -38.17830   45.13740   82.66740   -9999.25    0.03760   -9999.25    0.01980    2.64590    6.66550   -9999.25   -9999.25   -9999.25
 18767.00000   56.44980  -38.31820   39.08320   82.20190   -9999.25    0.03980   -9999.25    0.01440    2.64160    6.68220   -9999.25   -9999.25   -9999.25
 18767.50000   50.78960  -38.28180   32.88330   76.69790   -9999.25    0.04290   -9999.25    0.00990    2.63470    6.69940   -9999.25   -9999.25   -9999.25
 18768.00000   47.76530  -38.10890   28.78660   59.64480   -9999.25    0.04570   -9999.25    0.00680    2.62860    6.67960   -9999.25   -9999.25   -9999.25
 18768.50000   46.62780  -38.00130   28.80470   47.38560   -9999.25    0.04860   -9999.25    0.01900    2.62400    6.64670   -9999.25   -9999.25   -9999.25
 18769.00000   46.35870  -37.96210   28.82290   47.53460   -9999.25    0.05200   -9999.25    0.03140    2.61900    6.61380   -9999.25   -9999.25   -9999.25
 18769.50000   48.08660  -37.92290   28.84100   49.18620   -9999.25    0.05650   -9999.25    0.04380    2.61010    6.56580   -9999.25   -9999.25   -9999.25
 18770.00000   49.92120  -37.84730   29.05990   56.20010   -9999.25    0.05800   -9999.25    0.05990    2.60730    6.54030   -9999.25   -9999.25   -9999.25
 18770.50000   51.82570  -37.77820   31.30870   65.66780   -9999.25    0.04750   -9999.25    0.07830    2.63160    6.53820   -9999.25   -9999.25   -9999.25
 18771.00000   53.70110  -37.76430   34.56640   76.73040   -9999.25    0.03780   -9999.25    0.08760    2.64560    6.54460   -9999.25   -9999.25   -9999.25
 18771.50000   55.45550  -37.75040   41.23030   89.43320   -9999.25    0.03340   -9999.25    0.09670    2.65100    6.55060   -9999.25   -9999.25   -9999.25
 18772.00000   57.13460  -37.73650   45.06960   98.04740   -9999.25    0.03300   -9999.25    0.09150    2.65360    6.54880   -9999.25   -9999.25   -9999.25
 18772.50000   58.86460  -37.72960   47.85280  109.75620   -9999.25    0.02950   -9999.25    0.08250    2.65900    6.52520   -9999.25   -9999.25   -9999.25
 18773.00000   60.64690  -37.80930   50.03910  112.73150   -9999.25    0.02540   -9999.25    0.07590    2.66490    6.50150   -9999.25   -9999.25   -9999.25
 18773.50000   62.48320  -37.84940   52.21830  114.02790   -9999.25    0.02440   -9999.25    0.06920    2.66660    6.48100   -9999.25   -9999.25   -9999.25
 18774.00000   64.37510  -37.95220   55.70690  113.40590   -9999.25    0.02720   -9999.25    0.05780    2.65950    6.48010   -9999.25   -9999.25   -9999.25
 18774.50000   70.66050  -38.16290   61.00090  112.06680   -9999.25    0.03600   -9999.25    0.03950    2.64430    6.48680   -9999.25   -9999.25   -9999.25
 18775.00000   79.28480  -38.37360   66.79800  110.52960   -9999.25    0.04420   -9999.25    0.02180    2.63470    6.49360   -9999.25   -9999.25   -9999.25
 18775.50000   88.96160  -38.58430   73.14600  109.01350   -9999.25    0.04540   -9999.25    0.00880    2.63180    6.50030   -9999.25   -9999.25   -9999.25
 18776.00000   99.81960  -38.79490   75.01450  108.18160   -9999.25    0.04300   -9999.25   -0.00120    2.63440    6.53030   -9999.25   -9999.25   -9999.25
 18776.50000  110.42670  -39.00560   75.33550  117.83050   -9999.25    0.04010   -9999.25   -0.00710    2.63950    6.56240   -9999.25   -9999.25   -9999.25
 18777.00000  111.70410  -39.21630   73.68770  130.76460   -9999.25    0.04200   -9999.25   -0.00730    2.63370    6.55060   -9999.25   -9999.25   -9999.25
 18777.50000  112.99630  -39.41750   71.45770  145.11850   -9999.25    0.04530   -9999.25   -0.00420    2.62770    6.52480   -9999.25   -9999.25   -9999.25
 18778.00000  114.30340  -39.44130   69.56770  147.23620   -9999.25    0.04570   -9999.25    0.01180    2.62620    6.49410   -9999.25   -9999.25   -9999.25
 18778.50000  115.62560  -39.46520   66.84180  126.57990   -9999.25    0.03890   -9999.25    0.02600    2.64090    6.46330   -9999.25   -9999.25   -9999.25
 18779.00000  116.96320  -39.48900   64.22260  120.28370   -9999.25    0.03010   -9999.25    0.03190    2.65180    6.43750   -9999.25   -9999.25   -9999.25
 18779.50000  118.31620  -39.51280   63.12170  123.33250   -9999.25    0.03440   -9999.25    0.03150    2.65420    6.43230   -9999.25   -9999.25   -9999.25
 18780.00000  119.68480  -39.53660   63.60480  127.69690   -9999.25    0.04420   -9999.25    0.02390    2.64120    6.39660   -9999.25   -9999.25   -9999.25
 18780.50000   -9999.25   -9999.25   64.21640  132.21560   -9999.25   -9999.25   -9999.25   -9999.25   -9999.25   -9999.25   -9999.25   -9999.25   -9999.25
 18781.00000   -9999.25   -9999.25   65.95910  132.58580   -9999.25   -9999.25   -9999.25   -9999.25   -9999.25   -9999.25   -9999.25   -9999.25   -9999.25
 18781.50000   -9999.25   -9999.25   69.16940  131.79580   -9999.25   -9999.25   -9999.25   -9999.25   -9999.25   -9999.25   -9999.25   -9999.25   -9999.25
 18782.00000   -9999.25   -9999.25   72.87860  129.61320   -9999.25   -9999.25   -9999.25   -9999.25   -9999.25   -9999.25   -9999.25   -9999.25   -9999.25
 18782.50000   -9999.25   -9999.25   75.45230  127.46680   -9999.25   -9999.25   -9999.25   -9999.25   -9999.25   -9999.25   -9999.25   -9999.25   -9999.25
 18783.00000   -9999.25   -9999.25   77.26000  125.35590   -9999.25   -9999.25   -9999.25   -9999.25   -9999.25   -9999.25   -9999.25   -9999.25   -9999.25
 18783.50000   -9999.25   -9999.25   77.88570  123.27990   -9999.25   -9999.25   -9999.25   -9999.25   -9999.25   -9999.25   -9999.25   -9999.25   -9999.25
