~Version ---------------------------------------------------
VERS.   2.0 : CWLS log ASCII Standard -VERSION 2.0
WRAP.    NO : One line per depth step
DLM . SPACE : Column Data Section Delimiter
~Well ------------------------------------------------------
STRT .F               15482.0 : START DEPTH
STOP .F               18784.0 : STOP DEPTH
STEP .F                   0.5 : STEP
NULL .               -9999.25 : NULL VALUE
COMP .                        : COMPANY
WELL .                        : WELL
FLD  .                        : FIELD
LOC  .                        : LOCATION
PROV .                        : PROVINCE
CNTY .                        : COUNTY
STAT .                        : STATE
CTRY .                        : COUNTRY
SRVC .                        : SERVICE COMPANY
DATE .                        : DATE
UWI  .                        : UNIQUE WELL ID
API  .                        : API NUMBER
SLAT .WGS84 5.602469417573602 : SURFACE LATITUDE
SLON .WGS84 3.050184767117898 : SURFACE LONGITUDE
DATUM.F                   nan : DEPTH DATUM ELEV
~Curve Information -----------------------------------------
DEPT   .F     : 1 MEASURED DEPTH
ILD    .OHMM  : INDUCTION DEEP RESISTIVITY
SPR    .MV    : SPONTANEOUS POTENTIAL FROM RESISTIVITY LOG
ILM    .OHMM  : INDUCTION MEDIUM RESISTIVITY
SFLU   .OHMM  : SHALLOW FOCUSED RESISTIVITY (UNAVERAGED)
NPOR_LS.DEC   : NEUTRON POROSITY LIMESTONE
DPHI_LS.DEC   : DENSITY POROSITY LIMESTONE
GRD    .GAPI  : GAMMA RAY FROM DENSITY LOG
DRHO   .G/C3  : BULK DENSITY CORRECTION
RHOB   .G/C3  : BULK DENSITY
CALD   .IN    : CALIPER FROM DENSITY LOG
DTCO   .US/F  : DELTA-T COMPRESSIONAL
DTMD   .US/F  : DELTA-T MUD
DTSM   .US/F  : DELTA-T SHEAR
~Params ----------------------------------------------------
~Other -----------------------------------------------------
~ASCII -----------------------------------------------------
# ...
 17250.00000   48.76810  -32.36780   27.11140   56.07980    0.08010    0.07140  109.85600    0.00100    2.58930    8.00900   65.66530  216.15830  108.65200
 17250.50000   49.38010  -34.20650   28.23380   64.42490    0.08060    0.07370  120.92690    0.00050    2.58570    8.01280   65.85210  215.35330  108.93360
 17251.00000   49.80000  -35.85890   29.40260   66.76100    0.08070    0.07240  130.02490    0.00000    2.58760    8.01670   65.98080  201.68160  109.19580
 17251.50000   49.04690  -36.08150   29.12770   66.80320    0.08070    0.07060  136.88520   -0.00050    2.59090    8.01960   66.03320  193.83770  109.45800
 17252.00000   48.48630  -36.19110   28.82070   66.84530    0.08080    0.06890  142.91160   -0.00100    2.59440    8.02220   66.26860  192.22490  109.72010
 17252.50000   48.21240  -36.24040   28.51700   66.88750    0.08050    0.06710  147.17380   -0.00140    2.59790    8.02490   66.95090  210.79530  109.98230
 17253.00000   47.94020  -35.96400   28.11790   65.98770    0.07980    0.06590  153.40550   -0.00230    2.59790    8.02750   67.50790  215.49500  110.26100
 17253.50000   47.26600  -35.82780   27.57800   62.11450    0.07910    0.06580  157.06760   -0.00320    2.59580    8.03020   68.20180  216.14970  110.78880
 17254.00000   45.75780  -35.91910   27.04840   55.53630    0.07860    0.07250  160.14700   -0.00410    2.58920    8.03280   68.08250  216.60310  111.14600
 17254.50000   43.60770  -36.01040   26.63400   50.64010    0.07880    0.07850  155.82300   -0.00500    2.57720    8.03550   67.32630  216.66880  111.08140
 17255.00000   42.01890  -36.10180   26.99570   48.61190    0.07930    0.08360  151.35640   -0.00610    2.56620    8.03810   66.76540  216.65520  110.84900
 17255.50000   41.51480  -36.19310   27.99800   48.35830    0.07980    0.08570  150.94040   -0.00730    2.56340    8.04080   66.24020  216.64170  110.27950
 17256.00000   41.48640  -36.75400   29.03760   48.10600    0.08010    0.08300  143.08640   -0.00760    2.56640    8.04340   66.17030  215.88480  108.32370
 17256.50000   46.09950  -37.55660   30.11570   47.85500    0.07900    0.07800  134.05500   -0.00550    2.57550    8.04610   66.47670  215.10620  106.15740
 17257.00000   52.24220  -38.35920   30.29210   48.17520    0.07730    0.07310  124.97360   -0.00340    2.58400    8.04870   67.66630  215.38360  108.72930
 17257.50000   56.43350  -39.16180   30.29210   50.50820    0.07480    0.06880  120.28740   -0.00190    2.58920    8.05130   68.11590  210.83020  111.46470
 17258.00000   56.77310  -39.47650   30.29210   58.13260    0.07160    0.06320  123.00710   -0.00130    2.59940    8.05400   68.23280  199.71800  112.78090
 17258.50000   57.08140  -39.54430   30.27700   65.63110    0.06270    0.04750  124.83730   -0.00070    2.62860    8.05660   68.07580  204.79830  112.77960
 17259.00000   56.85510  -39.61220   29.79810   69.58460    0.05980    0.03280  117.98200   -0.00100    2.64620    8.05930   67.57060  214.32820  111.84020
 17259.50000   56.98230  -39.68000   29.32670   72.77780    0.06020    0.03660  105.89740   -0.00120    2.65330    8.06190   66.65710  217.28340  110.44710
 17260.00000   57.41170  -39.74780   28.86280   85.98900    0.06180    0.05070   82.50510   -0.00300    2.62300    8.06440   65.78800  216.17140  109.00260
 17260.50000   58.04600  -39.81570   28.40620  103.31980    0.07090    0.06640   79.58180   -0.00510    2.59830    8.06670   64.91880  215.86050  107.55810
 17261.00000   58.68730  -39.88350   27.95690  122.86970    0.08200    0.07210   83.24260   -0.00740    2.58640    8.06910   64.04960  216.10680  106.46750
 17261.50000   59.33560  -39.95130   27.10030  131.85670    0.09430    0.07280   89.21540   -0.00980    2.58430    8.07150   62.08210  216.38000  104.54530
 17262.00000   57.44020  -40.01920   25.90400  130.15830    0.09460    0.07270   90.12110   -0.01210    2.58450    8.07390   60.56970  218.94290  101.08550
 17262.50000   54.73810  -40.08700   24.76040  117.85120    0.08240    0.07110   91.02670   -0.01440    2.58780    8.07630   59.11740  228.75230   99.26810
 17263.00000   51.47720  -40.15480   23.74600  111.53570    0.07680    0.06900   92.10460   -0.01610    2.59130    8.07860   59.10080  236.15920   99.46440
 17263.50000   47.84860  -40.22270   23.25520  107.72030    0.07630    0.06820   94.82190   -0.01760    2.59350    8.08100   60.25790  230.96130  102.05270
 17264.00000   44.36350  -40.29050   22.77450  102.77140    0.07650    0.06920  100.66920   -0.01860    2.59230    8.08130   62.83420  222.52010  106.14950
 17264.50000   36.49610  -40.35830   22.30370   95.58610    0.07720    0.06950  110.18860   -0.01770    2.58980    8.07780   64.57560  216.15960  109.05970
 17265.00000   34.89020  -40.42620   21.84270   83.30900    0.07750    0.06730  116.58560   -0.01570    2.59380    8.07430   65.15450  215.96590  108.78430
 17265.50000   34.10210  -40.49400   20.82730   59.97490    0.07790    0.06470  116.70570   -0.01410    2.59770    8.07090   65.66160  215.83840  108.93260
 17266.00000   32.51550  -40.56180   19.33970   45.48950    0.08200    0.06340  111.39100   -0.01410    2.59990    8.06740   66.08040  215.99760  109.05960
 17266.50000   29.85070  -40.62970   17.49640   34.50260    0.09260    0.06330  106.96720   -0.01530    2.60140    8.07220   66.49930  216.15670  110.05720
 17267.00000   27.05330  -40.65580   16.07810   29.72620    0.09750    0.07280  108.12990   -0.01580    2.58570    8.10150   66.91820  216.31580  111.21320
 17267.50000   24.51810  -40.63400   19.19960   27.79100    0.10080    0.08730  111.25590   -0.01230    2.55940    8.10120   67.10420  216.47500  112.36930
 17268.00000   22.22050  -40.61220   26.75800   25.98180    0.10140    0.09250  116.18300   -0.00100    2.54270    8.15600   67.01520  216.77440  113.44130
 17268.50000   21.23190  -40.59040   32.74750   24.29040    0.09350    0.08590  116.24830    0.00800    2.55520    8.21080   66.71470  217.26950  112.20790
 17269.00000   21.06000  -40.56860   32.17160   23.48960    0.08310    0.07930  112.45650    0.00820    2.57290    8.26120   66.38680  216.85220  110.97450
 17269.50000   20.88950  -40.54680   28.38440   22.74330    0.07620    0.07380  104.17870    0.00270    2.58000    8.27210   66.27850  216.97800  110.23840
 17270.00000   20.28550  -40.52490   24.55320   22.02060    0.07750    0.07110   99.09210   -0.00020    2.58460    8.27080   66.24130  217.44360  110.35510
 17270.50000   19.63290  -40.50310   20.62500   21.33820    0.08150    0.06680  103.09980   -0.00220    2.58970    8.26420   66.20730  217.84100  110.66010
 17271.00000   19.46070  -40.48130   17.32530   21.53470    0.08360    0.06900  108.22270   -0.00430    2.58940    8.25560   66.17580  217.33170  110.96520
 17271.50000   19.63360  -40.45950   16.40200   21.81930    0.08560    0.07550  110.02550   -0.00950    2.58130    8.24690   66.17390  216.94810  111.22690
 17272.00000   20.45870  -40.43770   15.79550   23.56100    0.08590    0.08200  109.83740   -0.01470    2.56720    8.23820   66.17020  217.00470  111.28520
 17272.50000   21.10030  -40.41590   15.21140   25.44170    0.08580    0.08680  109.09420   -0.02000    2.55920    8.23410   66.28180  217.22680  111.34350
 17273.00000   21.10030  -40.39400   14.64890   26.42490    0.08620    0.08860  110.35410   -0.02030    2.55610    8.23510   66.95080  217.44900  111.56800
 17273.50000   21.03930  -40.37220   14.10720   25.52580    0.08670    0.08930  113.64220   -0.02030    2.55460    8.23600   67.81980  214.87820  111.67480
 17274.00000   20.89800  -40.35040   13.78230   23.31960    0.08740    0.08980  118.02040   -0.01810    2.55530    8.23700   67.98720  205.86560  111.70490
 17274.50000   20.75770  -40.32860   13.78050   21.41960    0.09130    0.08950  118.49580   -0.01550    2.55630    8.23800   68.06610  210.40830  111.47830
 17275.00000   20.61830  -40.30680   13.79090   21.36870    0.09510    0.08830  116.70630   -0.01330    2.55860    8.23900   66.44130  216.53620  111.05370
 17275.50000   20.47980  -40.28500   14.13750   21.21520    0.09860    0.08690  116.15170   -0.01180    2.56060    8.23270   66.57140  216.86200  111.52310
