~Version ---------------------------------------------------
VERS.   2.0 : CWLS log ASCII Standard -VERSION 2.0
WRAP.    NO : One line per depth step
DLM . SPACE : Column Data Section Delimiter
~Well ------------------------------------------------------
STRT .F               15482.0 : START DEPTH
STOP .F               18784.0 : STOP DEPTH
STEP .F                   0.5 : STEP
NULL .               -9999.25 : NULL VALUE
COMP .                        : COMPANY
WELL .                        : WELL
FLD  .                        : FIELD
LOC  .                        : LOCATION
PROV .                        : PROVINCE
CNTY .                        : COUNTY
STAT .                        : STATE
CTRY .                        : COUNTRY
SRVC .                        : SERVICE COMPANY
DATE .                        : DATE
UWI  .                        : UNIQUE WELL ID
API  .                        : API NUMBER
SLAT .WGS84 5.602469417573602 : SURFACE LATITUDE
SLON .WGS84 3.050184767117898 : SURFACE LONGITUDE
DATUM.F                   nan : DEPTH DATUM ELEV
~Curve Information -----------------------------------------
DEPT   .F     : 1 MEASURED DEPTH
ILD    .OHMM  : INDUCTION DEEP RESISTIVITY
SPR    .MV    : SPONTANEOUS POTENTIAL FROM RESISTIVITY LOG
ILM    .OHMM  : INDUCTION MEDIUM RESISTIVITY
SFLU   .OHMM  : SHALLOW FOCUSED RESISTIVITY (UNAVERAGED)
NPOR_LS.DEC   : NEUTRON POROSITY LIMESTONE
DPHI_LS.DEC   : DENSITY POROSITY LIMESTONE
GRD    .GAPI  : GAMMA RAY FROM DENSITY LOG
DRHO   .G/C3  : BULK DENSITY CORRECTION
RHOB   .G/C3  : BULK DENSITY
CALD   .IN    : CALIPER FROM DENSITY LOG
DTCO   .US/F  : DELTA-T COMPRESSIONAL
DTMD   .US/F  : DELTA-T MUD
DTSM   .US/F  : DELTA-T SHEAR
~Params ----------------------------------------------------
~Other -----------------------------------------------------
~ASCII -----------------------------------------------------
# ...
 17666.00000   60.98120  -49.22740   32.95870   71.92260    0.02150    0.01340   98.94740    0.03870    2.68580    6.99110   57.17610  221.62130   91.65540
 17666.50000  171.38170  -49.57590   32.76560   72.00960    0.02190    0.01280  104.25060    0.03300    2.68750    6.99500   57.13050  222.06070   91.21700
 17667.00000  376.86010  -50.48940   32.90270   72.09680    0.02540    0.01930  101.38050    0.01780    2.67930    6.98690   57.12820  222.64620   90.80610
 17667.50000  928.79190  -51.12430   33.04030   72.18410    0.03090    0.02660   99.51600    0.00400    2.66450    6.97120   57.12580  223.10640   90.28000
 17668.00000 1974.32760  -51.24740   33.17860   72.65040    0.03630    0.03400  107.97460   -0.00770    2.65020    6.95540   57.12350  222.77990   89.76400
 17668.50000 1975.21660  -51.36080   33.31740   74.10350    0.04100    0.04150  116.68990   -0.01290    2.63580    6.93970   57.12110  222.14860   89.52560
 17669.00000 1976.10600  -51.47420   33.45680   81.81100    0.04190    0.04850  122.25860   -0.01530    2.62450    6.92400   57.11880  221.51730   89.28720
 17669.50000 1976.99680  -51.58760   33.73120   99.52440    0.04180    0.05190  115.53170   -0.01810    2.61990    6.91530   57.11650  221.45840   89.04890
 17670.00000   -9999.25  -51.70100   44.60390  636.38120    0.04050    0.05150   99.56980   -0.02090    2.62050    6.91220   57.11410  221.76640   88.81050
 17670.50000   -9999.25  -51.67670   61.41090 1263.20420    0.03570    0.04990   85.65920   -0.02090    2.62370    6.90900   57.11180  222.32820   88.57210
 17671.00000   -9999.25  -51.39850   56.78950 1258.48290    0.03110    0.04790   76.38860   -0.02000    2.62770    6.90670   57.10950  222.69370   88.33380
 17671.50000   -9999.25  -51.36760   45.64280 1159.21920    0.02420    0.04470   66.66500   -0.01890    2.63140    6.90670   57.10710  222.70080   88.09540
 17672.00000   -9999.25  -51.35190   39.02930 1067.78580    0.01210    0.04460   55.50950   -0.01780    2.63110    6.90830   57.10480  222.72580   88.10010
 17672.50000   -9999.25  -51.35650   38.44390  983.56350    0.00150    0.04670   49.03650   -0.01590    2.62620    6.91000   57.10250  222.29670   88.09000
 17673.00000   -9999.25  -51.35930   37.86740  905.98430   -0.00180    0.05200   42.69280   -0.01520    2.62050    6.91180   57.10010  221.72210   88.08170
 17673.50000   -9999.25  -51.17760   37.29940  834.52470   -0.00500    0.05340   35.96310   -0.01450    2.61750    6.91290   57.09780  221.63070   88.09790
 17674.00000   -9999.25  -50.95480   36.74000  768.70100   -0.00540    0.05190   33.47010   -0.01380    2.61880    6.90770   57.09540  221.53940   88.11420
 17674.50000   -9999.25  -50.95160   36.18900  708.06920   -0.00520    0.05150   31.28870   -0.01340    2.62080    6.90260   57.09310  221.44800   88.13040
 17675.00000   -9999.25  -50.74960   35.64630  674.32960   -0.00460    0.05570   30.60470   -0.01290    2.61450    6.90030   57.09080  219.76610   88.44230
 17675.50000   -9999.25  -50.52810   35.11170  653.70920   -0.00400    0.05990   29.73880   -0.01270    2.60500    6.90070   57.08840  207.94630   88.86320
 17676.00000   -9999.25  -50.30650   34.58510  633.71950   -0.00330    0.06370   28.69430   -0.00900    2.59800    6.88370   57.08610  198.60950   89.28410
 17676.50000   -9999.25  -50.17600   34.25990  614.58080   -0.00270    0.06430   27.65260   -0.00290    2.59920    6.86300   57.08380  210.25610   89.70510
 17677.00000   -9999.25  -50.24590   34.13680  596.70400   -0.00170    0.06200   26.72740    0.00330    2.60270    6.85870   57.08140  220.03850   90.12600
 17677.50000   -9999.25  -50.31580   34.01410  579.34760   -0.00060    0.05960   25.50680    0.01070    2.60740    6.85730   57.07910  224.01570   90.56660
 17678.00000   -9999.25  -50.30610   33.82290  562.49570   -0.00060    0.05630   23.00790    0.01940    2.61310    6.85600   57.07680  235.91760   91.02870
 17678.50000   -9999.25  -50.25900   33.61640  546.13400   -0.00060    0.05290   20.93700    0.02760    2.62040    6.85550   57.07440  249.62680   91.49090
 17679.00000   -9999.25  -50.21180   33.41110  526.43550   -0.00140    0.04800   20.49430    0.02260    2.62750    6.85750   57.07210  239.29430   91.79950
 17679.50000   -9999.25  -50.19280   33.20710  505.98850   -0.00270    0.04260   22.50370    0.00950    2.63660    6.85950   57.06980  226.55100   91.32600
 17680.00000   -9999.25  -50.38640   33.00430  486.33600   -0.00400    0.03920   29.15750   -0.00200    2.64590    6.86020   57.06740  221.12180   89.74980
 17680.50000   -9999.25  -50.51970   32.80280  467.44670   -0.00520    0.03730   31.60070   -0.00840    2.64520    6.86060   57.06510  222.62290   88.89480
 17681.00000   -9999.25  -50.50500   32.60250  454.21510   -0.00650    0.03850   29.50610   -0.01470    2.64290    6.86100   57.05630  229.36860   88.86390
 17681.50000   -9999.25  -50.65300   32.40340  439.12060   -0.00780    0.04080   26.62120   -0.01710    2.64060    6.86210   57.02590  249.69950   88.75460
 17682.00000   -9999.25  -50.80550   32.20550  432.83770   -0.00910    0.04050   25.91160   -0.01410    2.64020    6.86210   57.01060  252.95420   88.62070
 17682.50000   -9999.25  -50.91760   32.04820  416.45870   -0.00990    0.03490   26.95010   -0.01140    2.64940    6.86170   57.00970  231.38330   88.92910
 17683.00000   -9999.25  -50.91760   31.90490  400.02600   -0.00990    0.02820   26.82770   -0.00880    2.66240    6.86110   57.00870  222.05610   88.79760
 17683.50000   -9999.25  -50.87840   31.76220  383.12090   -0.01020    0.02430   25.78010   -0.00620    2.66740    6.86060   57.00780  222.06070   88.08710
 17684.00000   -9999.25  -50.81520   31.56430  366.93010   -0.01060    0.02430   23.12760   -0.00370    2.66680    6.86020   57.00690  222.20680   87.37660
 17684.50000   -9999.25  -50.66130   31.35850  336.94580   -0.01100    0.02650   22.35910   -0.00370    2.66360    6.86010   57.00590  221.73780   86.66610
 17685.00000   -9999.25  -50.50730   31.15410  315.47510   -0.01130    0.03000   23.88070   -0.00570    2.65750    6.86030   57.04760  220.81930   86.36260
 17685.50000   -9999.25  -50.35330   30.95100  291.78640   -0.01170    0.03470   29.20210   -0.00790    2.64990    6.86050   57.09300  219.56250   86.44290
 17686.00000   -9999.25  -49.88910   30.74920  269.87640   -0.01170    0.03920   35.26480   -0.01010    2.64030    6.86550   57.12900  220.33810   86.58110
 17686.50000   -9999.25  -48.94100   30.54880  264.68480   -0.01110    0.04360   41.18630   -0.01170    2.63130    6.86970   57.12200  221.52190   86.75270
 17687.00000   -9999.25  -48.05880   30.34960  261.31930   -0.00970    0.05080   46.90140   -0.00980    2.62130    6.87110   57.03810  222.19330   87.05310
 17687.50000   -9999.25  -47.19770   30.15170  256.81110   -0.00840    0.05600   56.77900    0.00210    2.61280    6.87240   57.01460  222.86480   87.52210
 17688.00000   -9999.25  -46.33660   29.95520  245.99460   -0.00060    0.05960   68.92750    0.02850    2.60880    6.87380   57.00550  220.58520   90.47610
 17688.50000   -9999.25  -44.79110   29.76120  234.89340    0.01250    0.05780   77.69690    0.04530    2.60950    6.89440   56.98850  212.53280   93.11850
 17689.00000 1974.36880  -43.14430   29.58330  225.99560    0.02520    0.05400   85.95130    0.04490    2.61580    6.92040   56.99580  205.40520   96.96180
 17689.50000 1968.07920  -41.49760   29.40640  221.24380    0.03710    0.04970   89.44790    0.04180    2.62510    6.94630   57.00600  210.67270  101.52670
 17690.00000 1961.80980  -39.85080   29.23060  217.86040    0.04540    0.04920   92.03190    0.02910    2.62640    6.97120   57.00930  219.18970  101.36020
 17690.50000 1236.59830  -38.20400   29.05590  216.87050    0.04780    0.05180   91.77170    0.01090    2.62410    6.99550   56.93370  222.03790   95.87040
 17691.00000  289.58070  -36.55720   28.88220  216.89560    0.04710    0.05450   87.86820   -0.00470    2.61750    7.01980   56.55600  222.48370   92.89590
 17691.50000   66.48760  -35.40560   28.70960  216.92070    0.03890    0.05710   83.88900   -0.01170    2.61210    7.04530   55.55790  222.56080   92.85340
