~Version ---------------------------------------------------
VERS.   2.0 : CWLS log ASCII Standard -VERSION 2.0
WRAP.    NO : One line per depth step
DLM . SPACE : Column Data Section Delimiter
~Well ------------------------------------------------------
STRT .F               15482.0 : START DEPTH
STOP .F               18784.0 : STOP DEPTH
STEP .F                   0.5 : STEP
NULL .               -9999.25 : NULL VALUE
COMP .                        : COMPANY
WELL .                        : WELL
FLD  .                        : FIELD
LOC  .                        : LOCATION
PROV .                        : PROVINCE
CNTY .                        : COUNTY
STAT .                        : STATE
CTRY .                        : COUNTRY
SRVC .                        : SERVICE COMPANY
DATE .                        : DATE
UWI  .                        : UNIQUE WELL ID
API  .                        : API NUMBER
SLAT .WGS84 5.602469417573602 : SURFACE LATITUDE
SLON .WGS84 3.050184767117898 : SURFACE LONGITUDE
DATUM.F                   nan : DEPTH DATUM ELEV
~Curve Information -----------------------------------------
DEPT   .F     : 1 MEASURED DEPTH
ILD    .OHMM  : INDUCTION DEEP RESISTIVITY
SPR    .MV    : SPONTANEOUS POTENTIAL FROM RESISTIVITY LOG
ILM    .OHMM  : INDUCTION MEDIUM RESISTIVITY
SFLU   .OHMM  : SHALLOW FOCUSED RESISTIVITY (UNAVERAGED)
NPOR_LS.DEC   : NEUTRON POROSITY LIMESTONE
DPHI_LS.DEC   : DENSITY POROSITY LIMESTONE
GRD    .GAPI  : GAMMA RAY FROM DENSITY LOG
DRHO   .G/C3  : BULK DENSITY CORRECTION
RHOB   .G/C3  : BULK DENSITY
CALD   .IN    : CALIPER FROM DENSITY LOG
DTCO   .US/F  : DELTA-T COMPRESSIONAL
DTMD   .US/F  : DELTA-T MUD
DTSM   .US/F  : DELTA-T SHEAR
~Params ----------------------------------------------------
~Other -----------------------------------------------------
~ASCII -----------------------------------------------------
# ...
 17016.00000   12.13980  -27.98590    5.89580   11.89140    0.12420    0.15040   75.55570   -0.02090    2.45170    8.63790   71.14030  216.45540  121.72120
 17016.50000   11.70650  -28.13990    6.87480   11.45280    0.11480    0.15010   77.20500   -0.02050    2.45210    8.64120   76.02820  214.62140  123.33040
 17017.00000   11.70570  -28.28610    8.65430   11.09540    0.11930    0.15000   82.39690   -0.02000    2.45190    8.64440   78.50470  203.18410  123.60390
 17017.50000   13.26130  -28.37800   10.78730   10.80860    0.12530    0.15020   88.81680   -0.01960    2.45100    8.64760   77.61870  191.61740  123.29740
 17018.00000   14.63640  -28.20520   10.79210   10.41840    0.12620    0.15110   93.97750   -0.01910    2.45030    8.65080   75.82700  195.99270  123.49810
 17018.50000   16.15410  -27.96550    8.88990   10.04690    0.12300    0.15140   90.79500   -0.01870    2.44950    8.65270   75.09630  215.07440  123.85750
 17019.00000   17.56270  -27.92150    7.25330   10.05140    0.12190    0.14940   86.35070   -0.01830    2.45360    8.64140   74.97660  215.43590  124.16010
 17019.50000   18.99450  -27.87760    5.91800   11.47070    0.12310    0.14340   85.57210   -0.01790    2.46170    8.64080   75.56610  215.79750  124.41540
 17020.00000   20.44140  -27.83370    5.48780   16.83050    0.12490    0.12900   89.16920   -0.01140    2.48660    8.57150   75.33930  216.01420  124.54700
 17020.50000   21.53070  -27.74600    6.50910   21.94260    0.12660    0.11310   92.36620   -0.00240    2.51690    8.48340   74.95580  215.94980  124.68200
 17021.00000   22.67810  -27.56860    9.86820   23.39190    0.12790    0.10550   92.13860    0.00960    2.53000    8.42380   74.80650  215.81100  124.86040
 17021.50000   23.88660  -27.39130    8.78780   23.97890    0.12550    0.12620   92.06260    0.01790    2.50070    8.41750   74.06110  215.56370  125.97140
 17022.00000   24.36980  -27.21390    7.36690   24.16940    0.12240    0.15090   93.71980    0.02930    2.46290    8.49670   73.63570  215.31650  129.05940
 17022.50000   24.21430  -27.03660    6.92320   24.28920    0.12560    0.14650   96.52220    0.05440    2.46180    8.57600   74.98990  215.06920  134.12580
 17023.00000   24.05990  -26.85930    6.86610   23.98410    0.13720    0.10930   97.22060    0.07830    2.52080    8.64980   75.00340  215.05980  136.64020
 17023.50000   24.03610  -26.68190    6.80940   23.67630    0.15620    0.07170   95.40490    0.06170    2.57980    8.46420   71.81670  215.18630  137.63370
 17024.00000   24.05750  -26.50460    6.75320   22.97150    0.15920    0.04150   90.36010    0.02240    2.63230    8.22440   69.56160  215.31290  137.58890
 17024.50000   24.07890  -26.32720    6.69740   22.04050    0.13970    0.01680   86.36300    0.01060    2.67900    8.01590   69.05890  215.43950  136.85290
 17025.00000   24.10040  -26.14990    6.64220   21.51580    0.09600    0.00400   88.70500    0.02620    2.69730    7.97270   70.55500  215.56600  136.11690
 17025.50000   24.12190  -25.97250    6.58730   21.04820    0.07120   -0.00220   91.54270    0.05090    2.71430    7.97310   73.41280  215.67020  135.72800
 17026.00000   24.20450  -25.79520    6.53300   20.81740    0.05570   -0.00680   94.08530    0.06230    2.72170    7.97520   80.68210  215.35490  133.51730
 17026.50000   24.32260  -25.61790    6.46010   20.54970    0.04880   -0.00400   94.18200    0.06220    2.71650    7.97730   85.79210  214.91010  130.65720
 17027.00000   24.44120  -25.44050    6.48050   20.28540    0.05400    0.00070   90.72160    0.05820    2.70940    7.97940   82.76980  204.68510  130.95040
 17027.50000   24.53410  -25.26320    6.50090   20.02460    0.06190    0.00490   81.95720    0.05430    2.70190    7.98150   80.91710  191.90920  130.65890
 17028.00000   24.49730  -25.08580    6.51950   19.76700    0.06140    0.01080   66.68510    0.04820    2.69190    7.98360   80.73950  187.84920  130.52950
 17028.50000   24.50320  -24.90850    6.53820   19.68410    0.05780    0.01710   53.99440    0.04120    2.67890    7.98570   80.59320  213.90960  130.41900
 17029.00000   24.22670  -24.85400    6.55690   19.72900    0.05580    0.02220   45.95750    0.03420    2.67080    7.98780   80.44690  214.34820  130.41900
 17029.50000   23.94200  -24.82350    6.57560   19.77410    0.05460    0.02350   44.10530    0.03290    2.66760    7.98990   80.30060  214.78690  130.41900
 17030.00000   23.64360  -24.79310    6.59440   19.81920    0.05340    0.01750   42.86250    0.03930    2.67530    7.99230   79.77080  215.22560  128.91840
 17030.50000   23.11400  -24.76260    6.61330   19.86440    0.05220    0.01240   42.42050    0.04500    2.68440    7.99490   76.73700  215.66430  122.41650
 17031.00000   22.59630  -24.73220    6.62590   19.90980    0.05140    0.01560   42.85680    0.04400    2.68350    7.99760   72.70820  216.10290  116.35000
 17031.50000   19.81330  -24.70180    6.63460   19.95520    0.05050    0.02510   43.30300    0.03940    2.66660    8.00030   69.83060  216.37100  109.71630
 17032.00000   16.84010  -24.67130    6.64340   20.00070    0.05080    0.05190   44.47620    0.03080    2.63180    8.00290   75.36280  216.15770  117.37670
 17032.50000   14.31300  -24.64090    6.65220   20.04640    0.05840    0.07890   46.56590    0.02200    2.57600    8.00560   81.60550  215.96080  125.30830
 17033.00000   12.20040  -24.61040    6.66110   20.09210    0.06760    0.11220   50.96970    0.01390    2.51930    8.01840   83.30800  215.86100  132.29170
 17033.50000   12.02230  -24.58000    6.66990   20.13800    0.08040    0.13740   63.85990    0.01710    2.47540    8.03390   83.60000  215.76130  140.87860
 17034.00000   11.84680  -24.54960    6.67870   21.99520    0.09080    0.13330   83.99510    0.02130    2.48690    8.04940   83.41600  215.80200  141.28600
 17034.50000   11.67390  -24.51910    9.15170   20.23890    0.10420    0.11040   98.04120    0.02190    2.52950    8.06490   83.10070  215.89560  141.32100
 17035.00000   11.71700  -24.48870   12.68450   16.64820    0.11750    0.09120   96.91780    0.01110    2.55160    8.08040   82.61780  215.93580  139.48820
 17035.50000   11.78060  -24.45830   17.80430   12.37770    0.12680    0.09090   93.76550   -0.00090    2.55150    8.09640   81.11940  215.85870  135.15900
 17036.00000   11.84450  -24.42780   25.28830    8.71400    0.12580    0.10330   90.18210   -0.01060    2.53240    8.13460   79.51180  215.78170  128.90560
 17036.50000   11.90880  -24.39740   39.70830    8.73450    0.11990    0.11790   94.54470   -0.01780    2.50290    8.17610   77.93090  215.72580  127.67690
 17037.00000   11.97340  -24.36690   41.21670    8.75510    0.11410    0.12830   99.70780   -0.01300    2.49340    8.21940   77.31440  215.68250  127.75110
 17037.50000   12.03840  -24.33650   42.78960    8.77570    0.11250    0.12710  104.44390   -0.00850    2.49390    8.23200   76.80000  214.83650  127.27200
 17038.00000   12.10370  -24.30610   44.69230    8.79640    0.11220    0.12320  104.67570   -0.00540    2.50250    8.23180   75.68390  214.56050  126.72650
 17038.50000   12.16940  -24.27560   46.82870    8.86470    0.11400    0.11930  104.43360   -0.00770    2.50510    8.23000   73.90170  215.72330  125.19720
 17039.00000   12.23880  -24.24520   49.82660    8.96240    0.11670    0.12020  104.49420   -0.01000    2.49960    8.22910   71.77300  215.97480  122.10760
 17039.50000   12.38430  -24.21480   57.32630    9.06110    0.11940    0.12690  104.79930   -0.01160    2.49410    8.22820   72.61960  216.14490  121.95480
 17040.00000   12.53160  -24.18430   61.82360    9.16100    0.11890    0.12760  108.17170   -0.01230    2.49180    8.22730   75.37200  216.18180  122.93070
 17040.50000   12.63470  -24.15390   66.67380    9.23370    0.11630    0.12510  112.00810   -0.01050    2.49660    8.22780   75.20030  216.16760  123.62850
 17041.00000   12.62560  -24.17000   70.39970    9.29290    0.11370    0.12050  112.97830   -0.00830    2.50260    8.23030   74.93060  216.18070  123.53020
 17041.50000   12.61650  -24.19380   73.23130    9.35250    0.11110    0.11870  112.96920   -0.00510    2.50550    8.23270   74.26620  216.24900  126.45020
