~Version ---------------------------------------------------
VERS.   2.0 : CWLS log ASCII Standard -VERSION 2.0
WRAP.    NO : One line per depth step
DLM . SPACE : Column Data Section Delimiter
~Well ------------------------------------------------------
STRT .F               15482.0 : START DEPTH
STOP .F               18784.0 : STOP DEPTH
STEP .F                   0.5 : STEP
NULL .               -9999.25 : NULL VALUE
COMP .                        : COMPANY
WELL .                        : WELL
FLD  .                        : FIELD
LOC  .                        : LOCATION
PROV .                        : PROVINCE
CNTY .                        : COUNTY
STAT .                        : STATE
CTRY .                        : COUNTRY
SRVC .                        : SERVICE COMPANY
DATE .                        : DATE
UWI  .                        : UNIQUE WELL ID
API  .                        : API NUMBER
SLAT .WGS84 5.602469417573602 : SURFACE LATITUDE
SLON .WGS84 3.050184767117898 : SURFACE LONGITUDE
DATUM.F                   nan : DEPTH DATUM ELEV
~Curve Information -----------------------------------------
DEPT   .F     : 1 MEASURED DEPTH
ILD    .OHMM  : INDUCTION DEEP RESISTIVITY
SPR    .MV    : SPONTANEOUS POTENTIAL FROM RESISTIVITY LOG
ILM    .OHMM  : INDUCTION MEDIUM RESISTIVITY
SFLU   .OHMM  : SHALLOW FOCUSED RESISTIVITY (UNAVERAGED)
NPOR_LS.DEC   : NEUTRON POROSITY LIMESTONE
DPHI_LS.DEC   : DENSITY POROSITY LIMESTONE
GRD    .GAPI  : GAMMA RAY FROM DENSITY LOG
DRHO   .G/C3  : BULK DENSITY CORRECTION
RHOB   .G/C3  : BULK DENSITY
CALD   .IN    : CALIPER FROM DENSITY LOG
DTCO   .US/F  : DELTA-T COMPRESSIONAL
DTMD   .US/F  : DELTA-T MUD
DTSM   .US/F  : DELTA-T SHEAR
~Params ----------------------------------------------------
~Other -----------------------------------------------------
~ASCII -----------------------------------------------------
# ...
 17900.00000   62.03870  -40.16200   22.65850   99.20040    0.13800    0.14590  299.85530    0.01630    2.45980    7.62580   84.07920  221.86490  129.78240
 17900.50000   65.07270  -39.56500   24.36340   88.82230    0.13740    0.14220  299.85160    0.02150    2.46580    7.62870   84.22990  221.75840  136.80330
 17901.00000   65.03830  -38.96800   24.93930   86.74840    0.13530    0.13730  299.84790    0.01240    2.47210    7.63170   84.34130  221.67740  137.24780
 17901.50000   52.67190  -38.37090   24.50680   89.47580    0.13490    0.12880  299.84410    0.00280    2.48370    7.64160   84.80910  221.67980  137.03630
 17902.00000   36.14860  -37.77390   23.04840   92.71290    0.14420    0.10090  299.84040   -0.00750    2.53460    7.66270   85.11880  221.68230  137.07200
 17902.50000   22.35680  -37.17690   17.49260   94.88750    0.16730    0.06700  299.83660   -0.01380    2.58300    7.70730   85.35200  221.68470  137.30080
 17903.00000   13.82700  -36.57990   12.90250   83.28290    0.17140    0.04000  299.83290   -0.01660    2.63310    7.73730   85.28170  221.68710  137.43680
 17903.50000   12.71740  -35.98280    9.32220   58.37110    0.16170    0.01240  299.82920   -0.01730    2.67220    7.78330   85.15960  221.69500  137.31420
 17904.00000   12.70110  -35.18920    8.15560   30.22830    0.14670    0.00620  299.82540   -0.01230    2.69450    7.82940   85.67780  221.68760  136.63460
 17904.50000   12.90070  -34.20450    8.17430   15.65680    0.12820    0.01120  299.82170   -0.00480    2.69260    7.87460   86.46220  221.68020  135.92230
 17905.00000   13.60340  -33.83960    9.42160   18.10990    0.11040    0.01820  299.81790    0.00290    2.67700    7.91340   86.90070  221.67280  135.76180
 17905.50000   14.76430  -33.66220   10.34720   22.76410    0.09790    0.03590  299.81420    0.00140    2.65510    7.95150   87.05480  221.66540  136.72830
 17906.00000   15.86320  -33.49100   11.61480   36.17490    0.08580    0.05100  299.81040   -0.00210    2.62130    7.95150   87.06770  221.65800  138.21900
 17906.50000   15.11520  -33.41890   12.93990   48.24170    0.08580    0.05500  299.80670   -0.00400    2.61310    7.93670   87.06870  221.65060  138.00370
 17907.00000   14.68190  -33.41580   13.05790   54.96650    0.08660    0.04380  299.80300   -0.00400    2.62840    7.94530   87.06970  221.64320  137.50050
 17907.50000   14.12700  -33.57760   12.83910   60.63970    0.08790    0.02370  299.79920    0.00120    2.65810    7.95620   87.07060  221.63580  136.99730
 17908.00000   13.50330  -33.55420    9.84040   37.75610    0.08930    0.00810  299.79550    0.02490    2.69020    8.06280   87.07160  221.62840  136.49400
 17908.50000   11.71980  -33.11610    6.82180   19.95750    0.08950    0.00830  299.79170    0.05280    2.69710    8.16500   87.05630  221.62100  136.90480
 17909.00000   10.17200  -32.58630    6.30770   10.37380    0.08740    0.02060  299.78800    0.06660    2.67770    8.26060   86.93420  221.82090  137.58490
 17909.50000    8.82850  -32.05650    5.83230    8.49930    0.08470    0.03650  299.78420    0.07470    2.64580    8.39870   86.69460  222.22810  137.91540
 17910.00000    7.66250  -31.55890    5.86870    9.19060    0.08190    0.05810  299.78050    0.05500    2.61230    8.56580   82.54730  222.81790  133.53630
 17910.50000    7.33990  -31.38460    6.73430   10.76690    0.07910    0.07880  299.77680    0.00880    2.57560    8.91000   79.83910  222.74630  129.63340
 17911.00000    7.27100  -31.56150    7.72750   12.80250    0.07800    0.08140  299.77300   -0.00680    2.57010    8.99550   78.22480  222.24870  129.18650
 17911.50000    7.67320  -31.90590    8.86730   15.36660    0.07760    0.07870  299.76930   -0.01840    2.57610    9.01580   75.53490  221.77260  121.13720
 17912.00000    9.01030  -32.08980   10.17510   23.46070    0.07760    0.07570  299.76550   -0.02490    2.57630    9.02860   73.69470  221.57710  115.01040
 17912.50000   11.47540  -32.27380   12.03650   32.69570    0.07790    0.07630  299.76180   -0.02490    2.57550    9.02500   73.12670  221.58660  116.60470
 17913.00000   14.61490  -32.46780   14.94230   40.29910    0.07830    0.07580  276.33610   -0.01950    2.57990    9.02150   73.17670  222.31900  117.40220
 17913.50000   18.61330  -33.15810   18.54970   44.31040    0.07900    0.06670  158.55700   -0.01400    2.59690    9.01800   73.68850  222.83620  117.03410
 17914.00000   23.70560  -33.38810   23.02790   50.82940    0.07900    0.05640  131.35650   -0.00930    2.61420    9.01440   73.83610  223.20090  117.41860
 17914.50000   30.19100  -33.58440   23.05320   57.78650    0.07880    0.05270  119.95540   -0.00530    2.61960    8.96850   73.90530  223.29940  118.29400
 17915.00000   29.83660  -33.60360   22.21300   66.60900    0.07860    0.05240  120.56990   -0.00530    2.62000    8.88270   73.60430  222.82260  119.34260
 17915.50000   29.34070  -33.62280   21.40620   76.77840    0.07850    0.05240  121.80380   -0.00800    2.61910    8.80890   73.30900  222.30740  119.73600
 17916.00000   28.89550  -33.59840   20.61850   77.86640    0.08050    0.05220  122.18460   -0.01070    2.61810    8.76130   73.49520  221.92160  115.96390
 17916.50000   28.45700  -33.31000   17.20370   64.79650    0.08640    0.05450  122.09240   -0.01550    2.61540    8.75840   73.99680  221.73990  115.46570
 17917.00000   28.18410  -33.06930   16.03520   45.78570    0.09820    0.05830  124.37860   -0.01580    2.60850    8.76990   74.74920  221.99020  114.96750
 17917.50000   28.68420  -33.10120   17.10290   30.67410    0.11210    0.06140  127.08960   -0.01290    2.60390    8.78130   75.15430  222.32140  114.46940
 17918.00000   29.21370  -32.63140   19.07780   27.94360    0.12650    0.06540  129.15070   -0.00960    2.59470    8.81580   75.21620  222.51570  114.36840
 17918.50000   31.09350  -32.63740   24.53010   32.99880    0.14080    0.06920  124.31300   -0.00910    2.58990    8.84290   75.13990  222.63590  114.92660
 17919.00000   33.09430  -32.64340   25.14960   69.65270    0.15550    0.06970  124.59550   -0.01200    2.58990    8.85130   75.32330  222.66390  116.58150
 17919.50000   35.22390  -32.59810   25.50250  104.81440    0.15980    0.06850  128.35640   -0.01500    2.59280    8.97870   75.81340  222.52190  118.09020
 17920.00000   37.49040  -32.36530   25.51920  101.08790    0.16500    0.07210  134.02130   -0.01180    2.58240    9.11820   76.22350  222.38000  121.07170
 17920.50000   38.85770  -32.31680   23.59690   82.66580    0.17770    0.08980  129.56430   -0.00370    2.55610    9.25020   76.40410  222.23800  122.53560
 17921.00000   38.66730  -32.63610   21.35990   71.63840    0.17930    0.10390  123.25270    0.01920    2.53400    9.37050   76.74080  222.09610  122.73020
 17921.50000   34.96370  -33.31730   18.74180   69.08160    0.16740    0.10120  121.58590    0.05820    2.53240    9.56580   77.35570  221.91520  123.46330
 17922.00000   30.97060  -34.01950   15.94100   67.90350    0.15540    0.09980  122.87940    0.09890    2.53780    9.69150   78.27900  221.52390  124.94410
 17922.50000   28.44570  -34.72160   14.51160   59.01080    0.14990    0.10880  125.19820    0.12360    2.52590    9.76210   79.73250  205.95690  128.22920
 17923.00000   26.12670  -35.33460   14.36050   47.09090    0.14910    0.12330  126.25720    0.11100    2.50350    9.74720   80.50870  197.23400  131.11100
 17923.50000   24.04860  -35.61560   13.88530   38.01510    0.14780    0.13550  126.48870    0.09460    2.48060    9.69860   81.28480  208.46730  132.83280
 17924.00000   21.66900  -35.89650   13.27070   34.51300    0.14650    0.13710  125.68040    0.08560    2.47440    9.71000   82.02620  224.41760  134.17500
 17924.50000   20.46040  -36.22270   12.70680   34.07030    0.14500    0.13940  123.29340    0.08120    2.47140    9.72600   83.61980  230.62790  139.47360
 17925.00000   20.02940  -36.54890   14.07980   34.05940    0.14340    0.14620  119.33900    0.07150    2.46200    9.93430   84.15640  230.65790  144.16690
 17925.50000   20.76320  -36.87510   15.77080   34.60660    0.14170    0.15150  115.48220    0.05860    2.45080   10.03610   86.01810  230.68790  144.09190
