~Version ---------------------------------------------------
VERS.   2.0 : CWLS log ASCII Standard -VERSION 2.0
WRAP.    NO : One line per depth step
DLM . SPACE : Column Data Section Delimiter
~Well ------------------------------------------------------
STRT .F                 3425.0 : START DEPTH
STOP .F                12820.0 : STOP DEPTH
STEP .F                    0.5 : STEP
NULL .                -9999.25 : NULL VALUE
COMP .                         : COMPANY
WELL .                         : WELL
FLD  .                         : FIELD
LOC  .                         : LOCATION
PROV .                         : PROVINCE
CNTY .                         : COUNTY
STAT .                         : STATE
CTRY .                         : COUNTRY
SRVC .                         : SERVICE COMPANY
DATE .                         : DATE
UWI  .                         : UNIQUE WELL ID
API  .                         : API NUMBER
SLAT .WGS84    5.9335624534082 : SURFACE LATITUDE
SLON .WGS84 3.9753440296362186 : SURFACE LONGITUDE
DATUM.F                1734.37 : DEPTH DATUM ELEV
~Curve Information -----------------------------------------
DEPT.F     : 
DTCO.US/F  : COMPRESSIONAL-WAVE INTERVAL TRANSIT TIME ACOUSTIC SLOWNESS
DTSM.US/F  : SHEAR-WAVE INTERVAL TRANSIT TIME DELTA-T
GRR .GAPI  : GAMMA RAY FROM RESISTIVITY
SPR .MV    : SPONTANEOUS POTENTIAL FROM RES.
AFCO.MMHO  : 90-IN CONDUCTIVITY, 4-FT RESOLUTION
AT30.OHMM  : 30-IN. RESISTIVITY, 2-FT RESOLUTION
HCAL.IN    : HILT CALIPER
PEFZ.B/E   : HILT PHOTOELECTRIC FACTOR
HDRA.G/C3  : DELTA RHO HIP TOOL
RHOZ.G/C3  : HILT BULK DENSITY
NPHI.DEC   : NEUTRON POROSITY LIMESTONE
DPHI.DEC   : DENSITY POROSITY LIMESTONE
AT60.OHMM  : 60-IN. RESISTIVITY, 2-FT RESOLUTION
AT20.OHMM  : 20-IN. RESISTIVITY, 2-FT RESOLUTION
~Params ----------------------------------------------------
~Other -----------------------------------------------------
~ASCII -----------------------------------------------------
# ...
 8937.50000   -9999.25   -9999.25  124.81350  -78.73160  203.59650    4.94180    8.47760    4.27920    0.05350    2.63510    0.27660    0.03940    4.87130    4.88810
 8938.00000   -9999.25   -9999.25  124.37020  -78.73450  204.05730    4.94180    8.47760    4.33960    0.06100    2.64100    0.27580    0.04090    4.90450    4.88840
 8938.50000   -9999.25   -9999.25  126.17990  -78.73750  205.25890    4.94180    8.47760    4.38490    0.05360    2.63660    0.27840    0.04440    4.90410    4.88870
 8939.00000   -9999.25   -9999.25  127.55250  -78.74040  203.38250    4.94180    8.47760    4.43090    0.04610    2.63070    0.28020    0.04410    4.93750    4.88910
 8939.50000   -9999.25   -9999.25  126.55840  -78.74330  199.55770    4.94180    8.47760    4.46170    0.05210    2.63070    0.28140    0.04310    4.93710    4.92300
 8940.00000   -9999.25   -9999.25  123.94120  -78.74630  198.01880    4.97580    8.47760    4.47480    0.06100    2.63370    0.28260    0.04380    5.00490    4.99120
 8940.50000   -9999.25   -9999.25  123.27290  -78.74930  195.72020    5.01000    8.47760    4.48610    0.06400    2.63820    0.28260    0.04560    5.03890    5.06040
 8941.00000   -9999.25   -9999.25  126.18880  -78.75220  193.60280    5.04450    8.47760    4.47540    0.06420    2.63670    0.28020    0.04620    5.07320    5.06070
 8941.50000   -9999.25   -9999.25  127.76040  -78.75580  192.55710    5.04450    8.44780    4.35700    0.04460    2.62630    0.27360    0.05030    5.14790    5.06110
 8942.00000   -9999.25   -9999.25  128.88420  -78.75820  190.60520    5.22030    8.44780    4.11990    0.03120    2.62040    0.26410    0.05210    5.28520    5.23770
 8942.50000   -9999.25   -9999.25  127.99310  -78.76170  189.39390    5.36540    8.47760    3.91250    0.02230    2.62490    0.24440    0.05090    5.21300    5.31030
 8943.00000   -9999.25   -9999.25  126.43040  -78.76460  188.18500    5.14930    8.50750    3.79410    0.01330    2.63390    0.23430    0.04970    5.10660    5.16490
 8943.50000   -9999.25   -9999.25  125.98590  -78.46900  186.89800    5.18810    8.50750    3.76470    0.01490    2.64280    0.22770    0.04490    5.14140    5.16750
 8944.00000   -9999.25   -9999.25  126.88700  -78.47200  185.37800    5.36980    8.53730    3.73530    0.01950    2.64430    0.22350    0.04020    5.32010    5.23920
 8944.50000   -9999.25   -9999.25  127.78690  -78.47490  183.81290    5.51450    8.53730    3.76530    0.02380    2.63910    0.22350    0.04370    5.43010    5.31180
 8945.00000   -9999.25   -9999.25  124.65700  -78.47790  181.68590    5.51450    8.50750    3.76560    0.01250    2.62470    0.22410    0.04670    5.42980    5.38540
 8945.50000   -9999.25   -9999.25  121.97480  -78.48080  179.90680    5.51450    8.47760    3.76590   -0.00030    2.62200    0.22840    0.04970    5.42940    5.38580
 8946.00000   -9999.25   -9999.25  119.96430  -78.18450  178.69790    5.51450    8.47760    3.76620    0.00020    2.62570    0.24040    0.04670    5.42900    5.42320
 8946.50000   -9999.25   -9999.25  121.75980  -78.18820  177.96060    5.55240    8.47760    3.73680    0.00340    2.63470    0.25420    0.04600    5.42870    5.42350
 8947.00000   -9999.25   -9999.25  122.43580  -78.19110  177.21400    5.55240    8.47760    3.67770    0.00770    2.64320    0.25920    0.04220    5.46560    5.46120
 8947.50000   -9999.25   -9999.25  118.37850  -78.49250  177.21000    5.55240    8.47760    3.64840    0.00920    2.64590    0.25730    0.03950    5.50280    5.49910
 8948.00000   -9999.25   -9999.25  116.37510  -78.49550  176.83040    5.55240    8.47760    3.67830    0.01040    2.62080    0.24940    0.05170    5.57830    5.53720
 8948.50000   -9999.25   -9999.25  118.37320  -78.49850  176.45990    5.59060    8.47760    3.71080    0.00700    2.59640    0.24770    0.05650    5.57790    5.57560
 8949.00000   -9999.25   -9999.25  127.38000  -78.50210  176.45560    5.62900    8.47760    3.73830    0.00400    2.59530    0.24710    0.06070    5.57750    5.61430
 8949.50000   -9999.25   -9999.25  130.29480  -78.50500  176.45250    5.62900    8.47760    3.70480    0.00150    2.60470    0.24550    0.06270    5.57710    5.61470
 8950.00000   -9999.25   -9999.25  130.96980  -78.50750  176.44870    5.66780    8.47760    3.67950    0.00100    2.61870    0.24170    0.05960    5.57680    5.65370
 8950.50000   -9999.25   -9999.25  127.10280  -78.51040  176.44500    5.64490    8.47870    3.65010    0.00000    2.63070    0.23480    0.05120    5.57800    5.65370
 8951.00000   -9999.25   -9999.25  124.44020  -78.51340  176.44130    5.62830    8.50750    3.62070    0.00000    2.63270    0.23350    0.04640    5.57920    5.65370
 8951.50000   -9999.25   -9999.25  124.01550  -78.51640  176.43730    5.62780    8.50410    3.62110    0.00000    2.63270    0.24110    0.04490    5.58040    5.65370
 8952.00000   -9999.25   -9999.25  123.78720  -78.51950  176.43390    5.62740    8.47760    3.65100    0.00070    2.63610    0.24360    0.04340    5.58150    5.61510
 8952.50000   -9999.25   -9999.25  122.66340  -78.52240  176.51720    5.62710    8.47760    3.69020    0.00150    2.64670    0.24360    0.04030    5.58260    5.61510
 8953.00000   -9999.25   -9999.25  121.09190  -78.52540  177.91170    5.62670    8.47760    3.75070    0.00220    2.65070    0.24090    0.03640    5.58370    5.61510
 8953.50000   -9999.25   -9999.25  122.65460  -78.52840  178.17900    5.62630    8.47760    3.78150    0.00600    2.64550    0.23700    0.03830    5.54680    5.61510
 8954.00000   -9999.25   -9999.25  124.44120  -78.53130  179.39080    5.58750    8.47760    3.87160    0.01210    2.63720    0.24030    0.04120    5.51000    5.57680
 8954.50000   -9999.25   -9999.25  125.78010  -78.53490  180.13000    5.51110    8.47760    3.91960    0.01810    2.63740    0.24540    0.04140    5.47350    5.53870
 8955.00000   -9999.25   -9999.25  123.31300  -78.53780  180.86980    5.51070    8.47760    3.99260    0.02670    2.64580    0.24480    0.03880    5.43730    5.50090
 8955.50000   -9999.25   -9999.25  122.18920  -78.54080  180.86520    5.51030    8.44780    4.03890    0.03880    2.65160    0.24180    0.03530    5.40130    5.50090
 8956.00000   -9999.25   -9999.25  125.54300  -78.54370  180.86180    5.50990    8.44780    4.09850    0.05380    2.65080    0.23820    0.03470    5.43950    5.50090
 8956.50000   -9999.25   -9999.25  128.89680  -78.54660  180.85810    5.50960    8.44780    4.12850    0.06130    2.64930    0.23880    0.03410    5.40350    5.50090
 8957.00000   -9999.25   -9999.25  130.01180  -78.54960  180.85380    5.50920    8.44780    4.12880    0.06580    2.65080    0.24710    0.03400    5.40460    5.50090
 8957.50000   -9999.25   -9999.25  124.41040  -78.55250  181.11010    5.50880    8.41790    4.15880    0.06580    2.65090    0.25250    0.03640    5.40570    5.50090
 8958.00000   -9999.25   -9999.25  122.16720  -78.55550  181.58990    5.50850    8.41790    4.12940    0.06580    2.65540    0.25430    0.03280    5.40700    5.46340
 8958.50000   -9999.25   -9999.25  122.86960  -78.55840  182.77250    5.47050    8.41790    3.92200    0.06130    2.64940    0.25660    0.03640    5.37090    5.42610
 8959.00000   -9999.25   -9999.25  124.39720  -78.56130  183.23110    5.43270    8.41790    3.80360    0.05090    2.63750    0.25840    0.04590    5.29890    5.38910
 8959.50000   -9999.25   -9999.25  123.04840  -78.26570  184.55020    5.35830    8.41790    3.71490    0.01210    2.61970    0.26140    0.05030    5.26380    5.35230
 8960.00000   -9999.25   -9999.25  123.71560  -78.26870  185.63650    5.28500    8.38810    3.80420    0.00160    2.60780    0.26020    0.05730    5.26520    5.31580
 8960.50000   -9999.25   -9999.25  123.48730  -78.27160  187.58090    5.17710    8.38810    3.92320    0.00140    2.60780    0.25960    0.05580    5.23000    5.24350
 8961.00000   -9999.25   -9999.25  122.81130  -78.27460  188.99640    5.14140    8.35820    4.04220    0.04790    2.61520    0.25900    0.04630    5.15990    5.17210
 8961.50000   -9999.25   -9999.25  122.13520  -78.27760  189.98630    5.07110    8.38810    4.07210    0.05540    2.64360    0.25470    0.03820    5.09110    5.10180
