~Version ---------------------------------------------------
VERS.   2.0 : CWLS log ASCII Standard -VERSION 2.0
WRAP.    NO : One line per depth step
DLM . SPACE : Column Data Section Delimiter
~Well ------------------------------------------------------
STRT .F                 3425.0 : START DEPTH
STOP .F                12820.0 : STOP DEPTH
STEP .F                    0.5 : STEP
NULL .                -9999.25 : NULL VALUE
COMP .                         : COMPANY
WELL .                         : WELL
FLD  .                         : FIELD
LOC  .                         : LOCATION
PROV .                         : PROVINCE
CNTY .                         : COUNTY
STAT .                         : STATE
CTRY .                         : COUNTRY
SRVC .                         : SERVICE COMPANY
DATE .                         : DATE
UWI  .                         : UNIQUE WELL ID
API  .                         : API NUMBER
SLAT .WGS84    5.9335624534082 : SURFACE LATITUDE
SLON .WGS84 3.9753440296362186 : SURFACE LONGITUDE
DATUM.F                1734.37 : DEPTH DATUM ELEV
~Curve Information -----------------------------------------
DEPT.F     : 
DTCO.US/F  : COMPRESSIONAL-WAVE INTERVAL TRANSIT TIME ACOUSTIC SLOWNESS
DTSM.US/F  : SHEAR-WAVE INTERVAL TRANSIT TIME DELTA-T
GRR .GAPI  : GAMMA RAY FROM RESISTIVITY
SPR .MV    : SPONTANEOUS POTENTIAL FROM RES.
AFCO.MMHO  : 90-IN CONDUCTIVITY, 4-FT RESOLUTION
AT30.OHMM  : 30-IN. RESISTIVITY, 2-FT RESOLUTION
HCAL.IN    : HILT CALIPER
PEFZ.B/E   : HILT PHOTOELECTRIC FACTOR
HDRA.G/C3  : DELTA RHO HIP TOOL
RHOZ.G/C3  : HILT BULK DENSITY
NPHI.DEC   : NEUTRON POROSITY LIMESTONE
DPHI.DEC   : DENSITY POROSITY LIMESTONE
AT60.OHMM  : 60-IN. RESISTIVITY, 2-FT RESOLUTION
AT20.OHMM  : 20-IN. RESISTIVITY, 2-FT RESOLUTION
~Params ----------------------------------------------------
~Other -----------------------------------------------------
~ASCII -----------------------------------------------------
# ...
 6977.50000   -9999.25   -9999.25  111.79730  -58.76410  150.00000    6.41750   12.31110    4.04530    0.13840    2.51580    0.26680    0.11020    6.50030    5.93600
 6978.00000   -9999.25   -9999.25  111.14510  -59.04660  150.47400    6.24600   13.05910    4.10510    0.14870    2.52750    0.24470    0.10060    6.41180    5.89750
 6978.50000   -9999.25   -9999.25  110.48480  -59.32370  151.67370    6.24810   13.29420    4.13520    0.14380    2.53700    0.23690    0.10000    6.50030    5.94020
 6979.00000   -9999.25   -9999.25  110.27700  -59.60080  152.95560    6.38020   13.21740    4.10590    0.13660    2.54820    0.23160    0.09700    6.50030    5.98340
 6979.50000   -9999.25   -9999.25  111.19440  -59.57340  154.07440    6.51500   12.97190    4.04700    0.13730    2.55170    0.22740    0.09580    6.68100    5.98550
 6980.00000   -9999.25   -9999.25  114.79820  -59.55160  155.17560    6.60720   12.63890    4.07720    0.15150    2.53060    0.23220    0.09940    6.68100    5.90600
 6980.50000   -9999.25   -9999.25  114.52350  -59.52910  155.91100    6.29750   12.22140    4.16660    0.18300    2.54240    0.23990    0.10470    6.45590    5.74820
 6981.00000   -9999.25   -9999.25  110.35080  -59.50240  156.46550    6.21590   11.89350    4.19870    0.20340    2.59200    0.24830    0.09480    6.41180    5.63270
 6981.50000   -9999.25   -9999.25  109.69460  -59.18150  158.13100    6.21810   12.19250    4.22680    0.20710    2.62780    0.25360    0.07100    6.45590    5.59610
 6982.00000   -9999.25   -9999.25  109.93520  -59.15960  158.12360    6.30660   13.11830    4.16400    0.17860    2.63980    0.24390    0.04510    6.59000    5.63700
 6982.50000   -9999.25   -9999.25  111.29690  -58.83880  157.19130    6.39580   12.93960    4.03980    0.12650    2.62040    0.23900    0.04090    6.41180    5.87560
 6983.00000   -9999.25   -9999.25  114.67650  -58.81690  155.87430    6.35430   12.83620    3.91380    0.09280    2.60410    0.23360    0.06040    6.42080    6.08250
 6983.50000   -9999.25   -9999.25  120.29830  -58.19720  155.50640    6.31250   13.03000    3.76280    0.06000    2.61000    0.22820    0.05990    6.63530    6.12640
 6984.00000   -9999.25   -9999.25  121.88420  -57.87630  154.29180    6.44640   12.46330    3.66520    0.04610    2.61600    0.22550    0.05760    6.41180    5.92200
 6984.50000   -9999.25   -9999.25  120.77960  -57.25650  152.87290    6.71950   12.58320    3.66570    0.03410    2.61130    0.22500    0.06080    6.63530    5.96470
 6985.00000   -9999.25   -9999.25  116.31170  -57.53360  151.11670    6.63020   12.67310    3.69580    0.03120    2.58610    0.22570    0.06460    7.05750    6.21720
 6985.50000   -9999.25   -9999.25  112.65130  -58.10970  149.88070    6.63240   12.73330    3.73680    0.03720    2.58180    0.23310    0.06940    6.91390    6.26210
 6986.00000   -9999.25   -9999.25  110.51900  -58.68570  148.24520    6.63470   12.10210    3.78580    0.07160    2.59890    0.24050    0.07330    6.72690    5.93000
 6986.50000   -9999.25   -9999.25  111.65640  -59.55520  146.88760    7.45760   12.16040    3.81590    0.07610    2.60790    0.24460    0.06870    7.35370    6.35280
 6987.00000   -9999.25   -9999.25  114.13920  -60.13670  146.87940    7.30820   12.64510    3.83020    0.07760    2.61530    0.23830    0.05900    7.55810    6.80870
 6987.50000   -9999.25   -9999.25  118.63990  -60.10940  146.12810    6.87310   12.26110    3.86130    0.08060    2.61920    0.23420    0.05430    7.15490    6.70030
 6988.00000   -9999.25   -9999.25  124.26170  -59.78850  145.37600    6.50840   11.97970    3.87660    0.08510    2.61440    0.23090    0.05510    6.63530    6.13390
 6988.50000   -9999.25   -9999.25  126.52030  -59.16880  145.36720    6.78410   11.89430    3.87700    0.09710    2.61330    0.22300    0.05430    7.20410    6.02200
 6989.00000   -9999.25   -9999.25  124.29450  -59.14690  145.36110    7.41920   11.92120    3.84790    0.10900    2.61780    0.21500    0.05570    7.45520    6.63120
 6989.50000   -9999.25   -9999.25  117.80870  -59.42400  145.35340    7.17150   12.21730    3.81860    0.11650    2.61790    0.21460    0.05390    7.20410    6.58820
 6990.00000   -9999.25   -9999.25  116.70400  -59.40210  145.34620    6.88470   12.46860    3.81910    0.11810    2.61790    0.22200    0.05450    6.77320    6.36790
 6990.50000   -9999.25   -9999.25  116.27200  -59.67920  145.19860    6.84000   11.91130    3.78980    0.10910    2.61110    0.24040    0.07180    7.01580    6.37060
 6991.00000   -9999.25   -9999.25  121.00100  -59.65180  144.58590    7.09110   11.72320    3.73090    0.09570    2.59830    0.24340    0.07480    7.36050    6.46070
 6991.50000   -9999.25   -9999.25  121.69010  -59.93440  143.83470    7.38870   12.41030    3.67200    0.08980    2.58270    0.23450    0.08070    7.55810    6.55200
 6992.00000   -9999.25   -9999.25  121.03390  -60.21140  143.82730    7.48610   12.22920    3.61310    0.09330    2.56590    0.23430    0.08370    7.15490    6.69040
 6992.50000   -9999.25   -9999.25  118.80810  -60.18410  143.31710    7.23620   11.93200    3.64320    0.10380    2.56140    0.23690    0.08550    6.91390    6.87870
 6993.00000   -9999.25   -9999.25  118.37200  -60.46670  143.06770    7.09060   12.66700    3.70300    0.11100    2.56460    0.24450    0.08250    7.25360    6.92830
 6993.50000   -9999.25   -9999.25  117.49560  -60.43930  143.80460    7.24110   12.87080    3.73310    0.11230    2.57450    0.25690    0.08070    7.15490    6.74320
 6994.00000   -9999.25   -9999.25  114.82140  -60.41740  143.79750    7.19400   12.20650    3.76320    0.10770    2.58530    0.25720    0.06940    6.86660    6.47380
 6994.50000   -9999.25   -9999.25  112.12440  -60.39560  144.65500    7.00110   12.41310    3.76370    0.08800    2.59580    0.24160    0.06280    6.77320    6.38730
 6995.00000   -9999.25   -9999.25  113.06050  -60.37370  146.01540    7.10080   12.62250    3.76410    0.07420    2.60480    0.21060    0.05980    6.32460    6.65820
 6995.50000   -9999.25   -9999.25  115.90250  -60.94970  147.05510    7.30080   12.35420    3.79520    0.07210    2.57800    0.20290    0.07970    7.45520    6.56980
 6996.00000   -9999.25   -9999.25  122.73870  -61.52580  148.25530    7.15450   11.72780    3.85790    0.09140    2.55420    0.20350    0.08780    7.00930    6.26420
 6996.50000   -9999.25   -9999.25  121.63400  -62.39530  149.45510    6.86840   11.75810    3.94640    0.10330    2.56310    0.22310    0.08060    6.68100    5.97280
 6997.00000   -9999.25   -9999.25  120.08090  -62.37340  150.65480    6.50400   11.93770    3.97750    0.10650    2.59000    0.24880    0.07000    6.45590    5.85330
 6997.50000   -9999.25   -9999.25  116.50990  -61.45470  151.93550    6.32960   12.23660    4.03340    0.10580    2.59750    0.24040    0.06620    6.32460    5.85530
 6998.00000   -9999.25   -9999.25  115.40110  -60.23700  152.67310    6.33230   12.89380    3.95660    0.09990    2.60790    0.23260    0.06270    6.59000    5.90300
 6998.50000   -9999.25   -9999.25  116.31850  -59.91620  151.92110    6.42190   13.04350    3.77620    0.09770    2.61690    0.22550    0.05890    6.60230    6.20510
 6999.00000   -9999.25   -9999.25  116.55500  -59.89430  151.16790    6.83310   12.38720    3.70830    0.10100    2.61690    0.22070    0.05740    7.10600    6.32060
 6999.50000   -9999.25   -9999.25  116.35090  -59.57340  150.13540    7.22090   11.67120    3.90460    0.11270    2.60060    0.22430    0.07410    6.96140    6.19410
 7000.00000   -9999.25   -9999.25  115.91930  -59.25260  149.36350    6.88470   12.35820    4.01580    0.13210    2.58270    0.24280    0.07650    6.66060    6.06960
 7000.50000   -9999.25   -9999.25  118.38570  -59.11590  148.86680    6.29800   12.71990    4.03610    0.13810    2.58280    0.25710    0.07050    6.31770    6.06930
 7001.00000   -9999.25   -9999.25  119.95520  -58.97920  148.37010    6.34180   12.83670    4.02460    0.13660    2.59040    0.25950    0.07190    6.11230    6.41090
 7001.50000   -9999.25   -9999.25  119.50670  -58.84260  147.87340    6.65410   12.82770    3.96470    0.13070    2.59470    0.25310    0.07310    6.59150    6.86520
