~Version ---------------------------------------------------
VERS.   2.0 : CWLS log ASCII Standard -VERSION 2.0
WRAP.    NO : One line per depth step
DLM . SPACE : Column Data Section Delimiter
~Well ------------------------------------------------------
STRT .F                 3425.0 : START DEPTH
STOP .F                12820.0 : STOP DEPTH
STEP .F                    0.5 : STEP
NULL .                -9999.25 : NULL VALUE
COMP .                         : COMPANY
WELL .                         : WELL
FLD  .                         : FIELD
LOC  .                         : LOCATION
PROV .                         : PROVINCE
CNTY .                         : COUNTY
STAT .                         : STATE
CTRY .                         : COUNTRY
SRVC .                         : SERVICE COMPANY
DATE .                         : DATE
UWI  .                         : UNIQUE WELL ID
API  .                         : API NUMBER
SLAT .WGS84    5.9335624534082 : SURFACE LATITUDE
SLON .WGS84 3.9753440296362186 : SURFACE LONGITUDE
DATUM.F                1734.37 : DEPTH DATUM ELEV
~Curve Information -----------------------------------------
DEPT.F     : 
DTCO.US/F  : COMPRESSIONAL-WAVE INTERVAL TRANSIT TIME ACOUSTIC SLOWNESS
DTSM.US/F  : SHEAR-WAVE INTERVAL TRANSIT TIME DELTA-T
GRR .GAPI  : GAMMA RAY FROM RESISTIVITY
SPR .MV    : SPONTANEOUS POTENTIAL FROM RES.
AFCO.MMHO  : 90-IN CONDUCTIVITY, 4-FT RESOLUTION
AT30.OHMM  : 30-IN. RESISTIVITY, 2-FT RESOLUTION
HCAL.IN    : HILT CALIPER
PEFZ.B/E   : HILT PHOTOELECTRIC FACTOR
HDRA.G/C3  : DELTA RHO HIP TOOL
RHOZ.G/C3  : HILT BULK DENSITY
NPHI.DEC   : NEUTRON POROSITY LIMESTONE
DPHI.DEC   : DENSITY POROSITY LIMESTONE
AT60.OHMM  : 60-IN. RESISTIVITY, 2-FT RESOLUTION
AT20.OHMM  : 20-IN. RESISTIVITY, 2-FT RESOLUTION
~Params ----------------------------------------------------
~Other -----------------------------------------------------
~ASCII -----------------------------------------------------
# ...
 9329.50000   -9999.25   -9999.25   96.30930  -92.83580   79.78140   13.00380    8.44990    3.75640   -0.00160    2.65920    0.14690    0.02420   13.32340   11.85920
 9330.00000   -9999.25   -9999.25   86.23910  -92.83580   68.72180   19.08960    8.45090    3.66770   -0.00530    2.66120    0.12840    0.02600   19.28720   17.64440
 9330.50000   -9999.25   -9999.25   84.22750  -93.13430   60.26790   19.62200    8.45190    3.57900   -0.00760    2.66360    0.12420    0.02420   17.64680   19.82540
 9331.00000   -9999.25   -9999.25   85.35240  -93.43280   55.74470   16.64900    8.45290    3.43090   -0.00980    2.66510    0.12000    0.02480   16.03490   16.53380
 9331.50000   -9999.25   -9999.25   84.68520  -93.73130   52.31980   16.62450    8.45400    3.31250   -0.00980    2.65150    0.11340    0.03260   17.14350   17.05790
 9332.00000   -9999.25   -9999.25   79.98810  -93.73130   50.88520   19.25250    8.45500    3.22380   -0.00890    2.63100    0.10390    0.03850   20.46980   19.43080
 9332.50000   -9999.25   -9999.25   75.49720  -93.73130   50.05660   21.71990    8.45600    3.22400   -0.00670    2.63090    0.08960    0.04270   22.13380   22.59310
 9333.00000   -9999.25   -9999.25   72.83280  -93.43280   55.23430   24.84790    8.45710    3.34300   -0.00520    2.64300    0.08240    0.03550   22.90790   25.04060
 9333.50000   -9999.25   -9999.25   73.56890  -93.43280   62.55690   23.30930    8.45810    3.43270   -0.00370    2.65430    0.08310    0.02830   22.13980   24.36730
 9334.00000   -9999.25   -9999.25   80.70070  -93.43280   75.25940   15.45310    8.45910    3.49320   -0.00220    2.66670    0.09890    0.02410   17.59660   17.54340
 9334.50000   -9999.25   -9999.25   95.01130  -93.43280   85.03410   10.60190    8.46020    3.52200   -0.00220    2.67260    0.12190    0.02230   10.86400   13.25070
 9335.00000   -9999.25   -9999.25  108.00080  -93.43280   95.76660    9.37280    8.46120    3.52230   -0.00070    2.67320    0.15190    0.02120    9.28210    9.47490
 9335.50000   -9999.25   -9999.25  115.61710  -93.73130  107.89150    9.30980    8.46220    3.52260   -0.00060    2.66370    0.18510    0.02760    9.21850    9.34690
 9336.00000   -9999.25   -9999.25  116.74090  -93.73130  116.14190    9.24740    8.46330    3.55250   -0.00060    2.65330    0.19300    0.03130    9.22130    9.28440
 9336.50000   -9999.25   -9999.25  116.74540  -93.73130  120.71160    8.99890    8.46430    3.59380   -0.00210    2.65480    0.19960    0.02880    9.14570    9.22260
 9337.00000   -9999.25   -9999.25  116.07810  -93.73130  126.41870    8.40400    8.46540    3.67180   -0.00210    2.66670    0.20250    0.01970    8.40690    8.91340
 9337.50000   -9999.25   -9999.25  115.85760  -93.73130  129.79740    7.42970    8.46640    3.70930   -0.00210    2.68760    0.20610    0.01380    7.40990    8.04440
 9338.00000   -9999.25   -9999.25  115.86310  -93.73130  132.31700    7.08270    8.46750    3.79930   -0.00200    2.69360    0.21200    0.00740    7.06380    7.11240
 9338.50000   -9999.25   -9999.25  117.21080  -93.73130  134.18260    7.23080    8.47240    3.85990   -0.00050    2.69510    0.21750    0.01360    7.21170    7.26740
 9339.00000   -9999.25   -9999.25  118.11070  -93.73130  135.36820    7.48630    8.49940    3.92040   -0.00050    2.67420    0.21880    0.02240    7.41290    7.51520
 9339.50000   -9999.25   -9999.25  116.54800  -93.73130  135.97700    7.75260    8.50570    3.94040   -0.00050    2.66230    0.22000    0.02650    7.56780    7.61990
 9340.00000   -9999.25   -9999.25  116.07430  -94.02990  135.95840    7.69420    8.53130    3.97030   -0.00050    2.65780    0.21850    0.02680    7.62060    7.51720
 9340.50000   -9999.25   -9999.25  116.33290  -94.02990  135.93980    7.38490    8.53240    3.94090   -0.00360    2.65930    0.21670    0.02440    7.31480    7.41600
 9341.00000   -9999.25   -9999.25  116.33730  -93.73130  134.96370    7.48810    8.53340    3.89800   -0.00510    2.66230    0.21640    0.02470    7.41690    7.31590
 9341.50000   -9999.25   -9999.25  116.34170  -93.73130  130.42610    7.48910    8.56430    3.83800   -0.00660    2.66680    0.21520    0.02410    7.46890    7.46900
 9342.00000   -9999.25   -9999.25  114.91770  -93.43280  106.90800    7.64570    8.53540    3.79350   -0.00780    2.66980    0.19910    0.02410    7.73010    7.62500
 9342.50000   -9999.25   -9999.25  109.04280  -92.83580   87.83370    9.07570    8.53660    3.73160   -0.00630    2.66970    0.17880    0.02830    8.56750    8.68570
 9343.00000   -9999.25   -9999.25   97.10240  -91.94030   63.23670   11.69660    8.52750    3.62380   -0.00590    2.66170    0.16870    0.03360   11.22060   12.40250
 9343.50000   -9999.25   -9999.25   77.40530  -91.04480   38.50010   32.03450    8.49800    3.43830   -0.00440    2.65130    0.14300    0.03660   18.02730   27.63910
 9344.00000   -9999.25   -9999.25   66.88730  -89.85070   30.40640   47.02650    8.47980    3.37920   -0.00330    2.64400    0.08940    0.03240   46.93180   49.81320
 9344.50000   -9999.25   -9999.25   58.38430  -88.35820   25.83570   57.37340    8.45120    3.43890   -0.00170    2.66940    0.05840    0.01690   57.13370   60.34960
 9345.00000   -9999.25   -9999.25   53.68720  -86.86570   22.84550   62.29930    8.45220    3.52820   -0.00170    2.69390    0.03630    0.00680   62.89070   69.21690
 9345.50000   -9999.25   -9999.25   50.33340  -85.03230   24.63120   64.03930    8.45330    3.58790   -0.00170    2.71860    0.03450   -0.00040   51.21840   70.66310
 9346.00000   -9999.25   -9999.25   52.57660  -82.94480   33.20790   39.62640    8.46870    3.58820   -0.00170    2.72350    0.03390   -0.00220   37.89910   43.86080
 9346.50000   -9999.25   -9999.25   67.35720  -80.89550   52.16890   25.92070    8.48520    3.55880   -0.00100    2.68970    0.04750    0.00210   19.24260   25.13350
 9347.00000   -9999.25   -9999.25   87.28690  -80.00000   76.17370   13.80290    8.48630    3.55910   -0.00010    2.66540    0.07130    0.02960   12.33140   14.23880
 9347.50000   -9999.25   -9999.25  101.61970  -79.10450   99.27250    9.15080    8.48730    3.58900   -0.00160    2.64990    0.10180    0.03190    8.75740    9.25060
 9348.00000   -9999.25   -9999.25  116.62410  -78.80600  109.03720    7.71100    8.51820    3.64870   -0.00160    2.64900    0.14880    0.03100    7.58540    7.84970
 9348.50000   -9999.25   -9999.25  117.97180  -78.80600  120.04050    7.35060    8.54930    3.67860   -0.00010    2.65810    0.21590    0.02560    7.28100    7.28110
 9349.00000   -9999.25   -9999.25  117.52840  -78.80600  127.85250    7.20220    8.55030    3.70860   -0.00150    2.67380    0.23360    0.02090    7.13390    7.28210
 9349.50000   -9999.25   -9999.25  117.30900  -78.80600  134.90720    7.15370    8.55140    3.64960   -0.00150    2.68620    0.22310    0.01910    7.13140    7.38350
 9350.00000   -9999.25   -9999.25  117.98510  -78.77660  139.29970    7.26300    8.55240    3.59050   -0.00300    2.69300    0.21600    0.01560    7.33400    7.48610
 9350.50000   -9999.25   -9999.25  122.43990  -78.59760  141.10750    7.32110    8.55340    3.65110   -0.00590    2.69140    0.20390    0.01300    7.33650    7.41430
 9351.00000   -9999.25   -9999.25  126.49250  -78.41870  142.23710    7.20930    8.55450    3.74300   -0.00740    2.67450    0.20230    0.01690    7.23950    7.35260
 9351.50000   -9999.25   -9999.25  129.17910  -78.20900  142.21420    7.01610    8.55550    3.82880   -0.00890    2.65990    0.20450    0.02640    6.94980    7.29090
 9352.00000   -9999.25   -9999.25  124.25370  -78.20900  141.96170    7.06730    8.52670    3.82910   -0.00740    2.66840    0.20960    0.02990    6.85750    7.22420
 9352.50000   -9999.25   -9999.25  118.37420  -78.20900  141.43690    7.16730    8.52770    3.82490   -0.00590    2.68040    0.21330    0.02110    7.00660    7.32190
 9353.00000   -9999.25   -9999.25  115.93280  -78.20900  140.25860    7.26860    8.52880    3.76490   -0.00430    2.68930    0.21620    0.01460    7.00510    7.47080
 9353.50000   -9999.25   -9999.25  115.74630  -78.20900  139.77630    7.37140    8.52980    3.73470   -0.00130    2.67290    0.21680    0.01680    7.16050    7.57130
