~Version ---------------------------------------------------
VERS.   2.0 : CWLS log ASCII Standard -VERSION 2.0
WRAP.    NO : One line per depth step
DLM . SPACE : Column Data Section Delimiter
~Well ------------------------------------------------------
STRT .F                 3425.0 : START DEPTH
STOP .F                12820.0 : STOP DEPTH
STEP .F                    0.5 : STEP
NULL .                -9999.25 : NULL VALUE
COMP .                         : COMPANY
WELL .                         : WELL
FLD  .                         : FIELD
LOC  .                         : LOCATION
PROV .                         : PROVINCE
CNTY .                         : COUNTY
STAT .                         : STATE
CTRY .                         : COUNTRY
SRVC .                         : SERVICE COMPANY
DATE .                         : DATE
UWI  .                         : UNIQUE WELL ID
API  .                         : API NUMBER
SLAT .WGS84    5.9335624534082 : SURFACE LATITUDE
SLON .WGS84 3.9753440296362186 : SURFACE LONGITUDE
DATUM.F                1734.37 : DEPTH DATUM ELEV
~Curve Information -----------------------------------------
DEPT.F     : 
DTCO.US/F  : COMPRESSIONAL-WAVE INTERVAL TRANSIT TIME ACOUSTIC SLOWNESS
DTSM.US/F  : SHEAR-WAVE INTERVAL TRANSIT TIME DELTA-T
GRR .GAPI  : GAMMA RAY FROM RESISTIVITY
SPR .MV    : SPONTANEOUS POTENTIAL FROM RES.
AFCO.MMHO  : 90-IN CONDUCTIVITY, 4-FT RESOLUTION
AT30.OHMM  : 30-IN. RESISTIVITY, 2-FT RESOLUTION
HCAL.IN    : HILT CALIPER
PEFZ.B/E   : HILT PHOTOELECTRIC FACTOR
HDRA.G/C3  : DELTA RHO HIP TOOL
RHOZ.G/C3  : HILT BULK DENSITY
NPHI.DEC   : NEUTRON POROSITY LIMESTONE
DPHI.DEC   : DENSITY POROSITY LIMESTONE
AT60.OHMM  : 60-IN. RESISTIVITY, 2-FT RESOLUTION
AT20.OHMM  : 20-IN. RESISTIVITY, 2-FT RESOLUTION
~Params ----------------------------------------------------
~Other -----------------------------------------------------
~ASCII -----------------------------------------------------
# ...
 10855.50000   -9999.25   -9999.25   72.78610  -91.87570   71.73850   14.41870    9.73340    4.28340   -0.00200    2.68320    0.05760    0.02050   13.33720   14.27170
 10856.00000   -9999.25   -9999.25   75.02710  -91.86840   71.70880   14.70500    9.73450    4.22490   -0.00200    2.68620    0.05770    0.01980   13.71030   14.67000
 10856.50000   -9999.25   -9999.25   76.37260  -92.16120   71.67460   14.80680    9.76550    4.16650   -0.00190    2.68620    0.05770    0.01860   14.00610   14.77280
 10857.00000   -9999.25   -9999.25   75.70310  -92.45370   72.68330   14.50680    9.76670    4.10800   -0.00190    2.68180    0.05840    0.01740   13.43700   14.57380
 10857.50000   -9999.25   -9999.25   71.67550  -92.74630   73.86740   14.01910    9.76790    4.07920   -0.00190    2.68180    0.05960    0.01740   13.07160   14.26860
 10858.00000   -9999.25   -9999.25   70.11050  -93.03890   75.05220   13.54770    9.79880    4.07990   -0.00190    2.68030    0.06220    0.02050   12.54250   13.69530
 10858.50000   -9999.25   -9999.25   70.33660  -93.33150   76.02320   13.09230    9.77020    4.08060   -0.00190    2.68030    0.06380    0.02210   12.04980   12.97790
 10859.00000   -9999.25   -9999.25   70.11490  -93.62270   75.98690   13.00350    9.77140    4.08140   -0.00180    2.68180    0.06410    0.02070   11.80780   12.80270
 10859.50000   -9999.25   -9999.25   69.65520  -93.91530   75.95840   13.18410    9.77260    4.11270   -0.00180    2.68020    0.06210    0.01960   12.56090   12.98140
 10860.00000   -9999.25   -9999.25   69.44770  -93.90950   75.92870   14.02380    9.77380    4.17360   -0.00030    2.67270    0.05960    0.02270   13.27090   13.90340
 10860.50000   -9999.25   -9999.25   74.59970  -94.20360   75.89600   14.17100    9.74510    4.23430   -0.00030    2.66670    0.06250    0.02810   13.00370   14.29090
 10861.00000   -9999.25   -9999.25   77.96010  -94.49620   75.86920   12.56910    9.74640    4.26550   -0.00030    2.66380    0.06730    0.02870   11.81730   12.54950
 10861.50000   -9999.25   -9999.25   75.27570  -94.78880   75.83950   12.48410    9.74760    4.29210   -0.00020    2.65910    0.06720    0.03100   12.23140   13.16750
 10862.00000   -9999.25   -9999.25   73.03910  -94.78150   75.80510   13.40620    9.74880    4.22840   -0.00020    2.65210    0.06110    0.03410   13.10100   13.91090
 10862.50000   -9999.25   -9999.25   72.14520  -94.77560   74.48170   14.35150    9.72000    4.16910   -0.00020    2.65540    0.05680    0.03450   13.46750   14.29910
 10863.00000   -9999.25   -9999.25   73.04350  -94.76980   72.76910   14.82030    9.72140    4.14640   -0.00170    2.66210    0.05550    0.03110   13.47030   14.69820
 10863.50000   -9999.25   -9999.25   75.28450  -94.76390   72.00600   13.93480    9.72260    4.21420   -0.00230    2.66710    0.05610    0.02800   13.28960   14.81250
 10864.00000   -9999.25   -9999.25   75.51060  -94.75800   71.97620   13.65190    9.72380    4.26630   -0.00310    2.66220    0.05730    0.02900   13.29240   13.72900
 10864.50000   -9999.25   -9999.25   75.51280  -94.75210   71.94500   14.72210    9.72500    4.30610   -0.00540    2.66810    0.05840    0.02650   13.57780   13.54410
 10865.00000   -9999.25   -9999.25   75.51500  -94.74630   72.65980   14.32490    9.75600    4.36690   -0.00690    2.68260    0.05960    0.02100   14.24030   14.40700
 10865.50000   -9999.25   -9999.25   75.96500  -95.05780   72.63000   13.37700    9.75710    4.38680   -0.00900    2.68650    0.06020    0.01620   13.13570   13.22740
 10866.00000   -9999.25   -9999.25   76.41850  -95.36960   71.85410   12.75110    9.75830    4.34590   -0.00900    2.66860    0.06130    0.02220   12.00510   12.65280
 10866.50000   -9999.25   -9999.25   76.64100  -95.62420   69.66550   15.55590    9.74320    4.25710   -0.00890    2.65250    0.05950    0.02990   13.58270   15.43490
 10867.00000   -9999.25   -9999.25   72.76570  -95.61680   66.39790   16.47320    9.73100    4.27070   -0.00890    2.65520    0.05240    0.03410   14.85030   16.53060
 10867.50000   -9999.25   -9999.25   70.82510  -95.61100   62.84790   15.55800    9.73240    4.25690   -0.00890    2.66420    0.04820    0.03050   14.25540   15.43910
 10868.00000   -9999.25   -9999.25   69.03620  -95.60510   61.54380   15.55900    9.70380    4.19770   -0.00740    2.67100    0.04640    0.02560   14.45490   15.87000
 10868.50000   -9999.25   -9999.25   68.14290  -95.59920   59.82160   15.67220    9.70500    4.17080   -0.00590    2.67550    0.04510    0.02200   15.37690   16.76590
 10869.00000   -9999.25   -9999.25   67.24950  -95.59330   59.79200   16.11680    9.70610    4.23160   -0.00580    2.67850    0.04450    0.01960   15.80710   17.23380
 10869.50000   -9999.25   -9999.25   66.35620  -95.58750   59.76230   16.78090    9.67760    4.30410   -0.00580    2.68210    0.04390    0.01840   15.59440   16.88510
 10870.00000   -9999.25   -9999.25   65.01520  -95.28310   59.73070   17.36700    9.67870    4.36400   -0.00580    2.67920    0.04390    0.02330   16.25260   17.23840
 10870.50000   -9999.25   -9999.25   63.67410  -95.27720   59.70280   17.85090    9.67990    4.42390   -0.00430    2.66880    0.04510    0.02850   16.36760   17.84130
 10871.00000   -9999.25   -9999.25   65.46730  -95.27130   59.67310   16.89970    9.65130    4.36550   -0.00430    2.66790    0.04640    0.02570   15.81980   17.60100
 10871.50000   -9999.25   -9999.25   67.48440  -95.26550   59.63980   16.44360    9.65250    4.24790   -0.00420    2.67330    0.04810    0.02030   15.28960   16.43730
 10872.00000   -9999.25   -9999.25   69.50150  -95.25960   59.61370   16.55810    9.65370    4.15990   -0.00420    2.68070    0.04930    0.01580   15.08550   16.44050
 10872.50000   -9999.25   -9999.25   70.84700  -94.95520   59.58400   16.55920    9.65480    4.10140   -0.00420    2.68290    0.05060    0.02000   15.19230   16.55570
 10873.00000   -9999.25   -9999.25   69.70300  -94.65070   59.54890   16.44690    9.65600    4.07250   -0.00420    2.67630    0.05220    0.01690   15.51150   16.55840
 10873.50000   -9999.25   -9999.25   67.46840  -94.64480   59.78090   16.67530    9.65720    4.04370   -0.00420    2.68820    0.05260    0.01290   16.05500   16.44710
 10874.00000   -9999.25   -9999.25   66.82380  -94.33910   61.72330   16.90650    9.65840    4.04440   -0.00400    2.69710    0.05200    0.01070   16.16860   16.79130
 10874.50000   -9999.25   -9999.25   68.84150  -94.03480   64.09310   16.67750    9.65950    4.04520   -0.00260    2.70160    0.05200    0.00960   15.84300   17.02460
 10875.00000   -9999.25   -9999.25   70.85860  -93.73040   67.42020   16.33930    9.69050    4.07550   -0.00240    2.69570    0.05130    0.01010   15.00150   16.45370
 10875.50000   -9999.25   -9999.25   72.20350  -93.72450   70.54770   15.87530    9.69170    4.07620   -0.00110    2.68680    0.05130    0.01510   14.49950   16.01180
 10876.00000   -9999.25   -9999.25   69.07190  -93.42010   72.03440   14.60150    9.69290    4.10650   -0.00070    2.68080    0.05420    0.01850   13.72930   14.65000
 10876.50000   -9999.25   -9999.25   69.52190  -93.41420   73.46490   13.21490    9.69400    4.10720    0.00080    2.67640    0.06110    0.02030   12.73570   13.58890
 10877.00000   -9999.25   -9999.25   71.31510  -93.40840   74.17150   12.34050    9.69520    4.13760    0.00280    2.68090    0.06770    0.01840   12.05920   12.51850
 10877.50000   -9999.25   -9999.25   72.66060  -93.10400   74.14560   12.68430    9.66660    4.16790    0.00690    2.68540    0.07030    0.01300   12.39660   12.18190
 10878.00000   -9999.25   -9999.25   72.21500  -93.09810   74.07090   13.96250    9.66790    4.20080    0.00790    2.69160    0.06370    0.01000   13.64660   13.97190
 10878.50000   -9999.25   -9999.25   71.76950  -92.79370   73.33770   15.26450    9.66900    4.26150    0.00390    2.69740    0.05590    0.00700   14.31960   15.27480
 10879.00000   -9999.25   -9999.25   71.77170  -92.48940   72.81660   14.75130    9.67020    4.28850   -0.00150    2.70320    0.05350    0.00620   13.36300   14.85120
