~Version ---------------------------------------------------
VERS.   2.0 : CWLS log ASCII Standard -VERSION 2.0
WRAP.    NO : One line per depth step
DLM . SPACE : Column Data Section Delimiter
~Well ------------------------------------------------------
STRT .F                 3425.0 : START DEPTH
STOP .F                12820.0 : STOP DEPTH
STEP .F                    0.5 : STEP
NULL .                -9999.25 : NULL VALUE
COMP .                         : COMPANY
WELL .                         : WELL
FLD  .                         : FIELD
LOC  .                         : LOCATION
PROV .                         : PROVINCE
CNTY .                         : COUNTY
STAT .                         : STATE
CTRY .                         : COUNTRY
SRVC .                         : SERVICE COMPANY
DATE .                         : DATE
UWI  .                         : UNIQUE WELL ID
API  .                         : API NUMBER
SLAT .WGS84    5.9335624534082 : SURFACE LATITUDE
SLON .WGS84 3.9753440296362186 : SURFACE LONGITUDE
DATUM.F                1734.37 : DEPTH DATUM ELEV
~Curve Information -----------------------------------------
DEPT.F     : 
DTCO.US/F  : COMPRESSIONAL-WAVE INTERVAL TRANSIT TIME ACOUSTIC SLOWNESS
DTSM.US/F  : SHEAR-WAVE INTERVAL TRANSIT TIME DELTA-T
GRR .GAPI  : GAMMA RAY FROM RESISTIVITY
SPR .MV    : SPONTANEOUS POTENTIAL FROM RES.
AFCO.MMHO  : 90-IN CONDUCTIVITY, 4-FT RESOLUTION
AT30.OHMM  : 30-IN. RESISTIVITY, 2-FT RESOLUTION
HCAL.IN    : HILT CALIPER
PEFZ.B/E   : HILT PHOTOELECTRIC FACTOR
HDRA.G/C3  : DELTA RHO HIP TOOL
RHOZ.G/C3  : HILT BULK DENSITY
NPHI.DEC   : NEUTRON POROSITY LIMESTONE
DPHI.DEC   : DENSITY POROSITY LIMESTONE
AT60.OHMM  : 60-IN. RESISTIVITY, 2-FT RESOLUTION
AT20.OHMM  : 20-IN. RESISTIVITY, 2-FT RESOLUTION
~Params ----------------------------------------------------
~Other -----------------------------------------------------
~ASCII -----------------------------------------------------
# ...
 7369.50000   -9999.25   -9999.25  116.50530  -55.00270  146.94330    6.92180   10.01450    4.25760    0.17700    2.52550    0.30600    0.09800    6.85630    6.17930
 7370.00000   -9999.25   -9999.25  114.94040  -55.30750  145.56730    6.78180   10.05870    4.28800    0.18900    2.52470    0.31300    0.10940    6.76410    6.22140
 7370.50000   -9999.25   -9999.25  112.03210  -55.61230  144.49350    6.64460    9.95650    4.31840    0.20240    2.53260    0.31880    0.10190    6.62710    6.43780
 7371.00000   -9999.25   -9999.25  110.68570  -55.91720  142.52340    6.60010    9.66000    4.34880    0.20540    2.53370    0.31660    0.10450    6.53780    6.34970
 7371.50000   -9999.25   -9999.25  111.66100  -56.22200  141.79080    6.60090   10.09720    4.40890    0.20690    2.52410    0.31400    0.10760    6.62910    5.76840
 7372.00000   -9999.25   -9999.25  115.17360  -56.82580  141.02750    6.73910   10.00350    4.52830    0.20990    2.50220    0.30920    0.10640    6.90830    6.09310
 7372.50000   -9999.25   -9999.25  116.74290  -56.83160  140.26320    7.26810    9.21410    4.58840    0.21440    2.48100    0.29350    0.12300    7.24870    6.48030
 7373.00000   -9999.25   -9999.25  115.62570  -57.13650  141.37790    6.74090    9.31920    4.64840    0.22050    2.46000    0.28000    0.13790    6.95770    6.65990
 7373.50000   -9999.25   -9999.25  112.26970  -56.84340  142.66860    6.11930    9.55840    4.79750    0.23120    2.45490    0.27950    0.14390    6.45330    6.24900
 7374.00000   -9999.25   -9999.25  109.80920  -56.55010  144.67330    6.83750    9.46930    4.91700    0.24000    2.46410    0.28640    0.13880    6.91200    5.92680
 7374.50000   -9999.25   -9999.25  107.79650  -56.25710  145.96760    6.73560    8.86430    4.94740    0.24460    2.48770    0.29340    0.12340    6.96430    6.26020
 7375.00000   -9999.25   -9999.25  108.91810  -55.66520  147.61730    6.33360    9.47020    4.82940    0.24590    2.53990    0.29370    0.11020    6.50030    6.30300
 7375.50000   -9999.25   -9999.25  112.05460  -55.37210  148.06010    6.21250    9.73930    4.38500    0.23780    2.55340    0.29310    0.09270    6.23930    6.13200
 7376.00000   -9999.25   -9999.25  115.86280  -55.37820  149.24830    6.51910    9.91880    4.29670    0.21470    2.55630    0.29430    0.08790    6.59910    6.00680
 7376.50000   -9999.25   -9999.25  116.57760  -55.38530  149.79520    6.56470   10.00880    4.35690    0.20380    2.54830    0.29790    0.09210    6.63800    5.92470
 7377.00000   -9999.25   -9999.25  114.07610  -55.39120  149.77660    6.30110    9.53170    4.41960    0.20120    2.53250    0.31270    0.10460    6.28500    5.92430
 7377.50000   -9999.25   -9999.25  110.45330  -55.69600  149.83220    5.92470    9.80080    4.60270    0.20470    2.41930    0.30800    0.16600    6.11560    6.08850
 7378.00000   -9999.25   -9999.25  107.81190  -55.70190  150.48400    6.13220    9.14450    4.84160    0.20720    2.43720    0.29900    0.15830    6.20110    6.30030
 7378.50000   -9999.25   -9999.25  111.62060  -55.70770  149.72080    6.65910    8.90610    4.98290    0.20720    2.46700    0.29230    0.13620    6.50670    6.25690
 7379.00000   -9999.25   -9999.25  114.08550  -55.41320  149.70170    6.84500    9.56420    4.97510    0.20150    2.49240    0.29100    0.12190    7.01700    6.12910
 7379.50000   -9999.25   -9999.25  114.75930  -55.12010  149.68350    6.48070    9.95480    4.74090    0.18790    2.49690    0.29130    0.13200    6.64360    5.96090
 7380.00000   -9999.25   -9999.25  114.98480  -55.12790  149.66490    6.26310   10.04180    4.54000    0.17740    2.48790    0.29250    0.14750    6.29000    5.84130
 7380.50000   -9999.25   -9999.25  113.86820  -55.43230  149.64430    6.35150    9.79560    4.63660    0.18640    2.45220    0.29400    0.15350    6.28570    6.04440
 7381.00000   -9999.25   -9999.25  112.52710  -55.73710  150.37230    6.62210    8.94070    4.69750    0.23120    2.44480    0.29580    0.15050    6.55580    6.00270
 7381.50000   -9999.25   -9999.25  111.63320  -56.04190  150.35370    6.61160    8.69980    4.72030    0.24620    2.45070    0.32040    0.14680    6.64720    5.84000
 7382.00000   -9999.25   -9999.25  113.42700  -56.04780  150.33140    6.39690    9.03120    4.69320    0.25000    2.49400    0.32250    0.11810    6.24020    5.76020
 7382.50000   -9999.25   -9999.25  115.22020  -56.05380  151.06450    6.26730    9.63280    4.47370    0.25000    2.52530    0.32100    0.09620    6.38130    6.16830
 7383.00000   -9999.25   -9999.25  116.11790  -56.35870  151.78610    7.09190    9.68630    4.26330    0.24180    2.54920    0.30480    0.08970    6.97690    6.21040
 7383.50000   -9999.25   -9999.25  114.52810  -56.06540  151.76840    6.57750    9.70400    4.02320    0.21340    2.55820    0.28800    0.09020    6.60550    6.12530
 7384.00000   -9999.25   -9999.25  109.03820  -55.17590  151.74980    5.89470    9.84470    3.88050    0.15080    2.55960    0.28170    0.10400    6.00210    5.75860
 7384.50000   -9999.25   -9999.25  106.27380  -55.18180  152.47330    5.73580   10.09840    3.89120    0.11650    2.53970    0.28870    0.13240    5.64360    5.36600
 7385.00000   -9999.25   -9999.25  104.93320  -55.18760  152.45720    6.31490   10.46860    4.07070    0.11800    2.51080    0.29570    0.14320    6.60820    6.25130
 7385.50000   -9999.25   -9999.25  102.69660  -55.19350  153.18340    6.90470    9.89600    4.41700    0.12700    2.44130    0.29840    0.16350    6.88630    6.33710
 7386.00000   -9999.25   -9999.25  101.13110  -55.79730  153.64130    6.71870    9.08550    4.67000    0.18670    2.40900    0.29140    0.17240    6.38730    5.74950
 7386.50000   -9999.25   -9999.25  103.59650  -56.10210  154.63810    6.23140    9.34420    4.77430    0.22700    2.40770    0.28400    0.16740    6.00610    5.83160
 7387.00000   -9999.25   -9999.25  105.16590  -56.10800  155.35970    6.02210    9.46630    4.78800    0.22700    2.41720    0.27930    0.14030    6.00360    6.16450
 7387.50000   -9999.25   -9999.25  105.39200  -56.11380  155.34250    6.23310    9.55720    4.58100    0.22380    2.44280    0.27930    0.13240    6.34630    5.83520
 7388.00000   -9999.25   -9999.25  104.94640  -56.11970  156.06990    5.94170    9.61830    4.55190    0.21780    2.47820    0.28090    0.12540    6.09140    6.16360
 7388.50000   -9999.25   -9999.25  104.87030  -56.12560  156.79150    6.54150    8.97490    4.61210    0.21020    2.49710    0.28390    0.12540    6.48700    6.20570
 7389.00000   -9999.25   -9999.25  107.86130  -56.43050  158.05690    6.27870    9.36340    4.64250    0.20240    2.50370    0.29180    0.13260    6.30570    5.79420
 7389.50000   -9999.25   -9999.25  111.66940  -56.43650  159.73540    5.86330    9.30410    4.67290    0.19290    2.48590    0.31050    0.16890    5.88880    5.41000
 7390.00000   -9999.25   -9999.25  109.61120  -56.44360  161.65280    5.43800    9.00600    4.67370    0.17230    2.42880    0.33170    0.17170    5.42470    5.29960
 7390.50000   -9999.25   -9999.25  106.16930  -57.04740  158.71580    5.74550    9.27510    4.67440    0.14510    2.40880    0.33050    0.13430    5.97170    5.63640
 7391.00000   -9999.25   -9999.25  104.06460  -57.05330  148.50900    6.41260    9.93230    4.70480    0.19890    2.42770    0.32930    0.12060    6.66460    6.64350
 7391.50000   -9999.25   -9999.25  104.29070  -57.35810  132.92500    7.71810    9.69390    4.70550    0.23150    2.50020    0.32390    0.12840    7.80340    7.56690
 7392.00000   -9999.25   -9999.25  103.62120  -57.66290  118.09950    7.87960    8.97650    4.70630    0.24010    2.49060    0.25510    0.11350    7.85810    7.62110
 7392.50000   -9999.25   -9999.25   95.33980  -57.66880  103.03080    8.61560    9.26420    4.52900    0.22520    2.49260    0.21470    0.10150    8.07760    8.15490
 7393.00000   -9999.25   -9999.25   87.73010  -57.37570   94.14170   10.15840    9.35360    4.20330    0.17320    2.53160    0.16580    0.08250    9.58840   11.81070
 7393.50000   -9999.25   -9999.25   76.09050  -57.38160   88.84890   14.31620    8.98110    3.96660    0.12410    2.57940    0.15940    0.07110   13.97960   15.01110
