~Version ---------------------------------------------------
VERS.   2.0 : CWLS log ASCII Standard -VERSION 2.0
WRAP.    NO : One line per depth step
DLM . SPACE : Column Data Section Delimiter
~Well ------------------------------------------------------
STRT .F                 3425.0 : START DEPTH
STOP .F                12820.0 : STOP DEPTH
STEP .F                    0.5 : STEP
NULL .                -9999.25 : NULL VALUE
COMP .                         : COMPANY
WELL .                         : WELL
FLD  .                         : FIELD
LOC  .                         : LOCATION
PROV .                         : PROVINCE
CNTY .                         : COUNTY
STAT .                         : STATE
CTRY .                         : COUNTRY
SRVC .                         : SERVICE COMPANY
DATE .                         : DATE
UWI  .                         : UNIQUE WELL ID
API  .                         : API NUMBER
SLAT .WGS84    5.9335624534082 : SURFACE LATITUDE
SLON .WGS84 3.9753440296362186 : SURFACE LONGITUDE
DATUM.F                1734.37 : DEPTH DATUM ELEV
~Curve Information -----------------------------------------
DEPT.F     : 
DTCO.US/F  : COMPRESSIONAL-WAVE INTERVAL TRANSIT TIME ACOUSTIC SLOWNESS
DTSM.US/F  : SHEAR-WAVE INTERVAL TRANSIT TIME DELTA-T
GRR .GAPI  : GAMMA RAY FROM RESISTIVITY
SPR .MV    : SPONTANEOUS POTENTIAL FROM RES.
AFCO.MMHO  : 90-IN CONDUCTIVITY, 4-FT RESOLUTION
AT30.OHMM  : 30-IN. RESISTIVITY, 2-FT RESOLUTION
HCAL.IN    : HILT CALIPER
PEFZ.B/E   : HILT PHOTOELECTRIC FACTOR
HDRA.G/C3  : DELTA RHO HIP TOOL
RHOZ.G/C3  : HILT BULK DENSITY
NPHI.DEC   : NEUTRON POROSITY LIMESTONE
DPHI.DEC   : DENSITY POROSITY LIMESTONE
AT60.OHMM  : 60-IN. RESISTIVITY, 2-FT RESOLUTION
AT20.OHMM  : 20-IN. RESISTIVITY, 2-FT RESOLUTION
~Params ----------------------------------------------------
~Other -----------------------------------------------------
~ASCII -----------------------------------------------------
# ...
 9721.50000   -9999.25   -9999.25  134.55220  -77.69880  190.29500    5.72360    8.76780    4.09730    0.08020    2.64560    0.22000    0.04380    5.65370    5.09700
 9722.00000   -9999.25   -9999.25  129.85080  -78.00610  194.39930    6.00520    8.77390    3.92000    0.03340    2.63340    0.22890    0.05730    6.01310    5.92650
 9722.50000   -9999.25   -9999.25  129.62690  -78.01490  199.22520    5.02560    8.80000    3.80200    0.01900    2.61120    0.24260    0.06150    5.10180    5.42240
 9723.00000   -9999.25   -9999.25  130.97020  -78.32240  202.83770    4.69300    8.80120    3.83240    0.01750    2.60170    0.25460    0.06160    4.69930    4.82720
 9723.50000   -9999.25   -9999.25  131.86570  -78.33130  206.58500    4.53520    8.81110    4.04090    0.02380    2.60720    0.26170    0.05390    4.63460    4.60190
 9724.00000   -9999.25   -9999.25  128.50750  -78.04130  198.39440    4.75830    8.83340    4.19000    0.06630    2.61250    0.26350    0.04620    4.73160    4.66600
 9724.50000   -9999.25   -9999.25  126.04480  -78.35090  189.30130    4.72620    8.83460    4.25000    0.09200    2.61790    0.25040    0.04320    4.73830    4.69870
 9725.00000   -9999.25   -9999.25  125.14930  -78.35970  183.13760    5.34710    8.84830    4.19140    0.10170    2.62800    0.23790    0.04020    5.50160    4.89640
 9725.50000   -9999.25   -9999.25  125.37310  -78.36850  178.28940    6.21760    8.86690    3.98440    0.06580    2.64760    0.22520    0.03010    6.26530    5.75280
 9726.00000   -9999.25   -9999.25  126.07140  -78.37730  176.15640    5.92680    8.86810    3.77720    0.03250    2.66990    0.21690    0.01520    5.97200    6.09760
 9726.50000   -9999.25   -9999.25  127.46980  -78.38610  175.28980    5.68840    8.86930    3.71880    0.03100    2.68630    0.21750    0.01040    5.65370    5.75910
 9727.00000   -9999.25   -9999.25  129.17910  -78.39490  175.27200    5.68880    8.84060    3.78180    0.03100    2.69530    0.23110    0.01340    5.57680    5.54170
 9727.50000   -9999.25   -9999.25  130.07460  -78.40370  174.04710    5.49750    8.84200    3.81360    0.02950    2.66400    0.23870    0.02530    5.53870    5.42990
 9728.00000   -9999.25   -9999.25  126.26870  -78.41250  171.53000    5.50330    8.84320    3.81000    0.02500    2.66400    0.24140    0.02710    5.42610    5.50560
 9728.50000   -9999.25   -9999.25  123.58210  -78.42130  168.74490    5.89920    8.84430    3.80390    0.01910    2.65810    0.23650    0.03540    5.89080    5.89660
 9729.00000   -9999.25   -9999.25  121.11940  -78.43010  165.09580    6.26340    8.84550    3.77370    0.01160    2.62830    0.22910    0.04670    6.09600    6.14470
 9729.50000   -9999.25   -9999.25  122.23880  -78.43890  161.82610    5.92970    8.81670    3.75290    0.00270    2.61640    0.22520    0.05270    5.81070    5.97950
 9730.00000   -9999.25   -9999.25  124.70150  -78.44780  159.63130    6.01190    8.78810    3.76460    0.01010    2.62090    0.21780    0.04730    6.13790    5.85850
 9730.50000   -9999.25   -9999.25  125.37310  -78.45670  157.19830    6.52760    8.75950    3.78410    0.03250    2.65810    0.20990    0.03300    6.57290    6.49340
 9731.00000   -9999.25   -9999.25  122.46270  -78.46570  155.09410    6.89590    8.76060    3.81450    0.03570    2.65970    0.20600    0.03180    6.94310    6.81310
 9731.50000   -9999.25   -9999.25  121.34330  -78.47640  157.89260    6.75610    8.76180    3.81530    0.02510    2.66440    0.20760    0.02700    6.52810    7.00300
 9732.00000   -9999.25   -9999.25  125.14930  -78.48520  166.21090    6.13840    8.79280    3.83230    0.03410    2.67200    0.21720    0.02400    5.64730    6.23450
 9732.50000   -9999.25   -9999.25  128.50750  -78.49400  172.48400    5.57720    8.82390    3.90590    0.04320    2.67610    0.23080    0.02280    5.34790    5.62670
 9733.00000   -9999.25   -9999.25  128.74020  -78.50280  174.35590    5.38960    8.82510    3.90670    0.04900    2.67380    0.23760    0.02220    5.31580    5.32740
 9733.50000   -9999.25   -9999.25  128.50750  -78.51160  174.33760    5.50210    8.82630    3.84800    0.03220    2.64670    0.24190    0.03260    5.53870    5.44050
 9734.00000   -9999.25   -9999.25  129.42070  -78.52040  174.32390    5.65540    8.82750    3.81900    0.00900    2.64180    0.23960    0.03720    5.61510    5.62900
 9734.50000   -9999.25   -9999.25  130.58630  -78.52920  174.41080    5.73380    8.82870    3.81980   -0.00090    2.65710    0.23330    0.03190    5.85060    5.67960
 9735.00000   -9999.25   -9999.25  131.19400  -78.83650  176.52090    5.97490    8.82990    3.82050   -0.00320    2.67070    0.22490    0.02480    6.09600    6.02970
 9735.50000   -9999.25   -9999.25  129.40300  -79.14390  180.65920    6.18660    8.83100    3.82130   -0.00280    2.67530    0.22260    0.02180    6.01310    6.11370
 9736.00000   -9999.25   -9999.25  128.50750  -79.15270  185.52260    5.79810    8.86210    3.97040    0.00080    2.66070    0.22360    0.02110    5.61510    5.74910
 9736.50000   -9999.25   -9999.25  127.61190  -79.16150  191.80430    5.35550    8.86330    4.08980    0.02350    2.61910    0.23780    0.03530    5.27950    5.29620
 9737.00000   -9999.25   -9999.25  127.61190  -79.46880  195.78270    4.86590    8.89430    4.17950    0.05410    2.60760    0.25630    0.04480    4.82980    4.84580
 9737.50000   -9999.25   -9999.25  127.83580  -79.47760  189.07800    4.54400    8.89550    4.24080    0.07210    2.61100    0.26340    0.05670    4.47940    4.49480
 9738.00000   -9999.25   -9999.25  127.61190  -79.18790  172.30880    4.60700    8.89670    4.29970    0.07300    2.63340    0.25450    0.04780    4.57230    4.37380
 9738.50000   -9999.25   -9999.25  119.32840  -79.49550  157.00350    5.89640    8.86810    4.20210    0.06440    2.64790    0.22640    0.03820    6.01310    5.48370
 9739.00000   -9999.25   -9999.25  113.50750  -79.50620  136.28350    7.59860    8.82200    3.72700    0.02860    2.64650    0.20980    0.03760    7.58950    7.26210
 9739.50000   -9999.25   -9999.25  109.47760  -79.21430  122.38090    9.72540    8.78090    3.64900    0.00580    2.64500    0.18230    0.03820    9.40570    9.48650
 9740.00000   -9999.25   -9999.25  109.02990  -78.62610  112.23380   11.46480    8.75240    3.71700   -0.00010    2.65400    0.16620    0.03100   11.52460   10.80620
 9740.50000   -9999.25   -9999.25  109.47760  -77.74160  108.00610    9.66030    8.75360    3.77850   -0.00310    2.66440    0.16440    0.02390   10.25810   10.58790
 9741.00000   -9999.25   -9999.25  109.70150  -76.85490  108.72280    8.77710    8.75480    3.83990   -0.00350    2.67040    0.17400    0.02450    9.19360    9.10840
 9741.50000   -9999.25   -9999.25  110.37310  -76.56300  112.43650    8.30950    8.78580    3.87170    0.01780    2.67340    0.19960    0.02270    8.58510    8.33370
 9742.00000   -9999.25   -9999.25  114.24130  -76.57400  118.00590    8.14090    8.78700    3.89020    0.02820    2.66590    0.20910    0.02090    8.12740    8.10520
 9742.50000   -9999.25   -9999.25  119.82230  -76.58280  125.25960    7.92130    8.78810    3.89090    0.02530    2.65700    0.20980    0.02680    8.01690    7.83260
 9743.00000   -9999.25   -9999.25  120.44780  -76.29090  131.70740    7.48960    8.78930    3.87580    0.01330    2.64510    0.20790    0.03160    7.43520    7.51510
 9743.50000   -9999.25   -9999.25  120.44780  -76.00120  136.82330    6.95520    8.79050    3.84550    0.01480    2.63920    0.20910    0.03630    6.89570    6.97850
 9744.00000   -9999.25   -9999.25  120.22390  -75.71340  141.73820    7.14910    8.79160    3.74490    0.01780    2.65590    0.21030    0.03330    6.99080    6.74430
 9744.50000   -9999.25   -9999.25  121.56720  -75.72250  148.74950    7.24820    8.79280    3.59730    0.01770    2.67080    0.21030    0.02910    7.18490    7.22350
 9745.00000   -9999.25   -9999.25  125.59700  -75.73140  151.51000    6.76860    8.79400    3.62770    0.01150    2.67980    0.20730    0.02120    6.75250    6.83940
 9745.50000   -9999.25   -9999.25  127.38810  -75.44160  153.92270    6.45200    8.79520    3.71740    0.00250    2.67880    0.20670    0.01720    6.52380    6.56490
