~Version ---------------------------------------------------
VERS.   2.0 : CWLS log ASCII Standard -VERSION 2.0
WRAP.    NO : One line per depth step
DLM . SPACE : Column Data Section Delimiter
~Well ------------------------------------------------------
STRT .F                 3425.0 : START DEPTH
STOP .F                12820.0 : STOP DEPTH
STEP .F                    0.5 : STEP
NULL .                -9999.25 : NULL VALUE
COMP .                         : COMPANY
WELL .                         : WELL
FLD  .                         : FIELD
LOC  .                         : LOCATION
PROV .                         : PROVINCE
CNTY .                         : COUNTY
STAT .                         : STATE
CTRY .                         : COUNTRY
SRVC .                         : SERVICE COMPANY
DATE .                         : DATE
UWI  .                         : UNIQUE WELL ID
API  .                         : API NUMBER
SLAT .WGS84    5.9335624534082 : SURFACE LATITUDE
SLON .WGS84 3.9753440296362186 : SURFACE LONGITUDE
DATUM.F                1734.37 : DEPTH DATUM ELEV
~Curve Information -----------------------------------------
DEPT.F     : 
DTCO.US/F  : COMPRESSIONAL-WAVE INTERVAL TRANSIT TIME ACOUSTIC SLOWNESS
DTSM.US/F  : SHEAR-WAVE INTERVAL TRANSIT TIME DELTA-T
GRR .GAPI  : GAMMA RAY FROM RESISTIVITY
SPR .MV    : SPONTANEOUS POTENTIAL FROM RES.
AFCO.MMHO  : 90-IN CONDUCTIVITY, 4-FT RESOLUTION
AT30.OHMM  : 30-IN. RESISTIVITY, 2-FT RESOLUTION
HCAL.IN    : HILT CALIPER
PEFZ.B/E   : HILT PHOTOELECTRIC FACTOR
HDRA.G/C3  : DELTA RHO HIP TOOL
RHOZ.G/C3  : HILT BULK DENSITY
NPHI.DEC   : NEUTRON POROSITY LIMESTONE
DPHI.DEC   : DENSITY POROSITY LIMESTONE
AT60.OHMM  : 60-IN. RESISTIVITY, 2-FT RESOLUTION
AT20.OHMM  : 20-IN. RESISTIVITY, 2-FT RESOLUTION
~Params ----------------------------------------------------
~Other -----------------------------------------------------
~ASCII -----------------------------------------------------
# ...
 11239.50000   -9999.25   -9999.25  105.39860 -100.86270  321.84890    2.91410   10.91750    4.81220    0.25000    2.60880    0.27950    0.06060    2.88480    2.96930
 11240.00000   -9999.25   -9999.25  106.97700 -100.86710  314.55510    3.19620   10.57940    4.56210    0.24310    2.61430    0.26780    0.10870    3.09040    3.09460
 11240.50000   -9999.25   -9999.25  108.55550 -100.87150  306.08370    3.35480   10.46830    4.42330    0.20960    2.53350    0.26360    0.10730    3.28800    3.22530
 11241.00000   -9999.25   -9999.25  111.93040 -100.57700  297.59120    3.57000   10.39930    4.30410    0.18300    2.54350    0.26240    0.09670    3.50180    3.34010
 11241.50000   -9999.25   -9999.25  117.99990 -100.58150  284.74880    3.74730   10.28980    4.18510    0.13330    2.57950    0.25880    0.07170    3.72950    3.48290
 11242.00000   -9999.25   -9999.25  119.57840 -100.88490  270.54940    3.82680   10.18950    4.09540    0.09130    2.59730    0.24180    0.06130    3.77470    3.72730
 11242.50000   -9999.25   -9999.25  118.01320 -100.89030  256.46890    3.77570    9.99100    4.03550    0.06120    2.60570    0.22980    0.05700    4.12780    3.91140
 11243.00000   -9999.25   -9999.25  115.99890 -100.89470  246.42480    4.33350    9.86960    4.00710    0.05620    2.62050    0.22880    0.05690    4.39180    4.07650
 11243.50000   -9999.25   -9999.25  115.10730 -100.89910  237.83720    4.54860    9.95840    4.00830    0.07410    2.59010    0.25130    0.10010    4.60900    4.19080
 11244.00000   -9999.25   -9999.25  115.56300 -100.90350  230.67090    4.39690   10.08140    4.03930    0.10350    2.56110    0.26290    0.11020    4.70580    4.24950
 11244.50000   -9999.25   -9999.25  115.34510 -100.90790  223.39500    4.42970    9.94720    4.09960    0.13060    2.52700    0.26490    0.11190    4.45610    4.39860
 11245.00000   -9999.25   -9999.25  110.80770 -100.91230  216.26910    4.95730    9.92550    4.16000    0.15200    2.53130    0.25740    0.09570    4.87290    4.84290
 11245.50000   -9999.25   -9999.25  106.08780 -100.91680  217.24410    5.69000   10.27930    4.19070    0.09220    2.57250    0.21690    0.08370    5.47690    5.25940
 11246.00000   -9999.25   -9999.25  104.81110 -101.22010  222.19890    5.91590   10.46270    4.19190    0.04710    2.58920    0.20440    0.07160    5.82680    5.83040
 11246.50000   -9999.25   -9999.25  108.18770 -101.22450  223.23890    4.55970    9.89270    4.19300    0.06200    2.59110    0.22170    0.07640    4.52250    4.37210
 11247.00000   -9999.25   -9999.25  109.76620 -101.52790  222.76390    3.39610    9.88350    4.19420    0.07840    2.58230    0.23800    0.07270    3.78490    4.49460
 11247.50000   -9999.25   -9999.25  109.77280 -102.13020  221.43320    4.72320   10.22190    4.22490    0.10820    2.59210    0.24540    0.06790    4.55600    4.48540
 11248.00000   -9999.25   -9999.25  109.55320 -102.43360  221.78370    5.41970    9.89540    4.22610    0.14240    2.60120    0.24960    0.11520    5.08580    5.08720
 11248.50000   -9999.25   -9999.25  108.66330 -102.73690  223.81290    4.50530   10.07480    4.28640    0.17220    2.56100    0.25190    0.15530    4.39730    4.52050
 11249.00000   -9999.25   -9999.25  105.75080 -102.44240  226.61100    4.29570   10.46260    4.34680    0.19450    2.45010    0.26830    0.16790    4.14260    4.20030
 11249.50000   -9999.25   -9999.25  103.96100 -102.14790  222.72020    4.20980   10.82060    4.40710    0.20350    2.43820    0.29150    0.15760    4.08700    4.28850
 11250.00000   -9999.25   -9999.25  104.64130 -102.15250  213.96730    4.54180   10.16670    4.43790    0.13210    2.49430    0.25800    0.13240    4.54660    4.70170
 11250.50000   -9999.25   -9999.25  106.89340 -101.85770  200.90870    5.07100    9.98900    4.25780    0.06210    2.54670    0.21940    0.09450    5.41810    5.16420
 11251.00000   -9999.25   -9999.25  107.57370 -101.86330  191.98970    5.10800    9.90060    4.05160    0.01010    2.56940    0.21110    0.08730    5.38330    5.16620
 11251.50000   -9999.25   -9999.25  103.53840 -101.86770  187.19860    5.25230    9.84200    3.93550    0.00710    2.58880    0.20160    0.06270    5.38540    5.31210
 11252.00000   -9999.25   -9999.25   99.95220 -101.57200  185.67740    5.40070    9.81310    3.88040    0.00710    2.60030    0.19690    0.05600    5.57560    5.49960
 11252.50000   -9999.25   -9999.25   99.50440 -101.87650  184.09930    5.59300    9.78420    3.88170    0.01010    2.61230    0.19290    0.04760    5.73290    5.65480
 11253.00000   -9999.25   -9999.25  102.73500 -101.88090  184.20410    5.71020    9.78520    3.88280    0.01460    2.62240    0.19000    0.05410    5.77410    5.73520
 11253.50000   -9999.25   -9999.25  110.40150 -101.88530  186.59500    5.62060    9.81580    3.88400    0.01430    2.61870    0.18880    0.05290    5.62070    5.54420
 11254.00000   -9999.25   -9999.25  119.52570 -102.18870  191.77290    5.19170    9.81670    3.89310   -0.00020    2.62480    0.18690    0.05460    5.35940    5.25030
 11254.50000   -9999.25   -9999.25  124.91220 -102.49210  198.31770    5.08750    9.81760    3.87750    0.00630    2.60450    0.18560    0.06360    5.32470    5.11030
 11255.00000   -9999.25   -9999.25  127.16430 -102.79540  204.38150    5.41430    9.81850    3.76900    0.01670    2.58610    0.18550    0.07730    5.47770    5.40790
 11255.50000   -9999.25   -9999.25  128.29370 -103.09880  208.68470    5.49080    9.84910    3.85130    0.03220    2.57280    0.20040    0.08800    5.43510    5.47750
 11256.00000   -9999.25   -9999.25  128.52490 -103.40210  212.89860    5.05930    9.88500    3.98470    0.04950    2.56240    0.21420    0.09160    5.15220    5.01280
 11256.50000   -9999.25   -9999.25  128.08240 -103.40660  216.37960    4.50400    9.91630    4.08140    0.06980    2.55650    0.22130    0.09460    4.68240    4.55570
 11257.00000   -9999.25   -9999.25  126.74180 -103.71000  218.32010    4.29440    9.94790    4.05600    0.05320    2.55210    0.22690    0.09870    3.97340    4.25550
 11257.50000   -9999.25   -9999.25  124.27830 -103.71450  220.13410    4.35560    9.97170    3.96750    0.04750    2.55360    0.23340    0.09190    3.94750    4.31600
 11258.00000   -9999.25   -9999.25  119.56940 -103.71990  216.34700    4.50940   10.00240    3.90850    0.06010    2.56110    0.23750    0.09350    4.14370    4.53010
 11258.50000   -9999.25   -9999.25  118.45330 -103.72430  204.92440    4.70090   10.00330    3.86630    0.07770    2.55370    0.24650    0.09610    4.37920    4.82040
 11259.00000   -9999.25   -9999.25  122.50180 -103.72870  194.21420    4.96820   10.03390    3.98600    0.08780    2.55670    0.27040    0.09430    4.72420    5.12940
 11259.50000   -9999.25   -9999.25  128.57130 -103.73310  175.93600    5.40890   10.06460    4.07600    0.09480    2.55530    0.28260    0.09710    5.20240    5.64860
 11260.00000   -9999.25   -9999.25  132.61990 -103.73750  146.31980    6.22270   10.11910    4.10670    0.08840    2.54940    0.28080    0.10350    5.96960    6.22030
 11260.50000   -9999.25   -9999.25  133.74930 -104.04090  119.70370    7.87910   10.22800    4.13750    0.06680    2.54200    0.25220    0.10670    8.41480    7.59210
 11261.00000   -9999.25   -9999.25  128.22840 -104.04530  101.61900   10.88280   10.18890    4.31610    0.05390    2.55550    0.20150    0.09040   11.86140   10.07150
 11261.50000   -9999.25   -9999.25  112.80760 -104.04970   77.95160   16.32200   10.05450    4.49480    0.04320    2.57490    0.18360    0.06970   15.20300   14.01810
 11262.00000   -9999.25   -9999.25  104.12840 -103.75520   67.06980   20.19980    9.96450    4.67350    0.05150    2.60470    0.18290    0.06030   18.87030   19.06330
 11262.50000   -9999.25   -9999.25  104.81040 -103.75960   62.96320   15.89280    9.98070    4.82260    0.05680    2.61220    0.19710    0.06290   17.08350   16.39420
 11263.00000   -9999.25   -9999.25  110.43080 -103.76400   60.90610   15.46710   10.01130    4.91250    0.05810    2.58960    0.24460    0.07140   15.84810   15.52360
