~Version ---------------------------------------------------
VERS.   2.0 : CWLS log ASCII Standard -VERSION 2.0
WRAP.    NO : One line per depth step
DLM . SPACE : Column Data Section Delimiter
~Well ------------------------------------------------------
STRT .F                 3425.0 : START DEPTH
STOP .F                12820.0 : STOP DEPTH
STEP .F                    0.5 : STEP
NULL .                -9999.25 : NULL VALUE
COMP .                         : COMPANY
WELL .                         : WELL
FLD  .                         : FIELD
LOC  .                         : LOCATION
PROV .                         : PROVINCE
CNTY .                         : COUNTY
STAT .                         : STATE
CTRY .                         : COUNTRY
SRVC .                         : SERVICE COMPANY
DATE .                         : DATE
UWI  .                         : UNIQUE WELL ID
API  .                         : API NUMBER
SLAT .WGS84    5.9335624534082 : SURFACE LATITUDE
SLON .WGS84 3.9753440296362186 : SURFACE LONGITUDE
DATUM.F                1734.37 : DEPTH DATUM ELEV
~Curve Information -----------------------------------------
DEPT.F     : 
DTCO.US/F  : COMPRESSIONAL-WAVE INTERVAL TRANSIT TIME ACOUSTIC SLOWNESS
DTSM.US/F  : SHEAR-WAVE INTERVAL TRANSIT TIME DELTA-T
GRR .GAPI  : GAMMA RAY FROM RESISTIVITY
SPR .MV    : SPONTANEOUS POTENTIAL FROM RES.
AFCO.MMHO  : 90-IN CONDUCTIVITY, 4-FT RESOLUTION
AT30.OHMM  : 30-IN. RESISTIVITY, 2-FT RESOLUTION
HCAL.IN    : HILT CALIPER
PEFZ.B/E   : HILT PHOTOELECTRIC FACTOR
HDRA.G/C3  : DELTA RHO HIP TOOL
RHOZ.G/C3  : HILT BULK DENSITY
NPHI.DEC   : NEUTRON POROSITY LIMESTONE
DPHI.DEC   : DENSITY POROSITY LIMESTONE
AT60.OHMM  : 60-IN. RESISTIVITY, 2-FT RESOLUTION
AT20.OHMM  : 20-IN. RESISTIVITY, 2-FT RESOLUTION
~Params ----------------------------------------------------
~Other -----------------------------------------------------
~ASCII -----------------------------------------------------
# ...
 11623.50000   69.90950  119.89810   97.98360 -111.22870   31.34220   28.86910    8.98860    2.94290    0.00330    2.60810    0.10280    0.03790   27.01330   28.06950
 11624.00000   69.00340  118.70440  105.85390 -111.83170   26.03120   48.65810    8.98940    3.23910    0.00260    2.62450    0.09430    0.03200   59.06740   44.08890
 11624.50000   68.09720  116.02590  108.78400 -112.38270   23.10500   68.13980    8.99030    3.35900    0.00110    2.65290    0.08060    0.03480   67.31070   64.15970
 11625.00000   67.48820  112.45660  102.28290 -112.67250   20.73910   67.24100    8.99120    3.45660    0.00110    2.66180    0.07340    0.06470   69.67640   70.15690
 11625.50000   66.58210  110.07510   86.52490 -112.95990   20.04190   54.75330    8.96220    3.43630    0.00110    2.61600    0.06900    0.10820   52.62040   58.32260
 11626.00000   64.48720  107.39660   67.27760 -112.95070   23.22720   51.14450    8.99290    2.83090   -0.00040    2.55080    0.06600    0.11960   48.47960   56.37570
 11626.50000   62.68240  105.31210   62.79760 -112.64250   26.70090   48.43390    9.02360    2.61310   -0.00190    2.51720    0.06580    0.11920   44.66470   52.29690
 11627.00000   61.78310  103.22750   67.07500 -112.63330   27.42940   41.37990    9.08400    2.56030   -0.00490    2.51020    0.07600    0.11060   39.49110   42.58640
 11627.50000   61.47100  100.84600   76.51710 -112.32520   28.15920   32.78260    9.11460    2.60740   -0.00790    2.52240    0.09030    0.09900   32.37970   38.70080
 11628.00000   62.04760  100.54320   84.61190 -112.31600   28.14090   31.43610    9.17500    2.69890   -0.00930    2.53430    0.10160    0.09400   29.02440   37.40570
 11628.50000   62.92460  100.53730   86.64380 -112.00780   28.12780   34.19140    9.20700    2.79050   -0.00790    2.54260    0.10290    0.09110   33.30260   37.93840
 11629.00000   64.09860  101.42240   85.75650 -111.69970   28.89820   31.41260    9.23880    2.86970   -0.00640    2.55030    0.09910    0.08890   28.06500   32.41320
 11629.50000   64.68200  102.90130   78.80640 -111.39150   30.32400   27.85400    9.26700    2.93040   -0.00490    2.55790    0.08360    0.09150   25.15010   28.26840
 11630.00000   64.66370  104.10420   70.95810 -110.78440   32.46800   37.43680    9.26790    2.93210   -0.00340    2.56440    0.07700    0.09510   28.52360   38.76630
 11630.50000   64.64910  103.78040   63.24770 -110.17720   36.98290   39.84000    9.26880    2.78080   -0.00340    2.54930    0.07580    0.09540   34.12710   43.87460
 11631.00000   64.63450  105.55630   62.44710 -109.57010   42.30110   33.34400    9.26960    2.69830   -0.00190    2.55670    0.07930    0.08760   32.90710   40.70030
 11631.50000   64.61980  105.54900   71.59750 -108.66170   49.94480   19.93730    9.27050    2.88850   -0.00200    2.57920    0.10610    0.07660   26.07170   24.34240
 11632.00000   64.60520  105.54310   89.56020 -107.75790   64.42600   13.67500    9.30120    3.03670   -0.00220    2.59260    0.17450    0.06560   15.38080   13.68750
 11632.50000   64.59060  105.53730  106.46980 -107.11260   74.41090   10.90840    9.30210    3.18500   -0.00370    2.61200    0.18930    0.05180   10.84490   10.83220
 11633.00000   65.17030  106.71920  110.96720 -106.54330   77.77140   10.05050    9.29060    3.30360   -0.00500    2.62840    0.19590    0.04750    9.78810   10.05230
 11633.50000   66.04720  109.08900  102.88970 -105.93440   72.58860   12.52460    9.27410    3.31000   -0.00500    2.63890    0.18680    0.04510   12.11080   13.07360
 11634.00000   67.22130  112.05270   96.15950 -105.32720   68.21770   15.93230    9.27500    3.18580   -0.00460    2.64190    0.16400    0.04150   15.29630   17.91040
 11634.50000   69.29860  115.61040   93.47120 -105.01910   67.24780   16.95510    9.25980    3.06780   -0.00350    2.63900    0.15220    0.04320   16.50040   18.16240
 11635.00000   70.19200  119.46490   91.90570 -104.41200   72.19850   17.07950    9.24700    3.03850   -0.00200    2.63910    0.14620    0.04440   16.63840   17.67840
 11635.50000   71.08960  122.72560   91.46280 -104.10380   80.64980   16.72100    9.23680    3.09790   -0.00150    2.64210    0.14570    0.04200   15.73760   17.80610
 11636.00000   71.32330  124.50150   94.61300 -103.49670   91.05280   15.11510    9.24900    3.09820   -0.00050    2.64660    0.17120    0.03950   14.10680   17.33010
 11636.50000   71.00780  124.19870  107.70030 -103.48750   97.19930   11.72670    9.27960    3.15770    0.00090    2.65110    0.18640    0.03650   12.33370   11.72680
 11637.00000   70.10160  122.11410  118.75250 -103.17930  104.40770    9.61460    9.31020    3.19000    0.00090    2.65120    0.18910    0.03530    9.25330    9.74790
 11637.50000   69.49270  119.73260  123.23030 -103.17010  108.74730    8.98090    9.34090    3.25070    0.00240    2.65300    0.19100    0.03520    8.44350    9.10480
 11638.00000   69.18090  118.53890  125.74420 -103.16090  112.16470    9.04680    9.37150    3.31140    0.00240    2.65610    0.19340    0.03460    8.27370    9.04490
 11638.50000   70.06140  120.63040  127.65520 -103.15170  114.75360    9.23920    9.37240    3.34250    0.00320    2.65920    0.19560    0.03220    8.44920    9.17370
 11639.00000   71.52900  123.03330  128.11060 -103.14250  111.43200    9.17910    9.37330    3.39590    0.00540    2.66370    0.19680    0.03210    8.62780    9.17680
 11639.50000   72.40960  126.02990  126.54510 -103.43240  104.39190    9.18420    9.34430    3.42570    0.00540    2.66060    0.19800    0.03390    8.81010    9.05490
 11640.00000   73.28650  130.09530  120.71310 -103.42300   90.93370    9.25160    9.31550    3.45560    0.00540    2.65300    0.19830    0.03450    8.99630    9.18300
 11640.50000   74.15970  133.35600  110.16560 -103.71280   77.60690   10.11950    9.28660    3.46700    0.00530    2.65450    0.18540    0.03320    9.44180   10.11180
 11641.00000   74.74000  135.13190  101.18990 -103.70330   65.64620   12.78490    9.28750    3.49060    0.00530    2.65460    0.16070    0.03260   13.77260   12.85940
 11641.50000   75.02230  135.72140   97.82790 -103.99330   54.50150   21.01470    9.28840    3.39980    0.00530    2.65300    0.14710    0.03640   23.68400   21.03300
 11642.00000   74.71020  135.12020   97.38360 -104.28310   48.19980   25.59440    9.29430    3.27920    0.00530    2.64700    0.13470    0.04040   26.10650   25.76340
 11642.50000   73.49250  133.92650   99.41250 -104.57280   46.28380   20.55700    9.31990    3.20440    0.00530    2.63840    0.13590    0.04220   19.16100   21.58060
 11643.00000   72.26980  131.24800   99.64180 -104.86250   45.92610   20.32230    9.32830    3.16150    0.00380    2.63990    0.13390    0.04490   18.52130   21.09860
 11643.50000   71.04570  127.97570   95.38320 -104.85100   45.51260   23.28100    9.35150    3.13220    0.00230    2.61760    0.12900    0.05210   22.01210   24.71380
 11644.00000   69.59600  122.92150   93.36860 -104.84180   45.49510   24.10480    9.38210    3.10300    0.00080    2.60730    0.12480    0.05610   23.58280   26.11650
 11644.50000   67.50120  116.38270   93.15010 -104.92420   45.72580   22.42840    9.41280    3.10330   -0.00070    2.60290    0.12470    0.06020   21.56120   25.41840
 11645.00000   65.70350  112.21940   93.15670 -104.90280   46.95350   21.17900    9.41370    3.10360   -0.00220    2.60140    0.13290    0.06470   19.72880   22.01650
 11645.50000   65.09450  110.72880   92.04030 -104.88190   48.10660   22.38440    9.42820    3.10390   -0.00210    2.59700    0.13780    0.07120   19.46490   21.72210
 11646.00000   66.26860  111.31680   87.54850 -104.85710   48.55350   23.65840    9.44520    3.10420    0.00090    2.58370    0.13980    0.07760   20.99900   23.11480
 11646.50000   66.25400  112.49890   85.06370 -104.83640   49.87940   24.32780    9.44610    3.10450    0.00380    2.58220    0.13540    0.07900   21.73880   23.92930
 11647.00000   66.53650  113.68080   84.64910 -104.81580   49.86630   24.67510    9.44700    3.07510    0.00530    2.58860    0.13120    0.07530   22.04650   24.43500
