~Version ---------------------------------------------------
VERS.   2.0 : CWLS log ASCII Standard -VERSION 2.0
WRAP.    NO : One line per depth step
DLM . SPACE : Column Data Section Delimiter
~Well ------------------------------------------------------
STRT .F                 3425.0 : START DEPTH
STOP .F                12820.0 : STOP DEPTH
STEP .F                    0.5 : STEP
NULL .                -9999.25 : NULL VALUE
COMP .                         : COMPANY
WELL .                         : WELL
FLD  .                         : FIELD
LOC  .                         : LOCATION
PROV .                         : PROVINCE
CNTY .                         : COUNTY
STAT .                         : STATE
CTRY .                         : COUNTRY
SRVC .                         : SERVICE COMPANY
DATE .                         : DATE
UWI  .                         : UNIQUE WELL ID
API  .                         : API NUMBER
SLAT .WGS84    5.9335624534082 : SURFACE LATITUDE
SLON .WGS84 3.9753440296362186 : SURFACE LONGITUDE
DATUM.F                1734.37 : DEPTH DATUM ELEV
~Curve Information -----------------------------------------
DEPT.F     : 
DTCO.US/F  : COMPRESSIONAL-WAVE INTERVAL TRANSIT TIME ACOUSTIC SLOWNESS
DTSM.US/F  : SHEAR-WAVE INTERVAL TRANSIT TIME DELTA-T
GRR .GAPI  : GAMMA RAY FROM RESISTIVITY
SPR .MV    : SPONTANEOUS POTENTIAL FROM RES.
AFCO.MMHO  : 90-IN CONDUCTIVITY, 4-FT RESOLUTION
AT30.OHMM  : 30-IN. RESISTIVITY, 2-FT RESOLUTION
HCAL.IN    : HILT CALIPER
PEFZ.B/E   : HILT PHOTOELECTRIC FACTOR
HDRA.G/C3  : DELTA RHO HIP TOOL
RHOZ.G/C3  : HILT BULK DENSITY
NPHI.DEC   : NEUTRON POROSITY LIMESTONE
DPHI.DEC   : DENSITY POROSITY LIMESTONE
AT60.OHMM  : 60-IN. RESISTIVITY, 2-FT RESOLUTION
AT20.OHMM  : 20-IN. RESISTIVITY, 2-FT RESOLUTION
~Params ----------------------------------------------------
~Other -----------------------------------------------------
~ASCII -----------------------------------------------------
# ...
 7761.50000   -9999.25   -9999.25  129.69610  -60.65570   55.05240   18.06910    8.34220    3.73980    0.00280    2.50520    0.26070    0.11710   18.23750   17.82890
 7762.00000   -9999.25   -9999.25  132.82380  -60.66460   58.47570   15.86480    8.37260    3.61940    0.00910    2.50370    0.26190    0.11770   16.00880   15.86940
 7762.50000   -9999.25   -9999.25  135.72760  -60.67340   61.05500   14.41540    8.43290    3.56820    0.01060    2.50820    0.25770    0.11590   14.84440   14.61750
 7763.00000   -9999.25   -9999.25  131.64570  -60.68220   61.02280   15.12730    8.43350    3.53880    0.00620    2.51560    0.24820    0.10930   15.78670   14.32080
 7763.50000   -9999.25   -9999.25  128.84670  -60.69100   58.56750   15.87450    8.46390    3.53220    0.00170    2.52320    0.24700    0.10480   16.67410   15.98170
 7764.00000   -9999.25   -9999.25  126.97480  -60.99950   55.75140   17.00480    8.46450    3.50980    0.00170    2.52760    0.24770    0.10850   17.37450   17.23420
 7764.50000   -9999.25   -9999.25  128.31150  -61.00760   52.91360   18.46720    8.52480    3.54870    0.00320    2.52050    0.25990    0.11310   18.50160   17.95880
 7765.00000   -9999.25   -9999.25  131.66310  -61.01640   50.46030   20.05530    8.55530    3.61920    0.00770    2.50210    0.26750    0.11790   20.52860   18.97210
 7765.50000   -9999.25   -9999.25  138.82060  -61.32440   48.00530   21.19070    8.58570    3.76990    0.01370    2.50070    0.26960    0.12050   22.52910   20.18040
 7766.00000   -9999.25   -9999.25  148.29340  -61.97140   45.34600   22.85580    8.58630    3.87900    0.01810    2.53530    0.26870    0.10070   24.12390   22.06230
 7766.50000   -9999.25   -9999.25  151.12030  -63.73570   42.20220   24.65170    8.58690    3.88410    0.02110    2.55800    0.26140    0.08880   26.00920   24.62060
 7767.00000   -9999.25   -9999.25  153.57640  -63.74450   39.89550   26.40700    8.58750    3.80830    0.02410    2.55590    0.25560    0.08750   27.85030   27.66450
 7767.50000   -9999.25   -9999.25  158.94290  -63.45220   37.55870   27.90200    8.58810    3.76410    0.01490    2.54110    0.25990    0.09770   28.42590   28.04820
 7768.00000   -9999.25   -9999.25  188.48860  -63.16200   35.40940   29.68440    8.55880    3.71990    0.00160    2.49420    0.28870    0.13890   29.41190   29.26850
 7768.50000   -9999.25   -9999.25  233.25810  -63.17310   34.63890   31.58070    8.55940    3.69050   -0.00430    2.42610    0.31280    0.18950   31.06520   30.69430
 7769.00000   -9999.25   -9999.25  278.25150  -63.18190   34.60910   29.88640    8.56000    3.69090   -0.00740    2.37800    0.34490    0.21450   30.01470   29.23190
 7769.50000   -9999.25   -9999.25  299.51520  -63.19070   35.58000   28.31030    8.56060    3.69120   -0.00700    2.33140    0.35360    0.22420   27.64240   28.83550
 7770.00000   -9999.25   -9999.25  299.50690  -63.19950   37.97540   30.43960    8.56120    3.72110   -0.00390    2.30360    0.35480    0.23500   31.69760   30.67250
 7770.50000   -9999.25   -9999.25  299.50030  -63.20840   40.47520   29.45060    8.59160    3.78080    0.00410    2.30170    0.37160    0.23610   29.19130   28.83980
 7771.00000   -9999.25   -9999.25  299.49370  -63.21720   42.02000   21.53250    8.60130    3.81070    0.01320    2.30850    0.37860    0.21650   22.96300   15.88890
 7771.50000   -9999.25   -9999.25  264.78560  -63.22600   41.49130   14.76890    8.63280    3.92970    0.02270    2.36630    0.36010    0.18780   15.15720   13.66590
 7772.00000   -9999.25   -9999.25  191.34620  -62.93570   35.91620   24.53920    8.66430    4.40480    0.03100    2.46000    0.32060    0.14010   23.43360   21.92970
 7772.50000   -9999.25   -9999.25  115.44290  -62.94470   29.78000   28.15250    8.69580    4.52380    0.03320    2.46480    0.24040    0.14070   28.43090   25.67520
 7773.00000   -9999.25   -9999.25   80.06320  -62.65460   23.73810   31.64010    8.71400    4.58340    0.02190    2.38600    0.25220    0.19020   32.19350   28.84960
 7773.50000   -9999.25   -9999.25   39.53420  -62.62440   18.69890   36.29900    8.71460    4.61340    0.00030    2.39790    0.26230    0.19500   37.52290   30.26930
 7774.00000   -9999.25   -9999.25   26.76640  -62.07430   15.95470   41.64380    8.71520    4.61370    0.00150    2.45160    0.21880    0.19200   54.78190   30.68900
 7774.50000   -9999.25   -9999.25   20.93890  -62.08530   13.43180   55.17640    8.71580    4.67330    0.00540    2.64980    0.14190    0.16160   77.15930   55.71100
 7775.00000   -9999.25   -9999.25   18.47130  -62.39310   13.83730   75.13980    8.76370    4.76260    0.00720    2.69900    0.05960    0.03640   99.41430   85.21070
 7775.50000   -9999.25   -9999.25   21.82120  -62.99980   15.92220   84.44400    8.80670    4.91130    0.00420    2.71240    0.02560   -0.00060  102.16670   91.88860
 7776.00000   -9999.25   -9999.25   26.74000  -63.00860   20.04170   65.08780    8.83710    4.91160    0.00490    2.71260    0.01910   -0.00240   72.51480   78.13780
 7776.50000   -9999.25   -9999.25   37.47960  -62.41960   27.27180   52.27320    8.83770    4.91190    0.00860    2.69900    0.01850    0.00300   55.50050   58.46540
 7777.00000   -9999.25   -9999.25   50.45810  -61.53150   41.84490   35.12520    8.83830    4.38400    0.01920    2.68110    0.01960    0.01430   27.77430   34.49540
 7777.50000   -9999.25   -9999.25   63.43660  -60.94020   56.43580   19.34580    8.80900    3.80460    0.02970    2.68110    0.02680    0.01660   18.15770   19.93860
 7778.00000   -9999.25   -9999.25   74.77490  -60.65010   60.92240   15.75150    8.72010    3.78510    0.04430    2.67360    0.04170    0.02320   15.08840   15.26350
 7778.50000   -9999.25   -9999.25   81.22740  -60.36000   63.82690   14.71050    8.63110    3.85870    0.05920    2.64980    0.07860    0.02620   14.28160   13.86810
 7779.00000   -9999.25   -9999.25   80.87780  -60.37100   65.45120   15.47630    8.57200    3.94210    0.06460    2.62890    0.12930    0.04300   14.98140   15.58260
 7779.50000   -9999.25   -9999.25   78.18460  -60.37980   66.00580   17.48650    8.54270    4.00270    0.04970    2.60230    0.17700    0.06390   16.83010   17.50910
 7780.00000   -9999.25   -9999.25   76.38700  -60.38860   60.75700   13.93430    8.51340    4.03360    0.01540    2.55400    0.19540    0.09010   16.26100   15.47830
 7780.50000   -9999.25   -9999.25   85.33560  -60.39760   57.39140    8.80280    8.54390    4.05370    0.00940    2.54690    0.18630    0.09410    8.59610    8.94660
 7781.00000   -9999.25   -9999.25   93.38870  -60.40660   53.72190   13.84470    8.60420    4.00640    0.01240    2.60510    0.15870    0.07400   14.94800   13.31390
 7781.50000   -9999.25   -9999.25   98.08520  -60.41730   48.75200   17.97010    8.63580    3.75270    0.01540    2.62910    0.13410    0.05530   19.83180   20.50380
 7782.00000   -9999.25   -9999.25   93.59930  -60.42610   45.36120   23.80970    8.66510    3.44930    0.01840    2.64500    0.11510    0.03630   23.39740   22.88140
 7782.50000   -9999.25   -9999.25   86.65240  -60.43500   41.98130   24.14340    8.66570    3.34270    0.01540    2.65820    0.08000    0.03270   23.85100   23.35830
 7783.00000   -9999.25   -9999.25   82.61600  -60.74270   39.52800   26.58180    8.66630    3.38850    0.00940    2.66360    0.05930    0.03010   35.24450   27.45180
 7783.50000   -9999.25   -9999.25   82.16330  -61.05050   38.21300   37.20620    8.63700    3.44910    0.00500    2.65590    0.07580    0.02970   38.26020   48.96970
 7784.00000   -9999.25   -9999.25   88.64750  -61.05930   38.18120   27.70970    8.60770    3.67010    0.00950    2.65810    0.09930    0.03080   27.53160   28.69600
 7784.50000   -9999.25   -9999.25   91.77530  -61.36710   38.15340   17.99200    8.60840    3.87810    0.03190    2.66720    0.10860    0.02950   14.35600   16.58650
 7785.00000   -9999.25   -9999.25   91.76870  -61.37590   36.52300   16.68720    8.57900    3.90810    0.03040    2.67060    0.10250    0.02460   18.24490   18.50990
 7785.50000   -9999.25   -9999.25   88.56720  -61.38470   35.11140   24.50670    8.57970    3.52260    0.02290    2.66730    0.07700    0.02370   24.66240   25.72110
