~Version ---------------------------------------------------
VERS.   2.0 : CWLS log ASCII Standard -VERSION 2.0
WRAP.    NO : One line per depth step
DLM . SPACE : Column Data Section Delimiter
~Well ------------------------------------------------------
STRT .F                 3425.0 : START DEPTH
STOP .F                12820.0 : STOP DEPTH
STEP .F                    0.5 : STEP
NULL .                -9999.25 : NULL VALUE
COMP .                         : COMPANY
WELL .                         : WELL
FLD  .                         : FIELD
LOC  .                         : LOCATION
PROV .                         : PROVINCE
CNTY .                         : COUNTY
STAT .                         : STATE
CTRY .                         : COUNTRY
SRVC .                         : SERVICE COMPANY
DATE .                         : DATE
UWI  .                         : UNIQUE WELL ID
API  .                         : API NUMBER
SLAT .WGS84    5.9335624534082 : SURFACE LATITUDE
SLON .WGS84 3.9753440296362186 : SURFACE LONGITUDE
DATUM.F                1734.37 : DEPTH DATUM ELEV
~Curve Information -----------------------------------------
DEPT.F     : 
DTCO.US/F  : COMPRESSIONAL-WAVE INTERVAL TRANSIT TIME ACOUSTIC SLOWNESS
DTSM.US/F  : SHEAR-WAVE INTERVAL TRANSIT TIME DELTA-T
GRR .GAPI  : GAMMA RAY FROM RESISTIVITY
SPR .MV    : SPONTANEOUS POTENTIAL FROM RES.
AFCO.MMHO  : 90-IN CONDUCTIVITY, 4-FT RESOLUTION
AT30.OHMM  : 30-IN. RESISTIVITY, 2-FT RESOLUTION
HCAL.IN    : HILT CALIPER
PEFZ.B/E   : HILT PHOTOELECTRIC FACTOR
HDRA.G/C3  : DELTA RHO HIP TOOL
RHOZ.G/C3  : HILT BULK DENSITY
NPHI.DEC   : NEUTRON POROSITY LIMESTONE
DPHI.DEC   : DENSITY POROSITY LIMESTONE
AT60.OHMM  : 60-IN. RESISTIVITY, 2-FT RESOLUTION
AT20.OHMM  : 20-IN. RESISTIVITY, 2-FT RESOLUTION
~Params ----------------------------------------------------
~Other -----------------------------------------------------
~ASCII -----------------------------------------------------
# ...
 12775.50000   -9999.25   -9999.25  135.85330  -61.49830  191.46670    5.21140    8.43440    3.75010    0.04990    2.68090    0.25710    0.02210    5.28030    5.52990
 12776.00000   -9999.25   -9999.25  135.40420  -61.50130  187.90640    4.93430    8.43570    3.75030    0.05730    2.68850    0.26370    0.01280    5.03470    5.34500
 12776.50000   -9999.25   -9999.25  134.05690  -61.80320  184.25470    5.10800    8.40710    3.75040    0.06180    2.69700    0.26430    0.00600    4.83350    5.23720
 12777.00000   -9999.25   -9999.25  132.93410  -61.80610  180.24260    5.94210    8.43840    3.75060    0.04250    2.70240    0.26300    0.00250    5.66150    6.00910
 12777.50000   -9999.25   -9999.25  132.26050  -61.80900  176.60350    6.63360    8.40970    3.78030    0.03800    2.70700    0.26180    0.00180    6.10730    6.75400
 12778.00000   -9999.25   -9999.25  132.03590  -61.51300  172.55790    6.32270    8.41130    3.81010    0.03650    2.70800    0.25890    0.00800    6.02580    6.39520
 12778.50000   -9999.25   -9999.25  133.60780  -61.21630  167.53270    6.19690    8.41260    3.85380    0.03660    2.69690    0.25290    0.01800    6.07010    6.26620
 12779.00000   -9999.25   -9999.25  136.75150  -60.92030  164.50860    6.24130    8.38420    3.91370    0.03810    2.67970    0.22950    0.02190    6.24120    6.31140
 12779.50000   -9999.25   -9999.25  139.22160  -60.62430  161.54120    6.28640    8.35580    3.97360    0.03810    2.66850    0.21340    0.02430    6.24390    6.31310
 12780.00000   -9999.25   -9999.25  141.46710  -60.62790  160.47550    6.24460    8.32740    3.95660    0.03810    2.66180    0.20690    0.02890    6.15810    6.26860
 12780.50000   -9999.25   -9999.25  143.72850  -60.63090  165.46930    6.11940    8.29900    3.83720    0.03590    2.65440    0.20520    0.03310    6.16310    6.36040
 12781.00000   -9999.25   -9999.25  145.99340  -60.33490  173.34830    5.95530    8.28510    3.78140    0.02690    2.64600    0.22510    0.03910    6.04030    6.44960
 12781.50000   -9999.25   -9999.25  148.00910  -60.33780  179.92590    5.79560    8.25600    3.78150    0.01970    2.63790    0.24060    0.04260    5.56520    6.09370
 12782.00000   -9999.25   -9999.25  147.26300  -60.34080  186.39720    5.64020    8.24350    3.78170    0.01550    2.64570    0.24210    0.04200    5.12740    5.82260
 12782.50000   -9999.25   -9999.25  145.05990  -60.04480  194.81370    5.26750    8.24480    3.81140    0.01690    2.65320    0.24290    0.03480    4.85550    5.74450
 12783.00000   -9999.25   -9999.25  144.16170  -60.04780  197.28820    4.75350    8.30590    3.81160    0.02600    2.64880    0.24610    0.03430    4.69360    5.74640
 12783.50000   -9999.25   -9999.25   -9999.25  -60.05140  191.79400    5.30660    8.45610    3.84130    0.03500    2.63540    0.25070    0.04430    4.96010    5.86740
 12784.00000   -9999.25   -9999.25   -9999.25  -60.05430  179.49910    6.13100    8.48710    3.87100    0.04360    2.62950    0.25280    0.04850    5.77000    6.24270
 12784.50000   -9999.25   -9999.25   -9999.25  -60.05730  168.19920    6.98680    8.42890    3.90080    0.05010    2.63110    0.24990    0.04670    6.62070    6.59650
 12785.00000   -9999.25   -9999.25   -9999.25  -60.06020  161.25340    6.28800    8.31120    3.96010    0.05820    2.63410    0.24700    0.04540    6.94830    5.67420
 12785.50000   -9999.25   -9999.25   -9999.25  -60.06320  157.16110    5.75600    8.22330    3.98980    0.06910    2.63260    0.24500    0.05380    5.85620    5.44690
 12786.00000   -9999.25   -9999.25   -9999.25  -60.06610  155.08080    5.65240    8.16490    4.04910    0.07400    2.62380    0.24200    0.05740    5.35870    5.48590
 12786.50000   -9999.25   -9999.25   -9999.25  -59.77010  153.74410    6.39780    8.19610    4.01970    0.06260    2.61310    0.23860    0.05910    5.86320    6.16590
 12787.00000   -9999.25   -9999.25   -9999.25  -59.47330  153.44470    6.99670    8.22720    3.96070    0.05400    2.62830    0.23640    0.05490    6.41790    7.02590
 12787.50000   -9999.25   -9999.25   -9999.25  -58.87910  151.46730    6.95070    8.28810    3.87210    0.05390    2.64320    0.23460    0.04050    6.73500    7.69600
 12788.00000   -9999.25   -9999.25   -9999.25  -58.88210  149.02440    7.04870    8.34890    3.87220    0.05760    2.66560    0.23550    0.02770    7.06120    8.18350
 12788.50000   -9999.25   -9999.25   -9999.25  -58.58590  146.39160    7.39760    8.40980    3.87230    0.06220    2.67310    0.24180    0.01930    7.31020    7.79400
 12789.00000   -9999.25   -9999.25   -9999.25  -58.29000  142.47210    7.50180    8.41110    3.93170    0.04780    2.67910    0.24870    0.01510    7.21330    7.58460
 12789.50000   -9999.25   -9999.25   -9999.25  -58.29300  139.08710    7.10300    8.44220    3.96140    0.03300    2.68210    0.25380    0.01400    6.92510    8.58400
 12790.00000   -9999.25   -9999.25   -9999.25  -58.29600  135.33930    7.40360    8.41370    4.02070    0.02630    2.68360    0.25870    0.01570    6.83270    9.71450
 12790.50000   -9999.25   -9999.25   -9999.25  -58.33690  130.50510    7.98630    8.38530    4.02090    0.02120    2.68670   -9999.25    0.01390    7.52470   10.12530
 12791.00000   -9999.25   -9999.25   -9999.25  -58.60150  126.64790    7.98930    8.38660    3.78430    0.01610    2.68820   -9999.25    0.01390    7.89770    9.39210
 12791.50000   -9999.25   -9999.25   -9999.25  -58.30550  122.24680    8.00310    8.38800    3.60700    0.01020    2.68380   -9999.25    0.01610    8.06480    9.01590
 12792.00000   -9999.25   -9999.25   -9999.25  -58.30840  116.90890    9.21200    8.38930    3.51800    0.00420    2.67480   -9999.25    0.02360    8.94190    9.99540
 12792.50000   -9999.25   -9999.25   -9999.25  -58.31140  109.89970   10.96350    8.39100    3.45830   -0.00020    2.66750   -9999.25    0.02400   10.47360   11.31170
 12793.00000   -9999.25   -9999.25   -9999.25  -58.01460  102.14540   11.90790    8.42170    3.39870   -0.00170    2.66900   -9999.25    0.02260   11.29850   12.11800
 12793.50000   -9999.25   -9999.25   -9999.25  -58.01830   99.12090   12.15810    8.42310    3.36880   -0.00020    2.67060   -9999.25    0.02210   11.45880   12.12120
 12794.00000   -9999.25   -9999.25   -9999.25  -57.72150  103.08960   10.60230    8.42440    3.37380    0.00730    2.66840   -9999.25    0.02310   10.89030   10.84120
 12794.50000   -9999.25   -9999.25   -9999.25  -57.42550  116.18140    9.43720    8.39590    3.46330    0.01170    2.65530   -9999.25    0.03120    9.39990    9.43450
 12795.00000   -9999.25   -9999.25   -9999.25  -57.12950  122.09540    8.51630    8.39730    3.52310    0.01620    2.64970   -9999.25    0.03630    8.14220    7.87570
 12795.50000   -9999.25   -9999.25   -9999.25  -56.83350  126.57650    7.42600    8.39870    3.61270    0.01920    2.65010   -9999.25    0.03190    7.45040    7.30540
 12796.00000   -9999.25   -9999.25   -9999.25  -56.53810  127.50900    6.84030    8.40000    3.67770    0.02370    2.65690   -9999.25    0.02310    6.86440    6.91720
 12796.50000   -9999.25   -9999.25   -9999.25  -56.24220  123.42310    8.06790    8.40130    3.75630    0.02970    2.67040   -9999.25    0.01810    7.50730    7.66870
 12797.00000   -9999.25   -9999.25   -9999.25  -56.24520  118.28230    8.82310    8.40270    3.65520    0.01630    2.66800   -9999.25    0.02260    8.79320    8.44380
 12797.50000   -9999.25   -9999.25   -9999.25  -55.94920  112.16570    9.32360    8.39730    3.57220    0.00740    2.64570   -9999.25    0.03920    9.16590    9.10790
 12798.00000   -9999.25   -9999.25   -9999.25  -56.25110  106.61440    9.65390    8.37540    3.54970    0.00440    2.63630   -9999.25    0.04380    9.35990    9.75710
 12798.50000   -9999.25   -9999.25   -9999.25  -56.29680  102.60060   10.00580    8.34700    3.58750    0.02530    2.63340   -9999.25    0.04340    9.55800   10.38110
 12799.00000   -9999.25   -9999.25   -9999.25  -56.55660  100.78450   10.34370    8.31000    3.72410    0.03570    2.63380   -9999.25    0.04320    9.89510   10.82590
