~Version ---------------------------------------------------
VERS.   2.0 : CWLS log ASCII Standard -VERSION 2.0
WRAP.    NO : One line per depth step
DLM . SPACE : Column Data Section Delimiter
~Well ------------------------------------------------------
STRT .F                 3425.0 : START DEPTH
STOP .F                12820.0 : STOP DEPTH
STEP .F                    0.5 : STEP
NULL .                -9999.25 : NULL VALUE
COMP .                         : COMPANY
WELL .                         : WELL
FLD  .                         : FIELD
LOC  .                         : LOCATION
PROV .                         : PROVINCE
CNTY .                         : COUNTY
STAT .                         : STATE
CTRY .                         : COUNTRY
SRVC .                         : SERVICE COMPANY
DATE .                         : DATE
UWI  .                         : UNIQUE WELL ID
API  .                         : API NUMBER
SLAT .WGS84    5.9335624534082 : SURFACE LATITUDE
SLON .WGS84 3.9753440296362186 : SURFACE LONGITUDE
DATUM.F                1734.37 : DEPTH DATUM ELEV
~Curve Information -----------------------------------------
DEPT.F     : 
DTCO.US/F  : COMPRESSIONAL-WAVE INTERVAL TRANSIT TIME ACOUSTIC SLOWNESS
DTSM.US/F  : SHEAR-WAVE INTERVAL TRANSIT TIME DELTA-T
GRR .GAPI  : GAMMA RAY FROM RESISTIVITY
SPR .MV    : SPONTANEOUS POTENTIAL FROM RES.
AFCO.MMHO  : 90-IN CONDUCTIVITY, 4-FT RESOLUTION
AT30.OHMM  : 30-IN. RESISTIVITY, 2-FT RESOLUTION
HCAL.IN    : HILT CALIPER
PEFZ.B/E   : HILT PHOTOELECTRIC FACTOR
HDRA.G/C3  : DELTA RHO HIP TOOL
RHOZ.G/C3  : HILT BULK DENSITY
NPHI.DEC   : NEUTRON POROSITY LIMESTONE
DPHI.DEC   : DENSITY POROSITY LIMESTONE
AT60.OHMM  : 60-IN. RESISTIVITY, 2-FT RESOLUTION
AT20.OHMM  : 20-IN. RESISTIVITY, 2-FT RESOLUTION
~Params ----------------------------------------------------
~Other -----------------------------------------------------
~ASCII -----------------------------------------------------
# ...
 12391.50000   73.39000  129.93560  114.78050 -101.00860  121.03270    8.30640    8.77990    3.71520    0.03960    2.65370    0.17760    0.03380    7.78870    8.44640
 12392.00000   73.06950  130.21790  113.66870 -100.99680  116.87750    8.84020    8.75120    3.62650    0.01210    2.66000    0.17530    0.03080    8.11910    8.82480
 12392.50000   73.04610  130.19960  112.77880 -100.68620  114.79400    9.34290    8.72250    3.53710    0.00340    2.65320    0.17480    0.03160    8.52180    9.50090
 12393.00000   72.70610  129.29410  112.34340 -100.67440  111.60680    9.47580    8.69370    3.47910    0.00280    2.65120    0.17680    0.03250    8.76240    9.63660
 12393.50000   71.80980  128.38860  112.12980 -100.36370  107.96680    9.28060    8.69480    3.45190    0.00430    2.65120    0.17770    0.03270    8.88700    9.18930
 12394.00000   71.48420  127.78000  111.24260 -100.35200  104.52870    9.22670    8.69310    3.45270    0.00580    2.65270    0.17660    0.03300    9.01340    9.12970
 12394.50000   71.46080  127.46850  110.79390 -100.33930  101.94560    9.61950    8.66710    3.45340    0.00730    2.65430    0.17320    0.03290    9.20450    9.51880
 12395.00000   72.32890  128.04780  110.36640 -100.32860   99.66990   10.23650    8.66820    3.45800    0.00880    2.65640    0.17010    0.02870    9.52940    9.99160
 12395.50000   72.90580  128.92400  113.29930 -100.31680   98.09160   11.11970    8.66920    3.48900    0.01180    2.66320    0.16690    0.02390   10.14700   10.92850
 12396.00000   73.47670  129.80020  116.67850 -100.30490   98.92810   11.99660    8.67020    3.54950    0.01180    2.67000    0.17640    0.02140   11.26790   11.95320
 12396.50000   73.44750  130.67280  118.48590 -100.29300  103.67010   12.59210    8.67130    3.60430    0.01180    2.67230    0.19130    0.02020   12.24270   12.54690
 12397.00000   72.53260  130.95880  118.27240 -100.57760  110.10100   10.25310    8.67230    3.56290    0.00890    2.65640    0.19480    0.02980   10.65290    9.67300
 12397.50000   72.21200  130.34660  117.60970 -100.26700  113.22390    8.75940    8.67340    3.48730    0.00590    2.63240    0.19600    0.04350    8.49870    8.49530
 12398.00000   71.59430  128.55020  117.17160 -100.25520  115.42060    8.52480    8.67440    3.45850    0.00290    2.61840    0.19530    0.05010    8.27130    8.80310
 12398.50000   71.57090  126.16000  116.95530 -100.24350  115.19970    8.76650    8.67550    3.49690    0.00290    2.62040    0.19230    0.05360    8.50560    9.29630
 12399.00000   71.25030  124.95750  117.64270 -100.23170  113.65970    8.77010    8.67650    3.55760    0.00300    2.62340    0.18990    0.05370    8.50910    8.97570
 12399.50000   70.92980  124.34900  118.10280 -100.22000  111.22980    9.07990    8.67750    3.57900    0.00450    2.62790    0.18690    0.05120    8.57110    8.62990
 12400.00000   70.90640  124.22640  117.88920 -100.51810  107.72460    9.66240    8.67960    3.51850    0.00450    2.63140    0.18100    0.04990    8.99530    8.99660
 12400.50000   70.91770  125.21960  116.77160 -100.56640  105.92630    9.67490    8.68700    3.50610    0.00600    2.63740    0.18090    0.04560   10.41670    9.75930
 12401.00000   72.41910  126.99550  115.20420 -100.61470  106.97740   10.07480    8.69440    3.49210    0.00750    2.64340    0.18720    0.04130   11.30850   10.61360
 12401.50000   73.27500  128.77130  114.08590 -100.66310  108.65370    9.80560    8.70180    3.46290    0.00900    2.64930    0.19400    0.03710   11.23880   11.44950
 12402.00000   73.27130  130.25170  113.41670 -100.71140  111.79700    8.84900    8.70920    3.43380    0.00910    2.65200    0.19010    0.03510    9.85170   10.19330
 12402.50000   72.97120  130.54280  112.74640 -100.72010  114.33790    8.26460    8.73020    3.40460    0.01050    2.64610    0.18590    0.03780    9.01510    9.19440
 12403.00000   72.07680  130.23860  113.87470 -100.69790  115.80980    8.32400    8.74610    3.40510    0.01050    2.64430    0.18320    0.04170    9.08080    8.95460
 12403.50000   71.47950  126.96620  115.67550 -100.68020  113.10390    8.61730    8.74750    3.34630    0.00900    2.64320    0.18940    0.04220    9.21000    9.21820
 12404.00000   71.17940  125.47550  116.35360 -100.66250  106.86280    8.92080    8.74910    3.31720    0.00870    2.64470    0.19530    0.04250    9.27710    9.27470
 12404.50000   71.17640  124.28180  115.23530 -100.64480  102.52950    9.55740    8.75040    3.28800    0.00720    2.64230    0.19620    0.04790    9.73730    9.47100
 12405.00000   71.17350  123.97900  111.19780 -100.62710  100.10130   10.74350    8.75170    3.25890    0.00460    2.63310    0.19070    0.05560   10.43270   10.64610
 12405.50000   71.17060  124.86400  104.91480 -100.60930   99.13840   13.29460    8.69350    3.26130    0.00410    2.62190    0.17550    0.05740   12.38890   12.55550
 12406.00000   71.76200  126.34290  102.22460 -100.59160  101.07240   14.17710    8.66490    3.31890    0.00310    2.62170    0.15880    0.05620   14.71190   14.11320
 12406.50000   72.35340  127.53420  104.02550 -100.57390  103.07500    8.93430    8.66640    3.34900    0.00520    2.62260    0.15260    0.05380    8.50300    9.16530
 12407.00000   72.94480  129.02730  108.32490 -100.55610  104.20250    9.83840    8.66770    3.35480    0.00760    2.62720    0.15650    0.05010   10.23680    9.68580
 12407.50000   73.53700  130.22570  111.25900 -100.53810  104.53340    9.75830    8.69880    3.38590    0.00820    2.63330    0.17490    0.04590    9.23990   10.16500
 12408.00000   73.53330  130.77380  112.82670 -100.52020  104.51510    9.38260    8.70010    3.40950    0.00910    2.63940    0.18670    0.04350    9.69820    9.36540
 12408.50000   72.34170  129.28170  113.74010 -100.50230  103.14610   10.54770    8.70140    3.43950    0.00760    2.64660    0.18970    0.04590   10.75510   10.52830
 12409.00000   72.33880  128.38500  114.82720 -100.48090  100.68770    9.38900    8.70270    3.46950    0.00540    2.63470    0.19150    0.05420    9.75710   10.10770
 12409.50000   72.03860  128.08220  115.28070 -100.16430   96.55720    9.13680    8.73380    3.47000    0.00470    2.62290    0.18510    0.05720    9.11130    9.37470
 12410.00000   71.73850  127.18550  111.01870 -100.14650   91.70930   10.41340    8.73610    3.47040    0.00470    2.61990    0.17560    0.05470    9.51710    9.54400
 12410.50000   71.14120  125.99180  101.36750 -100.12880   88.09730   13.06430    8.76620    3.48380    0.00620    2.62590    0.16780    0.05120   11.93900   11.71670
 12411.00000   70.49200  124.50110   98.00360 -100.11110   86.19640   15.62110    8.76140    3.50090    0.00770    2.62780    0.16420    0.05610   14.87480   15.06890
 12411.50000   68.75720  122.11960   97.10990  -99.79440   87.07460   16.39370    8.64570    3.48620    0.00770    2.61860    0.16360    0.05950   16.49320   16.36600
 12412.00000   67.56560  118.25330  103.40170  -99.77670   96.96690   11.71630    8.59160    3.47220    0.00770    2.61570    0.17190    0.05620   11.87180   11.00010
 12412.50000   67.56270  116.76270  110.81630  -99.75900  105.50250   10.28700    8.65870    3.45540    0.00470    2.61870    0.17960    0.05410   10.64240   10.34550
 12413.00000   69.04560  118.24160  115.08720  -99.74130  111.89020   10.14970    8.72060    3.41400    0.00330    2.62020    0.18670    0.05850   10.57390   10.78410
 12413.50000   70.52860  120.61140  116.88810  -99.72360  115.50010    8.79020    8.74430    3.41440    0.00630    2.61280    0.19030    0.06060    9.67590    9.73350
 12414.00000   72.01150  122.68420  117.56620  -99.70580  117.18740    8.04240    8.67700    3.41490    0.00780    2.61290    0.19020    0.05700    8.91510    8.78520
 12414.50000   73.49450  125.35100  116.22330  -99.68810  116.95320    7.87920    8.58800    3.41530    0.01070    2.61900    0.19020    0.05370    8.55920    8.37660
 12415.00000   73.49150  129.20560  110.83850  -99.67040  114.98300    7.88890    8.53990    3.44530    0.01370    2.62350    0.18960    0.05190    8.50330    8.32220
