~Version ---------------------------------------------------
VERS.   2.0 : CWLS log ASCII Standard -VERSION 2.0
WRAP.    NO : One line per depth step
DLM . SPACE : Column Data Section Delimiter
~Well ------------------------------------------------------
STRT .F                 3425.0 : START DEPTH
STOP .F                12820.0 : STOP DEPTH
STEP .F                    0.5 : STEP
NULL .                -9999.25 : NULL VALUE
COMP .                         : COMPANY
WELL .                         : WELL
FLD  .                         : FIELD
LOC  .                         : LOCATION
PROV .                         : PROVINCE
CNTY .                         : COUNTY
STAT .                         : STATE
CTRY .                         : COUNTRY
SRVC .                         : SERVICE COMPANY
DATE .                         : DATE
UWI  .                         : UNIQUE WELL ID
API  .                         : API NUMBER
SLAT .WGS84    5.9335624534082 : SURFACE LATITUDE
SLON .WGS84 3.9753440296362186 : SURFACE LONGITUDE
DATUM.F                1734.37 : DEPTH DATUM ELEV
~Curve Information -----------------------------------------
DEPT.F     : 
DTCO.US/F  : COMPRESSIONAL-WAVE INTERVAL TRANSIT TIME ACOUSTIC SLOWNESS
DTSM.US/F  : SHEAR-WAVE INTERVAL TRANSIT TIME DELTA-T
GRR .GAPI  : GAMMA RAY FROM RESISTIVITY
SPR .MV    : SPONTANEOUS POTENTIAL FROM RES.
AFCO.MMHO  : 90-IN CONDUCTIVITY, 4-FT RESOLUTION
AT30.OHMM  : 30-IN. RESISTIVITY, 2-FT RESOLUTION
HCAL.IN    : HILT CALIPER
PEFZ.B/E   : HILT PHOTOELECTRIC FACTOR
HDRA.G/C3  : DELTA RHO HIP TOOL
RHOZ.G/C3  : HILT BULK DENSITY
NPHI.DEC   : NEUTRON POROSITY LIMESTONE
DPHI.DEC   : DENSITY POROSITY LIMESTONE
AT60.OHMM  : 60-IN. RESISTIVITY, 2-FT RESOLUTION
AT20.OHMM  : 20-IN. RESISTIVITY, 2-FT RESOLUTION
~Params ----------------------------------------------------
~Other -----------------------------------------------------
~ASCII -----------------------------------------------------
# ...
 10471.50000   -9999.25   -9999.25   71.61130  -81.57890   91.48320   10.27840    9.97980    2.62490   -0.00150    2.60210    0.06210    0.06590   10.15810   10.20830
 10472.00000   -9999.25   -9999.25   73.85450  -81.58810   91.22340   10.56550    9.98100    2.63440   -0.00290    2.60170    0.06160    0.06410   10.58350   10.35970
 10472.50000   -9999.25   -9999.25   75.42610  -81.89710   90.71290   10.93520    9.98220    2.66620   -0.00430    2.60830    0.06610    0.06530   11.02660   10.74100
 10473.00000   -9999.25   -9999.25   77.44540  -81.90590   89.95540   11.32790    9.98330    2.72760   -0.00580    2.61130    0.07050    0.06100   11.56730   11.39790
 10473.50000   -9999.25   -9999.25   78.56920  -81.91470   89.94060   11.25800    9.98450    2.74790   -0.00570    2.61440    0.07410    0.05920   10.42780   10.57300
 10474.00000   -9999.25   -9999.25   77.45420  -81.92350   90.66710   10.28530    9.98570    2.77870   -0.00720    2.61450    0.07580    0.05730   10.58040    9.94300
 10474.50000   -9999.25   -9999.25   74.54820  -81.93220   92.07600   10.94150    9.98690    2.80950   -0.00710    2.60920    0.07100    0.05670   11.09920   10.57730
 10475.00000   -9999.25   -9999.25   73.20930  -81.94100   93.73330   11.40230    9.98810    2.81070   -0.00860    2.60400    0.06680    0.05990   11.32900   11.25190
 10475.50000   -9999.25   -9999.25   77.46750  -81.65130   96.56500   10.57580    9.98930    2.81180   -0.00850    2.60200    0.06440    0.06330   10.29250   10.50930
 10476.00000   -9999.25   -9999.25   81.50170  -81.66010   98.53390    9.28590    9.99050    2.79600   -0.00850    2.60050    0.06920    0.06560    8.79200    9.35630
 10476.50000   -9999.25   -9999.25   83.07330  -81.66890  100.99510    9.03570    9.99170    2.75530   -0.00840    2.59460    0.08130    0.06500    9.16020    8.79840
 10477.00000   -9999.25   -9999.25   80.39110  -81.67770  102.90050    9.87930   10.00220    2.75640   -0.00830    2.60210    0.08360    0.06610   10.01240    9.81970
 10477.50000   -9999.25   -9999.25   77.70900  -81.38790  104.09140   10.58150   10.02380    2.72780   -0.00820    2.60810    0.08330    0.06710   10.57560   10.59010
 10478.00000   -9999.25   -9999.25   80.91880  -81.39700  105.40710    9.22740   10.02500    2.75870   -0.00680    2.61560    0.08540    0.07080    9.15830    9.30000
 10478.50000   -9999.25   -9999.25   85.16640  -81.40770  105.05300    8.61740   10.02620    2.78950   -0.00670    2.62160    0.09250    0.06690    8.49340    8.56800
 10479.00000   -9999.25   -9999.25   86.67850  -81.11570  103.77040    9.88460   10.04110    2.84980   -0.00640    2.61720    0.09720    0.05910    9.60670    9.43470
 10479.50000   -9999.25   -9999.25   86.01130  -81.12670  100.90370   10.80710   10.05830    2.82140   -0.00510    2.61410    0.09320    0.05320   10.71840   10.39340
 10480.00000   -9999.25   -9999.25   83.77690  -81.13550  100.14860    9.88730   10.07540    2.82260   -0.00470    2.62170    0.08960    0.05500    9.87220   10.06790
 10480.50000   -9999.25   -9999.25   81.31860  -81.14430  100.87630    9.96650   10.09050    2.76460   -0.00350    2.63070    0.08720    0.05620    9.67080    9.69990
 10481.00000   -9999.25   -9999.25   79.53190  -81.15310  102.78030   10.52900   10.12170    2.76570   -0.00200    2.63520    0.08540    0.05230   10.07570   10.17870
 10481.50000   -9999.25   -9999.25   80.65570  -81.16180  104.71730   10.37770   10.12280    2.73730   -0.00040    2.63080    0.08380    0.04780    9.21680   10.39210
 10482.00000   -9999.25   -9999.25   83.79450  -81.17060  106.03120    9.36520   10.15380    2.76800    0.00170    2.63250    0.08640    0.04590    8.48910    9.18880
 10482.50000   -9999.25   -9999.25   86.26160  -81.17940  107.50370    8.86680   10.15490    2.79880    0.00260    2.63720    0.09480    0.04790    8.72420    8.64090
 10483.00000   -9999.25   -9999.25   86.48980  -81.18820  108.23260    8.68720   10.18590    2.82960    0.00270    2.64300    0.09470    0.04700    9.40620    9.12980
 10483.50000   -9999.25   -9999.25   85.82260  -81.19700  108.21430    9.62940   10.18700    2.83080    0.00270    2.64440    0.09230    0.04280    9.86740    9.84610
 10484.00000   -9999.25   -9999.25   84.93150  -81.20600  107.21150    9.89800   10.18820    2.82730    0.00130    2.63930    0.09110    0.04010    9.46950   10.05190
 10484.50000   -9999.25   -9999.25   83.59260  -81.21670  107.44390    9.37120   10.18940    2.83310    0.00050    2.63180    0.09050    0.04030    9.34010    9.32490
 10485.00000   -9999.25   -9999.25   82.70150  -81.22550  108.60500    9.63330   10.19050    2.86390   -0.00010    2.62540    0.09040    0.04350    9.59880    9.71800
 10485.50000   -9999.25   -9999.25   81.83450  -81.23430  110.85180    8.99640   10.22150    2.89470    0.00150    2.61480    0.09660    0.04800    8.66120    9.65370
 10486.00000   -9999.25   -9999.25   80.96750  -81.24300  113.34170    8.51760   10.22260    2.92540    0.00450    2.61190    0.10430    0.05340    8.03220    8.53590
 10486.50000   -9999.25   -9999.25   80.10050  -81.25180  114.81430    8.17560   10.22380    2.95620    0.00550    2.62380    0.10980    0.05370    8.60090    7.91810
 10487.00000   -9999.25   -9999.25   79.13780  -80.95990  114.73810    9.18700   10.22500    2.95740    0.00390    2.62680    0.10860    0.04820    9.14710    9.08670
 10487.50000   -9999.25   -9999.25   80.70930  -80.97090  114.03890    9.44360   10.25600    2.95860    0.00230    2.63580    0.10600    0.04580    8.71840    9.72790
 10488.00000   -9999.25   -9999.25   84.96750  -80.97970  113.28380    8.75150   10.25710    2.95980    0.00070    2.62990    0.10380    0.04460    8.42430    8.86680
 10488.50000   -9999.25   -9999.25   89.00170  -80.68990  113.26860    8.70040   10.25830    2.96090   -0.00080    2.61950    0.10170    0.05440    8.91370    8.60320
 10489.00000   -9999.25   -9999.25   88.55830  -80.69870  113.99700    9.19230   10.28930    2.96210   -0.00200    2.61510    0.09990    0.05740    9.39860    9.21530
 10489.50000   -9999.25   -9999.25   86.99560  -80.70750  115.19060    8.94490   10.29050    2.96330   -0.00110    2.61510    0.09770    0.05430    8.42250    8.90690
 10490.00000   -9999.25   -9999.25   86.55220  -80.71640  120.65230    8.29650   10.29170    2.90560    0.00050    2.62260    0.09540    0.05070    8.36450    8.37630
 10490.50000   -9999.25   -9999.25   87.97110  -80.72540  126.05180    8.58690   10.26290    2.87950    0.00200    2.62860    0.09420    0.04890    8.42150    8.61060
 10491.00000   -9999.25   -9999.25   91.60740  -80.73600  130.47270    8.29880   10.25410    2.88890    0.00200    2.62550    0.09710    0.05360    7.91750    7.77160
 10491.50000   -9999.25   -9999.25   97.76060  -80.44410  133.97950    7.64470   10.23550    2.89830    0.00210    2.61510    0.10600    0.05840    7.04690    7.06260
 10492.00000   -9999.25   -9999.25  100.89930  -80.75360  134.71020    7.04210   10.24920    2.90770    0.00210    2.60780    0.12260    0.06070    6.85620    6.73310
 10492.50000   -9999.25   -9999.25  101.57430  -80.76240  134.69500    7.54260   10.26790    2.91120    0.00220    2.60310    0.12970    0.06730    7.64940    7.61820
 10493.00000   -9999.25   -9999.25   97.32600  -80.77110  134.68050    8.02360   10.29880    2.91240    0.00230    2.59100    0.13090    0.07390    7.96970    7.99390
 10493.50000   -9999.25   -9999.25   94.64390  -80.77990  133.92270    7.29050   10.32980    2.92910   -0.00070    2.58130    0.13150    0.07620    7.29040    7.31450
 10494.00000   -9999.25   -9999.25   92.40950  -81.08720  133.90640    7.13650   10.34760    2.97400   -0.00360    2.59430    0.13020    0.07500    7.44130    7.11830
 10494.50000   -9999.25   -9999.25   91.74110  -81.09600  133.55230    7.75640   10.36210    3.03460   -0.00650    2.60390    0.12600    0.06650    7.85970    7.52070
 10495.00000   -9999.25   -9999.25   93.76160  -81.10480  133.87890    7.44500   10.36330    3.06530   -0.01240    2.61940    0.11700    0.05030    7.75230    7.89160
