~Version ---------------------------------------------------
VERS.   2.0 : CWLS log ASCII Standard -VERSION 2.0
WRAP.    NO : One line per depth step
DLM . SPACE : Column Data Section Delimiter
~Well ------------------------------------------------------
STRT .F                 3425.0 : START DEPTH
STOP .F                12820.0 : STOP DEPTH
STEP .F                    0.5 : STEP
NULL .                -9999.25 : NULL VALUE
COMP .                         : COMPANY
WELL .                         : WELL
FLD  .                         : FIELD
LOC  .                         : LOCATION
PROV .                         : PROVINCE
CNTY .                         : COUNTY
STAT .                         : STATE
CTRY .                         : COUNTRY
SRVC .                         : SERVICE COMPANY
DATE .                         : DATE
UWI  .                         : UNIQUE WELL ID
API  .                         : API NUMBER
SLAT .WGS84    5.9335624534082 : SURFACE LATITUDE
SLON .WGS84 3.9753440296362186 : SURFACE LONGITUDE
DATUM.F                1734.37 : DEPTH DATUM ELEV
~Curve Information -----------------------------------------
DEPT.F     : 
DTCO.US/F  : COMPRESSIONAL-WAVE INTERVAL TRANSIT TIME ACOUSTIC SLOWNESS
DTSM.US/F  : SHEAR-WAVE INTERVAL TRANSIT TIME DELTA-T
GRR .GAPI  : GAMMA RAY FROM RESISTIVITY
SPR .MV    : SPONTANEOUS POTENTIAL FROM RES.
AFCO.MMHO  : 90-IN CONDUCTIVITY, 4-FT RESOLUTION
AT30.OHMM  : 30-IN. RESISTIVITY, 2-FT RESOLUTION
HCAL.IN    : HILT CALIPER
PEFZ.B/E   : HILT PHOTOELECTRIC FACTOR
HDRA.G/C3  : DELTA RHO HIP TOOL
RHOZ.G/C3  : HILT BULK DENSITY
NPHI.DEC   : NEUTRON POROSITY LIMESTONE
DPHI.DEC   : DENSITY POROSITY LIMESTONE
AT60.OHMM  : 60-IN. RESISTIVITY, 2-FT RESOLUTION
AT20.OHMM  : 20-IN. RESISTIVITY, 2-FT RESOLUTION
~Params ----------------------------------------------------
~Other -----------------------------------------------------
~ASCII -----------------------------------------------------
# ...
 8545.50000   -9999.25   -9999.25   86.64180  -80.69710   39.78170   32.67760    8.72050    3.48540    0.05420    2.61900    0.12800    0.06270   31.41850   33.25170
 8546.00000   -9999.25   -9999.25   87.53730  -80.70590   38.35310   25.35240    8.72090    3.54010    0.05870    2.60730    0.14060    0.07170   18.92270   19.74920
 8546.50000   -9999.25   -9999.25   83.50750  -80.71470   35.76430   17.03110    8.75110    3.54080    0.06170    2.58250    0.14640    0.07820   18.26370   17.21740
 8547.00000   -9999.25   -9999.25   78.13430  -80.72360   33.47420   22.55940    8.75150    3.50720    0.06180    2.58480    0.14350    0.06930   27.02740   29.38010
 8547.50000   -9999.25   -9999.25   66.04480  -80.73240   30.41150   32.44550    8.75190    3.04960    0.05580    2.59380    0.11850    0.06450   45.89850   54.80590
 8548.00000   -9999.25   -9999.25   57.98510  -80.74140   29.03240   73.37740    8.76060    2.75020    0.03200    2.59980    0.09790    0.06210   68.17870   65.03900
 8548.50000   -9999.25   -9999.25   56.64180  -80.75040   31.04940   49.97300    8.78240    2.68310    0.00810    2.60430    0.10550    0.05980   44.67490   49.65870
 8549.00000   -9999.25   -9999.25   65.59700  -80.76110   45.15450   27.89600    8.75290    2.94280   -0.00080    2.60430    0.12110    0.05970   22.46840   23.10130
 8549.50000   -9999.25   -9999.25   83.50750  -80.76990   57.21870   17.37810    8.75340    3.19870   -0.00670    2.60430    0.17000    0.05890   16.85000   16.50990
 8550.00000   -9999.25   -9999.25   96.42550  -80.77650   58.94080   14.84120    8.76620    3.39760   -0.00520    2.60580    0.18970    0.05230   14.98800   14.59230
 8550.50000   -9999.25   -9999.25  111.94030  -80.61220   58.67730   14.43960    8.78400    3.42800   -0.00220    2.60880    0.19510    0.04620   14.29440   14.60860
 8551.00000   -9999.25   -9999.25  119.10450  -80.47830   56.73110   15.17960    8.78430    3.42880    0.00240    2.63720    0.19090    0.03950   14.99580   16.56320
 8551.50000   -9999.25   -9999.25  117.08960  -80.47830   54.76040   16.79120    8.80020    3.42970    0.00530    2.65210    0.18190    0.02850   15.94870   18.15840
 8552.00000   -9999.25   -9999.25  113.05970  -80.47830   54.17410   17.98310    8.81490    3.40060    0.00530    2.65810    0.16820    0.02760   17.31450   19.17780
 8552.50000   -9999.25   -9999.25  111.03060  -80.47830   54.16050   19.52570    8.81530    3.37170    0.00540    2.66260    0.16500    0.02840   19.19410   20.11720
 8553.00000   -9999.25   -9999.25  110.37310  -80.47830   54.24500   19.12800    8.84560    3.37250    0.00510    2.66090    0.16700    0.03500   19.71970   18.65170
 8553.50000   -9999.25   -9999.25  110.14930  -80.47830   55.61450   17.86020    8.84600    3.43260    0.00210    2.65210    0.17000    0.03330   18.90350   18.39410
 8554.00000   -9999.25   -9999.25  110.59700  -80.47830   56.64280   16.11430    8.84630    3.49270    0.00100    2.65220    0.17660    0.03380   17.30960   18.14010
 8554.50000   -9999.25   -9999.25  113.05970  -80.77730   57.84180   14.94330    8.84670    3.55270    0.00530    2.65370    0.17950    0.03410   16.27310   16.36470
 8555.00000   -9999.25   -9999.25  117.08960  -81.10490   57.55160   14.43960    8.84710    3.61280    0.01400    2.65320    0.18190    0.03360   14.48260   14.36390
 8555.50000   -9999.25   -9999.25  120.22390  -82.02570   53.91800   14.94330    8.84740    3.67290    0.01750    2.64930    0.18620    0.03230   13.61570   13.68910
 8556.00000   -9999.25   -9999.25  117.31340  -82.57100   45.88350   19.52570    8.84780    3.73300    0.01540    2.65150    0.18900    0.03300   19.71140   21.07480
 8556.50000   -9999.25   -9999.25  110.37310  -82.27200   39.95660   23.65920    8.84820    3.73370    0.01090    2.65420    0.18300    0.03700   23.39330   23.67400
 8557.00000   -9999.25   -9999.25   97.38810  -82.27200   33.22200   23.65920    8.84850    3.73440    0.00490    2.64900    0.16800    0.04430   23.87810   26.23170
 8557.50000   -9999.25   -9999.25   80.59700  -82.27200   26.52150   30.89510    8.84890    3.67500    0.00270    2.63230    0.13510    0.04900   32.50060   37.45420
 8558.00000   -9999.25   -9999.25   68.05970  -82.87000   21.35740   82.76960    8.84930    3.61720    0.00040    2.62020    0.09430    0.05320   64.93170   83.52470
 8558.50000   -9999.25   -9999.25   60.22390  -83.16890   19.73110   78.56370    8.84960    3.55290   -0.00020    2.60430    0.08170    0.05920   62.74030   78.05190
 8559.00000   -9999.25   -9999.25   59.31060  -83.16890   19.59500   65.28380    8.85000    3.46260   -0.00170    2.60600    0.08500    0.05440   53.22170   57.63880
 8559.50000   -9999.25   -9999.25   71.03060  -82.27200   25.40260   43.26140    8.85040    3.38200   -0.00020    2.62040    0.09500    0.04660   42.44680   40.90890
 8560.00000   -9999.25   -9999.25   88.63180  -81.67410   35.36410   28.27740    8.85070    3.35300    0.00130    2.63490    0.12140    0.04130   26.87700   26.37870
 8560.50000   -9999.25   -9999.25  103.88060  -81.67410   51.93600   23.17750    8.85110    3.39060    0.00140    2.64910    0.15710    0.03710   18.99540   18.34120
 8561.00000   -9999.25   -9999.25  107.01490  -81.67410   65.18730   17.02310    8.85650    3.48130   -0.00010    2.65850    0.17420    0.03060   15.28610   16.09870
 8561.50000   -9999.25   -9999.25  109.92540  -81.67410   76.92330   14.04890    8.88170    3.57220   -0.00010    2.66300    0.18920    0.02880   12.61640   12.66300
 8562.00000   -9999.25   -9999.25  115.29850  -81.67410   84.48830   11.28060    8.91190    3.64340    0.00000    2.65850    0.19840    0.03110   11.38320   11.11480
 8562.50000   -9999.25   -9999.25  125.59700  -81.67410   89.02840   10.38940    8.95030    3.72400    0.00000    2.64360    0.20600    0.03350   10.48380   10.44790
 8563.00000   -9999.25   -9999.25  129.17910  -81.37520   91.73670   10.24790    8.97240    3.81480    0.00150    2.64960    0.21320    0.03060   10.13000   10.09390
 8563.50000   -9999.25   -9999.25  130.52240  -81.07620   92.46660   10.24790    8.97280    3.84630    0.00450    2.66900    0.22320    0.02700   10.33970   10.02350
 8564.00000   -9999.25   -9999.25  132.31340  -81.07620   90.76640   10.46090    8.93210    3.87770    0.00610    2.67800    0.23010    0.02090   10.77300   10.44160
 8564.50000   -9999.25   -9999.25  133.88060  -80.77730   82.77590   11.05330    8.88400    3.87870    0.06130    2.67650    0.23660    0.01860   11.14780   10.80330
 8565.00000   -9999.25   -9999.25  132.98510  -80.77730   75.09220   10.74430    8.85450    3.86500    0.07180    2.67500    0.22410    0.01850   10.92020   11.10130
 8565.50000   -9999.25   -9999.25  127.16420  -80.47830   64.91800   11.31970    8.84060    3.88300    0.07330    2.68250    0.21340    0.01660   11.85540   11.38060
 8566.00000   -9999.25   -9999.25  117.70790  -80.47830   53.45780   13.20800    8.85520    3.95560    0.06980    2.69300    0.19850    0.01450   13.50310   14.32360
 8566.50000   -9999.25   -9999.25  107.10200  -80.77730   44.01260   19.12800    8.85560    3.95640    0.03900    2.64980    0.18300    0.02060   18.25400   22.78190
 8567.00000   -9999.25   -9999.25  103.25370  -81.07620   33.66890   24.99360    8.85600    3.98680    0.03610    2.64890    0.17460    0.02910   25.01690   20.41190
 8567.50000   -9999.25   -9999.25   96.49250  -81.07620   25.84840   19.52570    8.85640    3.77980    0.03460    2.67070    0.15370    0.03350   19.95210   21.55780
 8568.00000   -9999.25   -9999.25   81.71640  -81.70260   20.91070   28.27740    8.82690    3.51340    0.03080    2.68410    0.13350    0.01770   28.91820   37.54810
 8568.50000   -9999.25   -9999.25   69.40300  -81.97310   20.25050   67.09940    8.76760    3.27680    0.01770    2.66920    0.09950    0.01680   56.14720   71.49280
 8569.00000   -9999.25   -9999.25   64.25370  -81.97310   21.87080   72.85500    8.76800    3.06980    0.00370    2.64390    0.08100    0.02750   52.42480   51.44190
 8569.50000   -9999.25   -9999.25   76.11940  -81.97310   26.23760   48.27870    8.76830    3.01120   -0.00200    2.62750    0.08040    0.03900   48.94920   42.16190
