~Version ---------------------------------------------------
VERS.   2.0 : CWLS log ASCII Standard -VERSION 2.0
WRAP.    NO : One line per depth step
DLM . SPACE : Column Data Section Delimiter
~Well ------------------------------------------------------
STRT .F                 3425.0 : START DEPTH
STOP .F                12820.0 : STOP DEPTH
STEP .F                    0.5 : STEP
NULL .                -9999.25 : NULL VALUE
COMP .                         : COMPANY
WELL .                         : WELL
FLD  .                         : FIELD
LOC  .                         : LOCATION
PROV .                         : PROVINCE
CNTY .                         : COUNTY
STAT .                         : STATE
CTRY .                         : COUNTRY
SRVC .                         : SERVICE COMPANY
DATE .                         : DATE
UWI  .                         : UNIQUE WELL ID
API  .                         : API NUMBER
SLAT .WGS84    5.9335624534082 : SURFACE LATITUDE
SLON .WGS84 3.9753440296362186 : SURFACE LONGITUDE
DATUM.F                1734.37 : DEPTH DATUM ELEV
~Curve Information -----------------------------------------
DEPT.F     : 
DTCO.US/F  : COMPRESSIONAL-WAVE INTERVAL TRANSIT TIME ACOUSTIC SLOWNESS
DTSM.US/F  : SHEAR-WAVE INTERVAL TRANSIT TIME DELTA-T
GRR .GAPI  : GAMMA RAY FROM RESISTIVITY
SPR .MV    : SPONTANEOUS POTENTIAL FROM RES.
AFCO.MMHO  : 90-IN CONDUCTIVITY, 4-FT RESOLUTION
AT30.OHMM  : 30-IN. RESISTIVITY, 2-FT RESOLUTION
HCAL.IN    : HILT CALIPER
PEFZ.B/E   : HILT PHOTOELECTRIC FACTOR
HDRA.G/C3  : DELTA RHO HIP TOOL
RHOZ.G/C3  : HILT BULK DENSITY
NPHI.DEC   : NEUTRON POROSITY LIMESTONE
DPHI.DEC   : DENSITY POROSITY LIMESTONE
AT60.OHMM  : 60-IN. RESISTIVITY, 2-FT RESOLUTION
AT20.OHMM  : 20-IN. RESISTIVITY, 2-FT RESOLUTION
~Params ----------------------------------------------------
~Other -----------------------------------------------------
~ASCII -----------------------------------------------------
# ...
 8153.50000   -9999.25   -9999.25   51.95600  -79.90130   44.36210   27.89220    8.78030    2.89400    0.00230    2.62650    0.03950    0.03680   24.73390   26.50130
 8154.00000   -9999.25   -9999.25   52.40600  -79.90490   45.54250   23.98600    8.78090    2.88070    0.00250    2.65070    0.04230    0.03440   23.25450   25.26180
 8154.50000   -9999.25   -9999.25   54.64700  -79.90780   45.99980   20.62680    8.78150    2.88110    0.00390    2.65670    0.04610    0.03870   22.00670   21.43210
 8155.00000   -9999.25   -9999.25   55.99250  -79.91080   46.25120   19.66000    8.78210    2.88140    0.00270    2.64480    0.04360    0.04640   20.65520   20.28980
 8155.50000   -9999.25   -9999.25   53.46970  -79.91370   46.22830   21.79010    8.78270    2.91130    0.00060    2.61950    0.04080    0.05000   19.19430   22.03070
 8156.00000   -9999.25   -9999.25   49.72880  -79.91660   46.21100   21.05560    8.78330    2.91160   -0.00210    2.62100    0.03950    0.04600   20.69720   21.29000
 8156.50000   -9999.25   -9999.25   48.83490  -79.91960   46.30110   24.99360    8.78390    2.97130   -0.00950    2.63000    0.04010    0.04390   22.62570   24.75600
 8157.00000   -9999.25   -9999.25   49.06150  -79.92250   47.65710   27.51220    8.78460    3.03090   -0.01250    2.63300    0.04280    0.04450   22.01390   27.62670
 8157.50000   -9999.25   -9999.25   50.18310  -79.92540   47.93880   23.01900    8.78520    3.12020   -0.01090    2.63150    0.04740    0.04340   19.45920   23.92540
 8158.00000   -9999.25   -9999.25   49.96090  -79.92840   48.38560   19.52570    8.78580    3.17980   -0.00640    2.63000    0.05000    0.03920   18.67530   21.15030
 8158.50000   -9999.25   -9999.25   48.84430  -79.93130   49.08990   21.34640    8.78640    3.23950   -0.00180    2.63750    0.04900    0.03410   19.72780   21.59110
 8159.00000   -9999.25   -9999.25   48.39810  -79.93420   49.81750   22.71930    8.78690    3.29910    0.00100    2.64790    0.04780    0.03260   20.27600   23.28310
 8159.50000   -9999.25   -9999.25   47.95260  -79.93720   49.79460   22.68640    8.78750    3.32910    0.00430    2.65690    0.04660    0.03940   20.27600   22.46270
 8160.00000   -9999.25   -9999.25   50.19410  -79.94020   49.77710   21.34640    8.78810    3.27010    0.00550    2.66140    0.04660    0.04990   19.59300   21.01190
 8160.50000   -9999.25   -9999.25   53.33070  -79.94380   49.01560   20.20680    8.81860    3.00330    0.00070    2.62570    0.05020    0.04600   18.80370   20.16680
 8161.00000   -9999.25   -9999.25   56.46720  -79.94670   48.99460   20.48590    8.81910    2.82560   -0.00190    2.63160    0.05380    0.04600   18.80370   19.22350
 8161.50000   -9999.25   -9999.25   58.04100  -79.94970   48.97850   19.52570    8.84960    2.73680   -0.00190    2.63610    0.05800    0.05080   19.07580   19.35700
 8162.00000   -9999.25   -9999.25   59.44360  -79.95260   48.96030   20.48590    8.88000    2.70740    0.00010    2.63120    0.06210    0.05730   19.72780   20.73140
 8162.50000   -9999.25   -9999.25   62.18100  -79.95550   49.68430   20.76880    8.88060    2.76710    0.00220    2.61370    0.06750    0.04990   19.06320   19.89760
 8163.00000   -9999.25   -9999.25   64.98400  -79.95850   50.84490   18.61040    8.91100    2.79710    0.00620    2.61630    0.06990    0.04810   18.17040   18.32800
 8163.50000   -9999.25   -9999.25   65.43340  -79.96140   52.61790   18.99730    8.91230    2.85670    0.00780    2.63240    0.06930    0.04390   19.06320   19.90030
 8164.00000   -9999.25   -9999.25   64.09290  -79.96430   53.34320   21.34640    8.94210    2.85700    0.01080    2.63770    0.06870    0.04300   20.69720   21.45980
 8164.50000   -9999.25   -9999.25   62.52790  -79.96730   54.19610   18.99730    8.94270    2.85730    0.01310    2.63780    0.06690    0.04330   18.54780   20.59670
 8165.00000   -9999.25   -9999.25   64.32120  -79.97020   55.53260   16.44920    8.97310    2.85760    0.01310    2.63810    0.06630    0.04270   15.73490   17.95990
 8165.50000   -9999.25   -9999.25   65.89050  -79.97310   55.83360   17.03860    9.00360    2.82820    0.01140    2.63970    0.06780    0.04390   16.06170   16.65690
 8166.00000   -9999.25   -9999.25   65.89270  -79.97610   56.27970   18.26240    9.00420    2.82850    0.00420    2.64230    0.07210    0.04450   17.67900   17.64180
 8166.50000   -9999.25   -9999.25   65.44720  -79.97910   56.96510   19.52570    9.00480    2.82880   -0.00030    2.63940    0.07710    0.04570   18.20520   18.84630
 8167.00000   -9999.25   -9999.25   65.67320  -79.98210   57.69300   17.14020    8.97550    2.82970   -0.00170    2.63290    0.08180    0.04750   16.73590   17.35990
 8167.50000   -9999.25   -9999.25   67.91420  -80.28460   57.67010   15.67820    8.96790    2.85910   -0.00020    2.62630    0.07940    0.04800   14.89550   16.10050
 8168.00000   -9999.25   -9999.25   68.81820  -80.28750   57.65230   16.22510    8.94680    2.85690    0.00130    2.62090    0.07470    0.03590   15.45550   15.66590
 8168.50000   -9999.25   -9999.25   67.01250  -80.29040   57.63370   17.37690    8.94750    2.83000    0.00430    2.63280    0.07270    0.02980   16.93120   17.24480
 8169.00000   -9999.25   -9999.25   65.65530  -80.29340   56.12710   18.61040    8.91810    2.82610    0.00730    2.65340    0.07330    0.02720   18.93300   18.46930
 8169.50000   -9999.25   -9999.25   66.13250  -80.29630   55.04110   19.25970    8.91880    2.83060    0.00880    2.66410    0.07590    0.03060   19.45920   18.85420
 8170.00000   -9999.25   -9999.25   68.37350  -80.29920   53.81370   19.52570    8.94930    2.86050    0.00900    2.67010    0.07560    0.03940   18.54780   18.34560
 8170.50000   -9999.25   -9999.25   69.71900  -80.30220   53.09830   18.35690    8.94990    2.89730    0.00730    2.66220    0.07410    0.04400   17.67900   17.85070
 8171.00000   -9999.25   -9999.25   69.27350  -80.60410   53.08320   17.61690    8.95040    2.92050    0.00590    2.64280    0.07290    0.04540   17.67900   17.85190
 8171.50000   -9999.25   -9999.25   68.38010  -80.60700   53.80700   17.61210    8.95100    2.95040    0.00440    2.63510    0.07450    0.04870   18.80370   18.98890
 8172.00000   -9999.25   -9999.25   68.60620  -80.60990   55.38340   19.12800    8.95160    2.96020    0.00140    2.63210    0.08360    0.05100   17.80060   19.12080
 8172.50000   -9999.25   -9999.25   72.86210  -80.61310   57.93090   16.65020    8.96990    2.99110   -0.00010    2.62770    0.09140    0.05150   16.28340   17.10930
 8173.00000   -9999.25   -9999.25   76.67030  -80.61580   61.17930   15.78610    8.98280    3.01070   -0.00020    2.62620    0.09430    0.05340   15.73490   16.56020
 8173.50000   -9999.25   -9999.25   79.80680  -80.61880   62.24290   15.04620    8.98340    3.01100   -0.00180    2.62030    0.09610    0.05460   15.10100   15.67800
 8174.00000   -9999.25   -9999.25   80.96140  -80.62240   63.43190   14.73980    9.01380    3.01130   -0.00450    2.61580    0.09850    0.05570   14.99790   15.15070
 8174.50000   -9999.25   -9999.25   77.57240  -80.62540   64.09730   15.46460    9.01440    3.01160   -0.00450    2.61290    0.10150    0.05160   15.30940   15.67990
 8175.00000   -9999.25   -9999.25   76.67910  -80.62830   64.82170   14.84120    9.01500    3.01190   -0.00450    2.61590    0.10270    0.04680   14.87850   15.15300
 8175.50000   -9999.25   -9999.25   78.61690  -80.63120   65.54560   13.95290    9.04540    3.01220   -0.00300    2.62630    0.10570    0.04620   14.10080   14.34560
 8176.00000   -9999.25   -9999.25   84.39220  -80.63420   63.91290   13.20800    9.04600    3.01250   -0.00150    2.62930    0.10690    0.04440   13.62580   13.76860
 8176.50000   -9999.25   -9999.25   84.96930  -80.63710   61.63590   14.43960    9.04660    3.01280   -0.00090    2.63080    0.10150    0.04200   15.10100   14.64550
 8177.00000   -9999.25   -9999.25   80.27050  -80.64000   59.54500   15.57110    9.04720    3.01310    0.00010    2.63090    0.09670    0.03900   16.62160   15.79330
 8177.50000   -9999.25   -9999.25   71.76530  -80.64300   58.43870   16.90670    9.04780    3.01340    0.00070    2.63980    0.09130    0.03660   17.43840   17.14810
