~Version ---------------------------------------------------
VERS.   2.0 : CWLS log ASCII Standard -VERSION 2.0
WRAP.    NO : One line per depth step
DLM . SPACE : Column Data Section Delimiter
~Well ------------------------------------------------------
STRT .F                 3425.0 : START DEPTH
STOP .F                12820.0 : STOP DEPTH
STEP .F                    0.5 : STEP
NULL .                -9999.25 : NULL VALUE
COMP .                         : COMPANY
WELL .                         : WELL
FLD  .                         : FIELD
LOC  .                         : LOCATION
PROV .                         : PROVINCE
CNTY .                         : COUNTY
STAT .                         : STATE
CTRY .                         : COUNTRY
SRVC .                         : SERVICE COMPANY
DATE .                         : DATE
UWI  .                         : UNIQUE WELL ID
API  .                         : API NUMBER
SLAT .WGS84    5.9335624534082 : SURFACE LATITUDE
SLON .WGS84 3.9753440296362186 : SURFACE LONGITUDE
DATUM.F                1734.37 : DEPTH DATUM ELEV
~Curve Information -----------------------------------------
DEPT.F     : 
DTCO.US/F  : COMPRESSIONAL-WAVE INTERVAL TRANSIT TIME ACOUSTIC SLOWNESS
DTSM.US/F  : SHEAR-WAVE INTERVAL TRANSIT TIME DELTA-T
GRR .GAPI  : GAMMA RAY FROM RESISTIVITY
SPR .MV    : SPONTANEOUS POTENTIAL FROM RES.
AFCO.MMHO  : 90-IN CONDUCTIVITY, 4-FT RESOLUTION
AT30.OHMM  : 30-IN. RESISTIVITY, 2-FT RESOLUTION
HCAL.IN    : HILT CALIPER
PEFZ.B/E   : HILT PHOTOELECTRIC FACTOR
HDRA.G/C3  : DELTA RHO HIP TOOL
RHOZ.G/C3  : HILT BULK DENSITY
NPHI.DEC   : NEUTRON POROSITY LIMESTONE
DPHI.DEC   : DENSITY POROSITY LIMESTONE
AT60.OHMM  : 60-IN. RESISTIVITY, 2-FT RESOLUTION
AT20.OHMM  : 20-IN. RESISTIVITY, 2-FT RESOLUTION
~Params ----------------------------------------------------
~Other -----------------------------------------------------
~ASCII -----------------------------------------------------
# ...
 12007.50000   79.59230  135.64920  127.23100  -93.24330  508.69390    1.78470    9.04020    4.61760    0.11440    2.55340    0.32310    0.09340    1.71180    1.78560
 12008.00000   81.25950  137.41330  127.46440  -92.63950  477.28580    1.69010    9.02240    4.49940    0.07370    2.57100    0.30370    0.08410    1.65470    1.67960
 12008.50000   80.95940  135.58570  124.77860  -92.33470  414.87700    1.81090    9.04070    4.38120    0.03700    2.58700    0.27500    0.07480    2.14860    1.84990
 12009.00000   81.25360  132.33000  120.74560  -92.02990  340.06630    2.81070    8.98160    4.38140    0.01540    2.60510    0.23250    0.06730    3.59540    2.68050
 12009.50000   84.22250  134.84900  118.95450  -92.32300  273.34140    5.58550    8.93650    4.38150    0.02660    2.60640    0.19790    0.06510    4.93120    5.47270
 12010.00000   86.29980  139.41740  121.04990  -92.31690  229.61600    7.15380    8.92260    4.44080    0.04630    2.56550    0.19610    0.08760    4.21360    7.30340
 12010.50000   87.18910  142.36940  152.88440  -92.30970  200.35890    6.72800    8.86340    4.41140    0.08160    2.53630    0.23310    0.10860    3.65020    6.37080
 12011.00000   87.18540  144.13360  153.34240  -92.00490  186.36540    4.50230    8.81750    4.44110    0.10070    2.52320    0.24580    0.11340    3.38650    4.52380
 12011.50000   86.88530  146.19470  138.53160  -91.70010  172.60390    3.80230    8.70250    4.50040    0.09120    2.53690    0.23720    0.10410    3.41140    3.94610
 12012.00000   86.28800  147.07250  119.00460  -91.39530  161.94160    3.94430    8.73350    4.50010    0.04720    2.56720    0.19130    0.08920    4.80910    3.91270
 12012.50000   85.98790  146.15960  103.74400  -91.09040  154.56370    5.75540    8.76430    4.37980    0.03030    2.62860    0.16800    0.05920    7.93760    4.91980
 12013.00000   83.60760  141.98470  101.50510  -91.08460  152.75580    9.63380    8.82490    4.26420    0.02180    2.65940    0.16200    0.02780   10.54930    7.35660
 12013.50000   81.22720  138.10670  103.53720  -90.77980  172.91750   10.60870    8.85570    4.32940    0.01860    2.66890    0.16360    0.02410   11.58540   11.39580
 12014.00000   76.17230  135.11960  105.34240  -91.07430  221.98990    5.19870    8.88650    4.41990    0.02160    2.67330    0.18620    0.03070    5.60340    5.61430
 12014.50000   76.46660  136.28990  108.49500  -91.36740  286.45100    2.20540    8.82800    4.54030    0.02460    2.62620    0.19740    0.05160    2.13160    2.18030
 12015.00000   78.55330  138.05400  111.42300  -91.65920  310.84560    3.28510    8.62070    4.59560    0.02450    2.61270    0.20800    0.05820    3.49420    3.62360
 12015.50000   79.75760  140.41220  116.37200  -91.95220  325.43110    4.20750    8.68120    4.62620    0.02320    2.60960    0.22220    0.06410    4.59930    4.42340
 12016.00000   80.66060  145.14590  120.64740  -92.24520  340.90140    4.12340    8.74180    4.65680    0.04020    2.59780    0.24180    0.08810    3.13410    3.55370
 12016.50000   81.20970  147.80100  122.67720  -92.53830  361.11010    2.60450    8.83210    4.70900    0.05950    2.52370    0.26250    0.15280    2.15030    2.48900
 12017.00000   80.61160  148.37730  115.94950  -92.53210  394.12280    2.00740    8.83750    4.70920    0.08630    2.41420    0.29040    0.20790    2.00870    2.38970
 12017.50000   78.52850  145.26720  109.67090  -92.52500  406.24530    2.14050    8.74490    4.69970    0.09970    2.34780    0.31730    0.21390    2.25820    2.45780
 12018.00000   76.44530  141.07320  107.43430  -92.22020  413.91600    2.37880    8.68640    4.67990    0.10420    2.40570    0.32730    0.19700    2.45300    2.56240
 12018.50000   74.95650  138.81770  108.34140  -92.21430  417.86260    2.71870    8.62790    4.68000    0.10570    2.48240    0.32770    0.16340    2.55730    2.82210
 12019.00000   73.68440  138.50310  109.25390  -92.20850  418.59580    2.97360    8.56940    4.63850    0.10710    2.59610    0.31410    0.11360    2.61170    3.00510
 12019.50000   71.97860  137.59470  109.96680  -92.20260  418.64600    3.07830    8.62990    4.60820    0.10270    2.62290    0.28800    0.05420    2.53810    3.10990
 12020.00000   70.78700  133.12280  111.57260  -92.19670  421.54530    2.70340    8.69050    4.53450    0.10570    2.61990    0.23230    0.04870    2.29500    2.78860
 12020.50000   69.00100  127.46310  115.09420  -92.19080  427.28370    2.45670    8.72130    4.45890    0.13100    2.56940    0.22430    0.06670    2.14390    2.62310
 12021.00000   68.70160  124.47600  121.86100  -92.18500  433.40950    2.29470    8.71950    4.51880    0.18900    2.54120    0.26220    0.09780    2.05850    2.43380
 12021.50000   72.85840  129.76100  124.78900  -92.17910  435.28710    2.20300    8.60430    4.57890    0.20680    2.54000    0.26710    0.10680    2.04510    2.27370
 12022.00000   79.09620  137.50550  126.81880  -92.17320  437.10370    2.14400    9.51590    4.63900    0.22770    2.54120    0.26260    0.11090    2.14690    2.19820
 12022.50000   84.44250  148.47530  125.48040  -92.16740  420.74520    2.18970    9.64800    4.71080    0.17080    2.55160    0.24250    0.10180    2.46370    2.32340
 12023.00000   87.11490  143.11260  112.46530  -92.46050  404.52290    2.65470    8.87810    4.77010    0.13470    2.56940    0.23580    0.09830    2.84670    2.87540
 12023.50000   83.54510  140.12540  108.20770  -92.45440  387.60570    3.22050    8.62270    4.78010    0.09970    2.58880    0.24130    0.08250    3.35760    3.46220
 12024.00000   83.83930  142.78050  107.31610  -92.14830  375.14610    3.74450    8.72880    4.62250    0.10300    2.61110    0.24280    0.07080    3.69770    3.55550
 12024.50000   85.61940  146.32640  106.87810  -92.14240  374.64170    3.02500    9.05690    4.50430    0.11070    2.62000    0.24250    0.05820    3.20330    2.70760
 12025.00000   86.80520  150.76320  107.11150  -92.13650  378.34270    2.56950    8.86460    4.41570    0.11980    2.62440    0.24140    0.05230    2.64480    2.44430
 12025.50000   88.58540  156.38780  107.56950  -92.13070  380.56090    2.33510    8.75320    4.32710    0.12710    2.62450    0.24030    0.05060    2.31780    2.28100
 12026.00000   92.14860  159.33980  113.19210  -92.12480  362.99360    2.27250    8.69400    4.23850    0.10130    2.60220    0.23780    0.05550    2.43790    2.31070
 12026.50000   92.74000  161.69860  118.81480  -92.41790  330.01720    2.60820    8.65500    4.14990    0.09260    2.58290    0.23690    0.07330    2.95610    2.73250
 12027.00000   92.12390  160.49250  125.33560  -92.41200  314.02710    2.99320    8.54580    4.09080    0.08010    2.55450    0.24140    0.09010    3.60830    3.26760
 12027.50000   91.80920  157.50540  133.20370  -92.70660  300.12530    3.65380    8.47560    4.12060    0.07050    2.53980    0.24840    0.10010    4.14070    3.77580
 12028.00000   90.44330  152.68700  135.90720  -92.99820  295.06690    4.10760    8.40930    4.15030    0.06440    2.54130    0.24350    0.10140    4.34580    3.96370
 12028.50000   79.65170  146.57210  137.03890  -92.99230  295.70670    3.75850    8.41060    4.15040    0.06050    2.54130    0.23860    0.10130    3.58870    3.62750
 12029.00000   75.19120  138.61060  137.53980  -93.58430  299.50160    3.34600    8.44140    4.18020    0.05800    2.53210    0.23650    0.10240    3.19520    3.29720
 12029.50000   74.29740  136.35130  142.11110  -94.77430  302.92600    3.12530    8.51610    4.12090    0.07150    2.50160    0.25620    0.11860    3.02610    3.03840
 12030.00000   82.31750  148.20760  159.52130  -95.66530  306.91050    2.97860    8.63690    4.03160    0.09210    2.47390    0.29060    0.13470    2.96550    2.91740
 12030.50000   91.82430  165.71050  160.68830  -96.25730  294.26680    2.94050    8.75930    3.97180    0.10340    2.47150    0.32970    0.13880    3.15620    3.25760
 12031.00000  101.03380  175.78940  152.80700  -95.05420  264.18560    3.61460    8.95460    3.91450    0.08210    2.47020    0.34920    0.14240    3.64680    3.51470
