~Version ---------------------------------------------------
VERS.   2.0 : CWLS log ASCII Standard -VERSION 2.0
WRAP.    NO : One line per depth step
DLM . SPACE : Column Data Section Delimiter
~Well ------------------------------------------------------
STRT .F                 3425.0 : START DEPTH
STOP .F                12820.0 : STOP DEPTH
STEP .F                    0.5 : STEP
NULL .                -9999.25 : NULL VALUE
COMP .                         : COMPANY
WELL .                         : WELL
FLD  .                         : FIELD
LOC  .                         : LOCATION
PROV .                         : PROVINCE
CNTY .                         : COUNTY
STAT .                         : STATE
CTRY .                         : COUNTRY
SRVC .                         : SERVICE COMPANY
DATE .                         : DATE
UWI  .                         : UNIQUE WELL ID
API  .                         : API NUMBER
SLAT .WGS84    5.9335624534082 : SURFACE LATITUDE
SLON .WGS84 3.9753440296362186 : SURFACE LONGITUDE
DATUM.F                1734.37 : DEPTH DATUM ELEV
~Curve Information -----------------------------------------
DEPT.F     : 
DTCO.US/F  : COMPRESSIONAL-WAVE INTERVAL TRANSIT TIME ACOUSTIC SLOWNESS
DTSM.US/F  : SHEAR-WAVE INTERVAL TRANSIT TIME DELTA-T
GRR .GAPI  : GAMMA RAY FROM RESISTIVITY
SPR .MV    : SPONTANEOUS POTENTIAL FROM RES.
AFCO.MMHO  : 90-IN CONDUCTIVITY, 4-FT RESOLUTION
AT30.OHMM  : 30-IN. RESISTIVITY, 2-FT RESOLUTION
HCAL.IN    : HILT CALIPER
PEFZ.B/E   : HILT PHOTOELECTRIC FACTOR
HDRA.G/C3  : DELTA RHO HIP TOOL
RHOZ.G/C3  : HILT BULK DENSITY
NPHI.DEC   : NEUTRON POROSITY LIMESTONE
DPHI.DEC   : DENSITY POROSITY LIMESTONE
AT60.OHMM  : 60-IN. RESISTIVITY, 2-FT RESOLUTION
AT20.OHMM  : 20-IN. RESISTIVITY, 2-FT RESOLUTION
~Params ----------------------------------------------------
~Other -----------------------------------------------------
~ASCII -----------------------------------------------------
# ...
 10087.50000   -9999.25   -9999.25   90.69210  -77.16340   49.40560   20.73240    9.54540    3.20250   -0.00370    2.61180    0.12050    0.05870   19.78540   19.72840
 10088.00000   -9999.25   -9999.25   90.51020  -76.87080   49.38810   21.16160    9.54640    3.19170   -0.00220    2.62230    0.11840    0.05440   20.61220   20.98540
 10088.50000   -9999.25   -9999.25   94.26270  -76.28120   50.36420   20.16910    9.51770    3.16230   -0.00070    2.62830    0.12450    0.04620   19.36280   21.42310
 10089.00000   -9999.25   -9999.25   96.12220  -76.28700   52.33240   19.75770    9.51880    3.11950   -0.00060    2.63730    0.12840    0.02870   18.84090   19.33440
 10089.50000   -9999.25   -9999.25   94.11390  -75.99290   54.65970   20.02900    9.49000    3.05830    0.00240    2.65960    0.12170    0.02320   18.33310   19.60440
 10090.00000   -9999.25   -9999.25   92.77560  -76.00030   57.20650   19.75470    9.49110    3.01470    0.00390    2.66800    0.11670    0.02800   17.71720   19.87740
 10090.50000   -9999.25   -9999.25   94.12720  -76.30470   60.45900   18.95760    9.49210    2.98530    0.00380    2.65530    0.11450    0.03100   17.00510   18.69180
 10091.00000   -9999.25   -9999.25   97.04420  -76.60910   63.00610   17.45980    9.49320    3.00480    0.00240    2.65230    0.11300    0.03570   15.88070   16.86950
 10091.50000   -9999.25   -9999.25  100.18520  -77.51050   64.94040   15.97060    9.49420    3.14260    0.00100    2.65090    0.11430    0.03690   14.62890   15.54080
 10092.00000   -9999.25   -9999.25  103.77390  -78.42370   66.35680   14.70880    9.49520    3.29960    0.00100    2.65100    0.12480    0.03330   14.33220   14.71430
 10092.50000   -9999.25   -9999.25  107.58650  -79.61190   66.10960   14.91080    9.46640    3.35960    0.00100    2.65400    0.13600    0.03090   14.63090   14.31860
 10093.00000   -9999.25   -9999.25  113.41400  -79.96380   65.58640   15.64920    9.46760    3.36050    0.00110    2.65850    0.14290    0.03210   15.56200   13.93360
 10093.50000   -9999.25   -9999.25  117.67440  -80.52050   63.99210   16.07610    9.46860    3.36140    0.00110    2.64810    0.14590    0.03930   16.78060   14.12770
 10094.00000   -9999.25   -9999.25  120.14370  -80.82490   61.70380   14.74230    9.46960    3.39180   -0.00040    2.63780    0.15260    0.04410   17.48560   15.66330
 10094.50000   -9999.25   -9999.25  119.03100  -80.83080   62.56880   13.16400    9.44070    3.42230   -0.00380    2.63780    0.15680    0.04470   17.49060   13.97570
 10095.00000   -9999.25   -9999.25  118.58950  -80.83670   67.88090   13.44960    9.44200    3.45280   -0.00830    2.63940    0.15970    0.04400   14.31690   11.85600
 10095.50000   -9999.25   -9999.25  120.83530  -81.14110   75.50940   11.61630    9.44300    3.51280   -0.01130    2.63940    0.15850    0.04400   12.24960   10.45260
 10096.00000   -9999.25   -9999.25  122.85680  -81.74400   89.26900   10.11670    9.44400    3.54330   -0.01360    2.64000    0.15670    0.04250   12.41940    8.87460
 10096.50000   -9999.25   -9999.25  123.75900  -82.04840  101.94350    9.54560    9.44510    3.60330   -0.01080    2.65060    0.15670    0.03440   12.33570    9.37560
 10097.00000   -9999.25   -9999.25  124.68250  -82.65130  121.18800    8.67180    9.46150    3.57460   -0.00690    2.65440    0.15910    0.03320   10.75750    8.12090
 10097.50000   -9999.25   -9999.25  127.63170  -83.25420  130.30850    7.82410    9.47690    3.48670   -0.00380    2.63460    0.17270    0.03340    8.23680    6.84410
 10098.00000   -9999.25   -9999.25  131.31820  -83.55860  135.79210    7.05930    9.47800    3.42840   -0.00080    2.61930    0.19770    0.04840    7.18300    6.13460
 10098.50000   -9999.25   -9999.25  135.67090  -83.86300  141.94470    6.86800    9.50880    3.42930    0.00460    2.60960    0.22330    0.06390    6.94160    5.80840
 10099.00000   -9999.25   -9999.25  140.80870  -84.16730  142.79490    7.35470    9.56950    3.40060    0.02520    2.62160    0.23750    0.06430    7.38350    7.18300
 10099.50000   -9999.25   -9999.25  142.83030  -84.47170  125.74130    8.78850    9.68960    3.46070    0.05500    2.64210    0.24410    0.05770    8.64350    8.46720
 10100.00000   -9999.25   -9999.25  139.83510  -84.77610   92.37250   10.86280    9.79170    3.57990    0.08110    2.66160    0.24400    0.03070   10.55500   11.07410
 10100.50000   -9999.25   -9999.25  127.91760  -84.48410   88.18060   14.79250    9.77960    3.74830    0.08630    2.67610    0.20680    0.01980   11.93560   15.90360
 10101.00000   -9999.25   -9999.25  116.36420  -84.19200   89.49090   17.56480    9.72020    3.93740    0.06320    2.69060    0.16950    0.01070   13.04180   14.85400
 10101.50000   -9999.25   -9999.25  106.11940  -83.88970   93.12340   10.72670    9.66050    3.87940    0.00720    2.70400    0.14970    0.00710   10.84250   11.45300
 10102.00000   -9999.25   -9999.25  107.46270  -83.59400   95.02040    9.81440    9.60100    3.58470   -0.00200    2.68770    0.14720    0.00360    9.71930    9.78600
 10102.50000   -9999.25   -9999.25  113.50750  -84.19400   96.08740    9.68280    9.54140    3.34920   -0.00580    2.67590    0.15370    0.02560    9.52360    9.72120
 10103.00000   -9999.25   -9999.25  116.64180  -85.40530   97.27530    9.96920    9.51150    3.29120   -0.00660    2.66550    0.15020    0.02990    9.79590   10.00360
 10103.50000   -9999.25   -9999.25  116.86570  -86.58810   97.41240   10.61600    9.48180    3.20360   -0.00570    2.67000    0.14950    0.02200   10.07500   10.48650
 10104.00000   -9999.25   -9999.25  116.64180  -86.94170   94.20510   11.34320    9.46060    3.14560   -0.00560    2.67750    0.15100    0.02070   10.85400   11.00360
 10104.50000   -9999.25   -9999.25  118.20900  -87.19160   91.21420   11.98490    9.46180    3.17760   -0.00260    2.67150    0.14930    0.02020   11.46750   11.78590
 10105.00000   -9999.25   -9999.25  119.55220  -87.19450   88.10210   12.57640    9.49260    3.24160   -0.00260    2.65650    0.14440    0.03340   11.95090   12.71050
 10105.50000   -9999.25   -9999.25  119.57910  -87.19750   85.66560   13.10690    9.49360    3.30070   -0.00260    2.64930    0.13960    0.03890   12.36970   13.33740
 10106.00000   -9999.25   -9999.25  118.20900  -87.20040   82.98470   13.38180    9.52440    3.32780   -0.00250    2.64790    0.13180    0.03990   12.45660   13.61690
 10106.50000   -9999.25   -9999.25  117.53730  -87.80040   81.14130   13.29250    9.52540    3.32900   -0.00100    2.65890    0.12940    0.03430   12.37400   13.52670
 10107.00000   -9999.25   -9999.25  116.58810  -88.10180   78.36880   13.11420    9.52650    3.33020   -0.00100    2.66500    0.12820    0.02740   12.12490   13.25430
 10107.50000   -9999.25   -9999.25  112.83580  -88.70180   75.49810   12.67560    9.52750    3.29320    0.00060    2.67230    0.13000    0.02630   11.88130   13.16650
 10108.00000   -9999.25   -9999.25  110.37310  -89.30170   73.74940   12.76540    9.52860    3.26350    0.00060    2.67490    0.13170    0.02740   11.94340   13.44250
 10108.50000   -9999.25   -9999.25  109.47760  -89.60320   71.74920   14.44420    9.52980    3.21520   -0.00090    2.67400    0.12340    0.02860   14.39880   14.40770
 10109.00000   -9999.25   -9999.25  107.91040  -90.20310   68.63430   16.01120    9.53080    3.17470   -0.00230    2.66250    0.11320    0.02980   15.42250   16.22910
 10109.50000   -9999.25   -9999.25  106.11940  -90.80310   67.25480   16.45950    9.53170    3.12900   -0.00230    2.65720    0.10660    0.03320   15.53080   17.56820
 10110.00000   -9999.25   -9999.25  105.22390  -91.70150   66.49140   15.62050    9.53290    3.08590   -0.00220    2.65600    0.10120    0.04410   14.21160   15.11510
 10110.50000   -9999.25   -9999.25  110.59700  -92.30150   66.47470   14.45660    9.53390    3.08830   -0.00220    2.64630    0.10960    0.04680   13.54910   14.41050
 10111.00000   -9999.25   -9999.25  114.62690  -92.91820   66.45620   14.65900    9.53490    3.10300   -0.00220    2.63650    0.12920    0.04370   14.31500   15.12120
